{"type":"FeatureCollection","features":[{"type":"Feature","geometry":{"type":"Point","coordinates":[6.13698,46.35332]},"properties":{"nom":"Divonne-les-B, Ancienne gare","ag":["Réseau urbain du Pays de Gex"],"lt":0,"dept":"01"}},{"type":"Feature","geometry":{"type":"Point","coordinates":[6.05955,46.33191]},"properties":{"nom":"Gex, centre","ag":["Réseau urbain du Pays de Gex"],"lt":0,"dept":"01"}},{"type":"Feature","geometry":{"type":"Point","coordinates":[6.13194,46.35432]},"properties":{"nom":"Divonne-les-B, Arbère","ag":["Réseau urbain du Pays de Gex"],"lt":0,"dept":"01"}},{"type":"Feature","geometry":{"type":"Point","coordinates":[6.14854,46.34763]},"properties":{"nom":"Divonne-les-B, douane P+R","ag":["Réseau urbain du Pays de Gex"],"lt":0,"dept":"01"}},{"type":"Feature","geometry":{"type":"Point","coordinates":[6.14534,46.35646]},"properties":{"nom":"Divonne-les-B, Perdtemps","ag":["Réseau urbain du Pays de Gex"],"lt":0,"dept":"01"}},{"type":"Feature","geometry":{"type":"Point","coordinates":[6.14423,46.35366]},"properties":{"nom":"Divonne-les-B, piscine","ag":["Réseau urbain du Pays de Gex"],"lt":0,"dept":"01"}},{"type":"Feature","geometry":{"type":"Point","coordinates":[6.14642,46.36086]},"properties":{"nom":"Divonne-les-B, Rue de La Scie","ag":["Réseau urbain du Pays de Gex"],"lt":0,"dept":"01"}},{"type":"Feature","geometry":{"type":"Point","coordinates":[6.1575,46.36818]},"properties":{"nom":"Divonne-les-B, Vésenex","ag":["Réseau urbain du Pays de Gex"],"lt":0,"dept":"01"}},{"type":"Feature","geometry":{"type":"Point","coordinates":[6.06751,46.33557]},"properties":{"nom":"Gex, Georges Charpak","ag":["Réseau urbain du Pays de Gex"],"lt":0,"dept":"01"}},{"type":"Feature","geometry":{"type":"Point","coordinates":[6.073,46.33794]},"properties":{"nom":"Gex, L'Aiglette","ag":["Réseau urbain du Pays de Gex"],"lt":0,"dept":"01"}},{"type":"Feature","geometry":{"type":"Point","coordinates":[5.19309,46.13623]},"properties":{"nom":"Longchamp","ag":["Réseau interurbain - Ain (01)","Agrégat des réseaux urbains et interurbains d'Auvergne-Rhône-Alpes"],"lt":0,"dept":"01"}},{"type":"Feature","geometry":{"type":"Point","coordinates":[5.48361,45.77867]},"properties":{"nom":"Vérizieu","ag":["Réseau interurbain - Ain (01)","Agrégat des réseaux urbains et interurbains d'Auvergne-Rhône-Alpes"],"lt":0,"dept":"01"}},{"type":"Feature","geometry":{"type":"Point","coordinates":[5.45869,45.78265]},"properties":{"nom":"Mairie","ag":["Réseau interurbain - Ain (01)","Agrégat des réseaux urbains et interurbains d'Auvergne-Rhône-Alpes"],"lt":0,"dept":"01"}},{"type":"Feature","geometry":{"type":"Point","coordinates":[5.45891,45.79625]},"properties":{"nom":"Les Granges","ag":["Réseau interurbain - Ain (01)","Agrégat des réseaux urbains et interurbains d'Auvergne-Rhône-Alpes"],"lt":0,"dept":"01"}},{"type":"Feature","geometry":{"type":"Point","coordinates":[5.45344,45.80708]},"properties":{"nom":"Mairie","ag":["Réseau interurbain - Ain (01)","Agrégat des réseaux urbains et interurbains d'Auvergne-Rhône-Alpes"],"lt":0,"dept":"01"}},{"type":"Feature","geometry":{"type":"Point","coordinates":[5.39838,45.86229]},"properties":{"nom":"Brenaz Village","ag":["Réseau interurbain - Ain (01)","Agrégat des réseaux urbains et interurbains d'Auvergne-Rhône-Alpes"],"lt":0,"dept":"01"}},{"type":"Feature","geometry":{"type":"Point","coordinates":[5.27763,45.88996]},"properties":{"nom":"Village","ag":["Réseau interurbain - Ain (01)","Agrégat des réseaux urbains et interurbains d'Auvergne-Rhône-Alpes"],"lt":0,"dept":"01"}},{"type":"Feature","geometry":{"type":"Point","coordinates":[5.34822,45.90247]},"properties":{"nom":"Place","ag":["Réseau interurbain - Ain (01)","Agrégat des réseaux urbains et interurbains d'Auvergne-Rhône-Alpes"],"lt":0,"dept":"01"}},{"type":"Feature","geometry":{"type":"Point","coordinates":[5.25523,45.89336]},"properties":{"nom":"Village","ag":["Réseau interurbain - Ain (01)","Agrégat des réseaux urbains et interurbains d'Auvergne-Rhône-Alpes"],"lt":0,"dept":"01"}},{"type":"Feature","geometry":{"type":"Point","coordinates":[5.07626,45.85098]},"properties":{"nom":"Centre","ag":["Réseau interurbain - Ain (01)","Agrégat des réseaux urbains et interurbains d'Auvergne-Rhône-Alpes"],"lt":0,"dept":"01"}},{"type":"Feature","geometry":{"type":"Point","coordinates":[4.97766,45.82926]},"properties":{"nom":"Centre","ag":["Réseau interurbain - Ain (01)","Agrégat des réseaux urbains et interurbains d'Auvergne-Rhône-Alpes"],"lt":0,"dept":"01"}},{"type":"Feature","geometry":{"type":"Point","coordinates":[4.81844,45.93269]},"properties":{"nom":"Stade","ag":["Réseau interurbain - Ain (01)","Agrégat des réseaux urbains et interurbains d'Auvergne-Rhône-Alpes"],"lt":0,"dept":"01"}},{"type":"Feature","geometry":{"type":"Point","coordinates":[4.90297,45.99557]},"properties":{"nom":"Village","ag":["Réseau interurbain - Ain (01)","Agrégat des réseaux urbains et interurbains d'Auvergne-Rhône-Alpes"],"lt":0,"dept":"01"}},{"type":"Feature","geometry":{"type":"Point","coordinates":[5.44836,46.31071]},"properties":{"nom":"Germagnat - Village","ag":["Réseau interurbain - Ain (01)","Agrégat des réseaux urbains et interurbains d'Auvergne-Rhône-Alpes"],"lt":0,"dept":"01"}},{"type":"Feature","geometry":{"type":"Point","coordinates":[5.44275,46.30384]},"properties":{"nom":"Germagnat - Lasserra","ag":["Réseau interurbain - Ain (01)","Agrégat des réseaux urbains et interurbains d'Auvergne-Rhône-Alpes"],"lt":0,"dept":"01"}},{"type":"Feature","geometry":{"type":"Point","coordinates":[5.43373,46.29217]},"properties":{"nom":"Chavannes-sur-Suran - Grand Chavuissiat","ag":["Réseau interurbain - Ain (01)","Agrégat des réseaux urbains et interurbains d'Auvergne-Rhône-Alpes"],"lt":0,"dept":"01"}},{"type":"Feature","geometry":{"type":"Point","coordinates":[5.43081,46.28189]},"properties":{"nom":"Chavannes-sur-Suran - Petit Chavuissiat","ag":["Réseau interurbain - Ain (01)","Agrégat des réseaux urbains et interurbains d'Auvergne-Rhône-Alpes"],"lt":0,"dept":"01"}},{"type":"Feature","geometry":{"type":"Point","coordinates":[5.42933,46.27506]},"properties":{"nom":"Chavannes-sur-Suran - Corcelles","ag":["Réseau interurbain - Ain (01)","Agrégat des réseaux urbains et interurbains d'Auvergne-Rhône-Alpes"],"lt":0,"dept":"01"}},{"type":"Feature","geometry":{"type":"Point","coordinates":[5.40714,46.25469]},"properties":{"nom":"Chavannes-sur-Suran - Dhuys","ag":["Réseau interurbain - Ain (01)","Agrégat des réseaux urbains et interurbains d'Auvergne-Rhône-Alpes"],"lt":0,"dept":"01"}},{"type":"Feature","geometry":{"type":"Point","coordinates":[5.38235,46.24359]},"properties":{"nom":"Treffort-Cuisiat - Montmerle","ag":["Réseau interurbain - Ain (01)","Agrégat des réseaux urbains et interurbains d'Auvergne-Rhône-Alpes"],"lt":0,"dept":"01"}},{"type":"Feature","geometry":{"type":"Point","coordinates":[5.34175,45.95442]},"properties":{"nom":"SNCF","ag":["Réseau interurbain - Ain (01)","Agrégat des réseaux urbains et interurbains d'Auvergne-Rhône-Alpes"],"lt":0,"dept":"01"}},{"type":"Feature","geometry":{"type":"Point","coordinates":[5.81801,46.11367]},"properties":{"nom":"Bellegarde - Cité Saint-Exupéry","ag":["Réseau interurbain - Ain (01)","Agrégat des réseaux urbains et interurbains d'Auvergne-Rhône-Alpes"],"lt":0,"dept":"01"}},{"type":"Feature","geometry":{"type":"Point","coordinates":[5.00581,45.83688]},"properties":{"nom":"Gare","ag":["Réseau interurbain - Ain (01)","Agrégat des réseaux urbains et interurbains d'Auvergne-Rhône-Alpes"],"lt":0,"dept":"01"}},{"type":"Feature","geometry":{"type":"Point","coordinates":[5.21539,46.19935]},"properties":{"nom":"SNCF","ag":["Réseau interurbain - Ain (01)","Agrégat des réseaux urbains et interurbains d'Auvergne-Rhône-Alpes"],"lt":0,"dept":"01"}},{"type":"Feature","geometry":{"type":"Point","coordinates":[5.7985,46.14361]},"properties":{"nom":"Chatillon - Mairie","ag":["Réseau interurbain - Ain (01)","Agrégat des réseaux urbains et interurbains d'Auvergne-Rhône-Alpes"],"lt":0,"dept":"01"}},{"type":"Feature","geometry":{"type":"Point","coordinates":[5.88364,46.11602]},"properties":{"nom":"Longeray","ag":["Réseau interurbain - Ain (01)","Agrégat des réseaux urbains et interurbains d'Auvergne-Rhône-Alpes"],"lt":0,"dept":"01"}},{"type":"Feature","geometry":{"type":"Point","coordinates":[5.80912,45.914]},"properties":{"nom":"Mairie","ag":["Réseau interurbain - Ain (01)","Agrégat des réseaux urbains et interurbains d'Auvergne-Rhône-Alpes"],"lt":0,"dept":"01"}},{"type":"Feature","geometry":{"type":"Point","coordinates":[5.90532,46.16369]},"properties":{"nom":"Quart d'Avo","ag":["Réseau interurbain - Ain (01)","Agrégat des réseaux urbains et interurbains d'Auvergne-Rhône-Alpes"],"lt":0,"dept":"01"}},{"type":"Feature","geometry":{"type":"Point","coordinates":[5.05737,45.84781]},"properties":{"nom":"Gare SNCF","ag":["Réseau interurbain - Ain (01)","Agrégat des réseaux urbains et interurbains d'Auvergne-Rhône-Alpes"],"lt":0,"dept":"01"}},{"type":"Feature","geometry":{"type":"Point","coordinates":[5.92594,46.18891]},"properties":{"nom":"Village Eglise","ag":["Réseau interurbain - Ain (01)","Agrégat des réseaux urbains et interurbains d'Auvergne-Rhône-Alpes"],"lt":0,"dept":"01"}},{"type":"Feature","geometry":{"type":"Point","coordinates":[5.91752,46.18018]},"properties":{"nom":"Logras Arrêt Ter","ag":["Réseau interurbain - Ain (01)","Agrégat des réseaux urbains et interurbains d'Auvergne-Rhône-Alpes"],"lt":0,"dept":"01"}},{"type":"Feature","geometry":{"type":"Point","coordinates":[5.28913,46.13427]},"properties":{"nom":"La Vavrette","ag":["Réseau interurbain - Ain (01)","Agrégat des réseaux urbains et interurbains d'Auvergne-Rhône-Alpes"],"lt":0,"dept":"01"}},{"type":"Feature","geometry":{"type":"Point","coordinates":[5.97213,46.18144]},"properties":{"nom":"Village","ag":["Réseau interurbain - Ain (01)","Agrégat des réseaux urbains et interurbains d'Auvergne-Rhône-Alpes"],"lt":0,"dept":"01"}},{"type":"Feature","geometry":{"type":"Point","coordinates":[5.86014,46.09098]},"properties":{"nom":"Grésin","ag":["Réseau interurbain - Ain (01)","Agrégat des réseaux urbains et interurbains d'Auvergne-Rhône-Alpes"],"lt":0,"dept":"01"}},{"type":"Feature","geometry":{"type":"Point","coordinates":[5.88084,46.09901]},"properties":{"nom":"Bourg","ag":["Réseau interurbain - Ain (01)","Agrégat des réseaux urbains et interurbains d'Auvergne-Rhône-Alpes"],"lt":0,"dept":"01"}},{"type":"Feature","geometry":{"type":"Point","coordinates":[5.78523,46.00549]},"properties":{"nom":"Mairie","ag":["Réseau interurbain - Ain (01)","Agrégat des réseaux urbains et interurbains d'Auvergne-Rhône-Alpes"],"lt":0,"dept":"01"}},{"type":"Feature","geometry":{"type":"Point","coordinates":[5.779,46.02178]},"properties":{"nom":"Lhopital - Village","ag":["Réseau interurbain - Ain (01)","Agrégat des réseaux urbains et interurbains d'Auvergne-Rhône-Alpes"],"lt":0,"dept":"01"}},{"type":"Feature","geometry":{"type":"Point","coordinates":[5.80298,46.05121]},"properties":{"nom":"Génissiat","ag":["Réseau interurbain - Ain (01)","Agrégat des réseaux urbains et interurbains d'Auvergne-Rhône-Alpes"],"lt":0,"dept":"01"}},{"type":"Feature","geometry":{"type":"Point","coordinates":[5.77654,46.03438]},"properties":{"nom":"Bériaz","ag":["Réseau interurbain - Ain (01)","Agrégat des réseaux urbains et interurbains d'Auvergne-Rhône-Alpes"],"lt":0,"dept":"01"}},{"type":"Feature","geometry":{"type":"Point","coordinates":[5.78452,46.07767]},"properties":{"nom":"Village","ag":["Réseau interurbain - Ain (01)","Agrégat des réseaux urbains et interurbains d'Auvergne-Rhône-Alpes"],"lt":0,"dept":"01"}},{"type":"Feature","geometry":{"type":"Point","coordinates":[5.75749,46.04096]},"properties":{"nom":"Craz Michaille","ag":["Réseau interurbain - Ain (01)","Agrégat des réseaux urbains et interurbains d'Auvergne-Rhône-Alpes"],"lt":0,"dept":"01"}},{"type":"Feature","geometry":{"type":"Point","coordinates":[5.78455,46.08777]},"properties":{"nom":"Centre","ag":["Réseau interurbain - Ain (01)","Agrégat des réseaux urbains et interurbains d'Auvergne-Rhône-Alpes"],"lt":0,"dept":"01"}},{"type":"Feature","geometry":{"type":"Point","coordinates":[5.78017,46.1092]},"properties":{"nom":"Chatillon - Ochiaz Village","ag":["Réseau interurbain - Ain (01)","Agrégat des réseaux urbains et interurbains d'Auvergne-Rhône-Alpes"],"lt":0,"dept":"01"}},{"type":"Feature","geometry":{"type":"Point","coordinates":[5.79302,46.13308]},"properties":{"nom":"Chatillon - Ardon","ag":["Réseau interurbain - Ain (01)","Agrégat des réseaux urbains et interurbains d'Auvergne-Rhône-Alpes"],"lt":0,"dept":"01"}},{"type":"Feature","geometry":{"type":"Point","coordinates":[5.79545,46.1379]},"properties":{"nom":"Chatillon - Châtelard","ag":["Réseau interurbain - Ain (01)","Agrégat des réseaux urbains et interurbains d'Auvergne-Rhône-Alpes"],"lt":0,"dept":"01"}},{"type":"Feature","geometry":{"type":"Point","coordinates":[5.79498,45.85264]},"properties":{"nom":"Culoz - Landaize","ag":["Réseau interurbain - Ain (01)","Agrégat des réseaux urbains et interurbains d'Auvergne-Rhône-Alpes"],"lt":0,"dept":"01"}},{"type":"Feature","geometry":{"type":"Point","coordinates":[5.77307,45.8092]},"properties":{"nom":"Village","ag":["Réseau interurbain - Ain (01)","Agrégat des réseaux urbains et interurbains d'Auvergne-Rhône-Alpes"],"lt":0,"dept":"01"}},{"type":"Feature","geometry":{"type":"Point","coordinates":[5.76778,45.78639]},"properties":{"nom":"Rochefort","ag":["Réseau interurbain - Ain (01)","Agrégat des réseaux urbains et interurbains d'Auvergne-Rhône-Alpes"],"lt":0,"dept":"01"}},{"type":"Feature","geometry":{"type":"Point","coordinates":[5.80091,45.86707]},"properties":{"nom":"Culoz - Chatel","ag":["Réseau interurbain - Ain (01)","Agrégat des réseaux urbains et interurbains d'Auvergne-Rhône-Alpes"],"lt":0,"dept":"01"}},{"type":"Feature","geometry":{"type":"Point","coordinates":[5.80969,45.92863]},"properties":{"nom":"Mieugy","ag":["Réseau interurbain - Ain (01)","Agrégat des réseaux urbains et interurbains d'Auvergne-Rhône-Alpes"],"lt":0,"dept":"01"}},{"type":"Feature","geometry":{"type":"Point","coordinates":[5.55088,45.73686]},"properties":{"nom":"Ansolin","ag":["Réseau interurbain - Ain (01)","Agrégat des réseaux urbains et interurbains d'Auvergne-Rhône-Alpes"],"lt":0,"dept":"01"}},{"type":"Feature","geometry":{"type":"Point","coordinates":[5.58821,45.69339]},"properties":{"nom":"Saint-Benoit - Village","ag":["Réseau interurbain - Ain (01)","Agrégat des réseaux urbains et interurbains d'Auvergne-Rhône-Alpes"],"lt":0,"dept":"01"}},{"type":"Feature","geometry":{"type":"Point","coordinates":[5.62024,45.64838]},"properties":{"nom":"Village-Ecole","ag":["Réseau interurbain - Ain (01)","Agrégat des réseaux urbains et interurbains d'Auvergne-Rhône-Alpes"],"lt":0,"dept":"01"}},{"type":"Feature","geometry":{"type":"Point","coordinates":[5.62591,45.64144]},"properties":{"nom":"Bruyère","ag":["Réseau interurbain - Ain (01)","Agrégat des réseaux urbains et interurbains d'Auvergne-Rhône-Alpes"],"lt":0,"dept":"01"}},{"type":"Feature","geometry":{"type":"Point","coordinates":[5.6497,45.82052]},"properties":{"nom":"Pugieu - Village (Mairie)","ag":["Réseau interurbain - Ain (01)","Agrégat des réseaux urbains et interurbains d'Auvergne-Rhône-Alpes"],"lt":0,"dept":"01"}},{"type":"Feature","geometry":{"type":"Point","coordinates":[5.68206,45.80422]},"properties":{"nom":"Chazey - Salle des Fêtes","ag":["Réseau interurbain - Ain (01)","Agrégat des réseaux urbains et interurbains d'Auvergne-Rhône-Alpes"],"lt":0,"dept":"01"}},{"type":"Feature","geometry":{"type":"Point","coordinates":[5.67671,45.78133]},"properties":{"nom":"Chazey - Rothonod","ag":["Réseau interurbain - Ain (01)","Agrégat des réseaux urbains et interurbains d'Auvergne-Rhône-Alpes"],"lt":0,"dept":"01"}},{"type":"Feature","geometry":{"type":"Point","coordinates":[5.7069,45.73498]},"properties":{"nom":"Lassignieu","ag":["Réseau interurbain - Ain (01)","Agrégat des réseaux urbains et interurbains d'Auvergne-Rhône-Alpes"],"lt":0,"dept":"01"}},{"type":"Feature","geometry":{"type":"Point","coordinates":[5.23008,45.92808]},"properties":{"nom":"Loyes - Place","ag":["Réseau interurbain - Ain (01)","Agrégat des réseaux urbains et interurbains d'Auvergne-Rhône-Alpes"],"lt":0,"dept":"01"}},{"type":"Feature","geometry":{"type":"Point","coordinates":[5.24461,45.94498]},"properties":{"nom":"Mollon - Place","ag":["Réseau interurbain - Ain (01)","Agrégat des réseaux urbains et interurbains d'Auvergne-Rhône-Alpes"],"lt":0,"dept":"01"}},{"type":"Feature","geometry":{"type":"Point","coordinates":[4.93177,45.8145]},"properties":{"nom":"Mairie","ag":["Réseau interurbain - Ain (01)","Agrégat des réseaux urbains et interurbains d'Auvergne-Rhône-Alpes"],"lt":0,"dept":"01"}},{"type":"Feature","geometry":{"type":"Point","coordinates":[5.32396,46.07306]},"properties":{"nom":"Mas Pommier","ag":["Réseau interurbain - Ain (01)","Agrégat des réseaux urbains et interurbains d'Auvergne-Rhône-Alpes"],"lt":0,"dept":"01"}},{"type":"Feature","geometry":{"type":"Point","coordinates":[5.31658,46.03949]},"properties":{"nom":"Village","ag":["Réseau interurbain - Ain (01)","Agrégat des réseaux urbains et interurbains d'Auvergne-Rhône-Alpes"],"lt":0,"dept":"01"}},{"type":"Feature","geometry":{"type":"Point","coordinates":[5.2996,46.02949]},"properties":{"nom":"Carronnières","ag":["Réseau interurbain - Ain (01)","Agrégat des réseaux urbains et interurbains d'Auvergne-Rhône-Alpes"],"lt":0,"dept":"01"}},{"type":"Feature","geometry":{"type":"Point","coordinates":[5.2897,46.0034]},"properties":{"nom":"Grande Rue","ag":["Réseau interurbain - Ain (01)","Agrégat des réseaux urbains et interurbains d'Auvergne-Rhône-Alpes"],"lt":0,"dept":"01"}},{"type":"Feature","geometry":{"type":"Point","coordinates":[5.25973,45.98007]},"properties":{"nom":"Bublanne","ag":["Réseau interurbain - Ain (01)","Agrégat des réseaux urbains et interurbains d'Auvergne-Rhône-Alpes"],"lt":0,"dept":"01"}},{"type":"Feature","geometry":{"type":"Point","coordinates":[5.25104,45.9671]},"properties":{"nom":"Gévrieux Superette","ag":["Réseau interurbain - Ain (01)"],"lt":0,"dept":"01"}},{"type":"Feature","geometry":{"type":"Point","coordinates":[5.27636,45.95907]},"properties":{"nom":"Village","ag":["Réseau interurbain - Ain (01)","Agrégat des réseaux urbains et interurbains d'Auvergne-Rhône-Alpes"],"lt":0,"dept":"01"}},{"type":"Feature","geometry":{"type":"Point","coordinates":[5.34258,45.99554]},"properties":{"nom":"Coutelieu","ag":["Réseau interurbain - Ain (01)","Agrégat des réseaux urbains et interurbains d'Auvergne-Rhône-Alpes"],"lt":0,"dept":"01"}},{"type":"Feature","geometry":{"type":"Point","coordinates":[5.33039,45.95229]},"properties":{"nom":"Village","ag":["Réseau interurbain - Ain (01)","Agrégat des réseaux urbains et interurbains d'Auvergne-Rhône-Alpes"],"lt":0,"dept":"01"}},{"type":"Feature","geometry":{"type":"Point","coordinates":[5.32492,46.11691]},"properties":{"nom":"Salles","ag":["Réseau interurbain - Ain (01)","Agrégat des réseaux urbains et interurbains d'Auvergne-Rhône-Alpes"],"lt":0,"dept":"01"}},{"type":"Feature","geometry":{"type":"Point","coordinates":[5.26899,46.14731]},"properties":{"nom":"Rippes Passage SNCF","ag":["Réseau interurbain - Ain (01)","Agrégat des réseaux urbains et interurbains d'Auvergne-Rhône-Alpes"],"lt":0,"dept":"01"}},{"type":"Feature","geometry":{"type":"Point","coordinates":[5.28404,46.17009]},"properties":{"nom":"Village","ag":["Réseau interurbain - Ain (01)","Agrégat des réseaux urbains et interurbains d'Auvergne-Rhône-Alpes"],"lt":0,"dept":"01"}},{"type":"Feature","geometry":{"type":"Point","coordinates":[5.37104,45.99069]},"properties":{"nom":"Village Espace de Loisirs","ag":["Réseau interurbain - Ain (01)","Agrégat des réseaux urbains et interurbains d'Auvergne-Rhône-Alpes"],"lt":0,"dept":"01"}},{"type":"Feature","geometry":{"type":"Point","coordinates":[5.26453,46.13281]},"properties":{"nom":"Village","ag":["Réseau interurbain - Ain (01)","Agrégat des réseaux urbains et interurbains d'Auvergne-Rhône-Alpes"],"lt":0,"dept":"01"}},{"type":"Feature","geometry":{"type":"Point","coordinates":[5.40695,46.08555]},"properties":{"nom":"Village","ag":["Réseau interurbain - Ain (01)","Agrégat des réseaux urbains et interurbains d'Auvergne-Rhône-Alpes"],"lt":0,"dept":"01"}},{"type":"Feature","geometry":{"type":"Point","coordinates":[5.41029,46.0387]},"properties":{"nom":"Village","ag":["Réseau interurbain - Ain (01)","Agrégat des réseaux urbains et interurbains d'Auvergne-Rhône-Alpes"],"lt":0,"dept":"01"}},{"type":"Feature","geometry":{"type":"Point","coordinates":[5.3892,46.02896]},"properties":{"nom":"Village","ag":["Réseau interurbain - Ain (01)","Agrégat des réseaux urbains et interurbains d'Auvergne-Rhône-Alpes"],"lt":0,"dept":"01"}},{"type":"Feature","geometry":{"type":"Point","coordinates":[5.24476,46.21176]},"properties":{"nom":"Voisin","ag":["Réseau interurbain - Ain (01)","Agrégat des réseaux urbains et interurbains d'Auvergne-Rhône-Alpes"],"lt":0,"dept":"01"}},{"type":"Feature","geometry":{"type":"Point","coordinates":[5.2053,46.07123]},"properties":{"nom":"Village","ag":["Réseau interurbain - Ain (01)","Agrégat des réseaux urbains et interurbains d'Auvergne-Rhône-Alpes"],"lt":0,"dept":"01"}},{"type":"Feature","geometry":{"type":"Point","coordinates":[5.19496,46.12108]},"properties":{"nom":"Centre Mairie","ag":["Réseau interurbain - Ain (01)","Agrégat des réseaux urbains et interurbains d'Auvergne-Rhône-Alpes"],"lt":0,"dept":"01"}},{"type":"Feature","geometry":{"type":"Point","coordinates":[5.19368,46.15569]},"properties":{"nom":"Lalleyriat","ag":["Réseau interurbain - Ain (01)","Agrégat des réseaux urbains et interurbains d'Auvergne-Rhône-Alpes"],"lt":0,"dept":"01"}},{"type":"Feature","geometry":{"type":"Point","coordinates":[5.20339,46.1798]},"properties":{"nom":"Mairie","ag":["Réseau interurbain - Ain (01)","Agrégat des réseaux urbains et interurbains d'Auvergne-Rhône-Alpes"],"lt":0,"dept":"01"}},{"type":"Feature","geometry":{"type":"Point","coordinates":[5.2462,46.20754]},"properties":{"nom":"Victoire Daubié","ag":["Réseau interurbain - Ain (01)","Agrégat des réseaux urbains et interurbains d'Auvergne-Rhône-Alpes"],"lt":0,"dept":"01"}},{"type":"Feature","geometry":{"type":"Point","coordinates":[5.36046,46.05538]},"properties":{"nom":"Oussiat le Bas","ag":["Réseau interurbain - Ain (01)","Agrégat des réseaux urbains et interurbains d'Auvergne-Rhône-Alpes"],"lt":0,"dept":"01"}},{"type":"Feature","geometry":{"type":"Point","coordinates":[4.77407,45.99167]},"properties":{"nom":"Village","ag":["Réseau interurbain - Ain (01)","Agrégat des réseaux urbains et interurbains d'Auvergne-Rhône-Alpes"],"lt":0,"dept":"01"}},{"type":"Feature","geometry":{"type":"Point","coordinates":[4.851,46.09711]},"properties":{"nom":"Village","ag":["Réseau interurbain - Ain (01)","Agrégat des réseaux urbains et interurbains d'Auvergne-Rhône-Alpes"],"lt":0,"dept":"01"}},{"type":"Feature","geometry":{"type":"Point","coordinates":[4.85077,46.25364]},"properties":{"nom":"Village Ecole","ag":["Réseau interurbain - Ain (01)","Agrégat des réseaux urbains et interurbains d'Auvergne-Rhône-Alpes"],"lt":0,"dept":"01"}},{"type":"Feature","geometry":{"type":"Point","coordinates":[4.84603,46.21991]},"properties":{"nom":"Village","ag":["Réseau interurbain - Ain (01)","Agrégat des réseaux urbains et interurbains d'Auvergne-Rhône-Alpes"],"lt":0,"dept":"01"}},{"type":"Feature","geometry":{"type":"Point","coordinates":[4.84043,46.20537]},"properties":{"nom":"Village","ag":["Réseau interurbain - Ain (01)","Agrégat des réseaux urbains et interurbains d'Auvergne-Rhône-Alpes"],"lt":0,"dept":"01"}},{"type":"Feature","geometry":{"type":"Point","coordinates":[4.83472,46.21806]},"properties":{"nom":"Les Leynards","ag":["Réseau interurbain - Ain (01)","Agrégat des réseaux urbains et interurbains d'Auvergne-Rhône-Alpes"],"lt":0,"dept":"01"}},{"type":"Feature","geometry":{"type":"Point","coordinates":[4.90255,46.11075]},"properties":{"nom":"Village-Ecole","ag":["Réseau interurbain - Ain (01)","Agrégat des réseaux urbains et interurbains d'Auvergne-Rhône-Alpes"],"lt":0,"dept":"01"}},{"type":"Feature","geometry":{"type":"Point","coordinates":[5.0368,46.26055]},"properties":{"nom":"Effondras","ag":["Réseau interurbain - Ain (01)","Agrégat des réseaux urbains et interurbains d'Auvergne-Rhône-Alpes"],"lt":0,"dept":"01"}},{"type":"Feature","geometry":{"type":"Point","coordinates":[4.904,46.1429]},"properties":{"nom":"Village","ag":["Réseau interurbain - Ain (01)","Agrégat des réseaux urbains et interurbains d'Auvergne-Rhône-Alpes"],"lt":0,"dept":"01"}},{"type":"Feature","geometry":{"type":"Point","coordinates":[4.80267,46.13619]},"properties":{"nom":"Bas RD933 - Le Vernay","ag":["Réseau interurbain - Ain (01)","Agrégat des réseaux urbains et interurbains d'Auvergne-Rhône-Alpes"],"lt":0,"dept":"01"}},{"type":"Feature","geometry":{"type":"Point","coordinates":[5.33589,45.93945]},"properties":{"nom":"Village","ag":["Réseau interurbain - Ain (01)","Agrégat des réseaux urbains et interurbains d'Auvergne-Rhône-Alpes"],"lt":0,"dept":"01"}},{"type":"Feature","geometry":{"type":"Point","coordinates":[5.35088,45.9748]},"properties":{"nom":"LEP Bérard","ag":["Réseau interurbain - Ain (01)","Agrégat des réseaux urbains et interurbains d'Auvergne-Rhône-Alpes"],"lt":0,"dept":"01"}},{"type":"Feature","geometry":{"type":"Point","coordinates":[5.48229,46.09219]},"properties":{"nom":"Village Ecole","ag":["Réseau interurbain - Ain (01)","Agrégat des réseaux urbains et interurbains d'Auvergne-Rhône-Alpes"],"lt":0,"dept":"01"}},{"type":"Feature","geometry":{"type":"Point","coordinates":[5.4642,46.08005]},"properties":{"nom":"Village","ag":["Réseau interurbain - Ain (01)","Agrégat des réseaux urbains et interurbains d'Auvergne-Rhône-Alpes"],"lt":0,"dept":"01"}},{"type":"Feature","geometry":{"type":"Point","coordinates":[5.42729,46.07801]},"properties":{"nom":"Leymiat","ag":["Réseau interurbain - Ain (01)","Agrégat des réseaux urbains et interurbains d'Auvergne-Rhône-Alpes"],"lt":0,"dept":"01"}},{"type":"Feature","geometry":{"type":"Point","coordinates":[5.99557,46.36592]},"properties":{"nom":"Village Place","ag":["Réseau interurbain - Ain (01)","Agrégat des réseaux urbains et interurbains d'Auvergne-Rhône-Alpes"],"lt":0,"dept":"01"}},{"type":"Feature","geometry":{"type":"Point","coordinates":[5.94467,46.30619]},"properties":{"nom":"Sherpa","ag":["Réseau interurbain - Ain (01)","Agrégat des réseaux urbains et interurbains d'Auvergne-Rhône-Alpes"],"lt":0,"dept":"01"}},{"type":"Feature","geometry":{"type":"Point","coordinates":[5.81594,46.19374]},"properties":{"nom":"Centre","ag":["Réseau interurbain - Ain (01)","Agrégat des réseaux urbains et interurbains d'Auvergne-Rhône-Alpes"],"lt":0,"dept":"01"}},{"type":"Feature","geometry":{"type":"Point","coordinates":[5.86783,46.223]},"properties":{"nom":"Village","ag":["Réseau interurbain - Ain (01)","Agrégat des réseaux urbains et interurbains d'Auvergne-Rhône-Alpes"],"lt":0,"dept":"01"}},{"type":"Feature","geometry":{"type":"Point","coordinates":[5.82257,46.15002]},"properties":{"nom":"Place du Village","ag":["Réseau interurbain - Ain (01)","Agrégat des réseaux urbains et interurbains d'Auvergne-Rhône-Alpes"],"lt":0,"dept":"01"}},{"type":"Feature","geometry":{"type":"Point","coordinates":[5.83334,46.12506]},"properties":{"nom":"Lancrans - Village","ag":["Réseau interurbain - Ain (01)","Agrégat des réseaux urbains et interurbains d'Auvergne-Rhône-Alpes"],"lt":0,"dept":"01"}},{"type":"Feature","geometry":{"type":"Point","coordinates":[5.39161,46.13653]},"properties":{"nom":"Meyriat","ag":["Réseau interurbain - Ain (01)","Agrégat des réseaux urbains et interurbains d'Auvergne-Rhône-Alpes"],"lt":0,"dept":"01"}},{"type":"Feature","geometry":{"type":"Point","coordinates":[5.34526,46.16105]},"properties":{"nom":"Sénissiat","ag":["Réseau interurbain - Ain (01)","Agrégat des réseaux urbains et interurbains d'Auvergne-Rhône-Alpes"],"lt":0,"dept":"01"}},{"type":"Feature","geometry":{"type":"Point","coordinates":[5.32558,46.16396]},"properties":{"nom":"Ecole","ag":["Réseau interurbain - Ain (01)","Agrégat des réseaux urbains et interurbains d'Auvergne-Rhône-Alpes"],"lt":0,"dept":"01"}},{"type":"Feature","geometry":{"type":"Point","coordinates":[4.83874,46.02141]},"properties":{"nom":"Parking Salle des Fêtes","ag":["Réseau interurbain - Ain (01)","Agrégat des réseaux urbains et interurbains d'Auvergne-Rhône-Alpes"],"lt":0,"dept":"01"}},{"type":"Feature","geometry":{"type":"Point","coordinates":[5.07327,46.17744]},"properties":{"nom":"Genetière","ag":["Réseau interurbain - Ain (01)","Agrégat des réseaux urbains et interurbains d'Auvergne-Rhône-Alpes"],"lt":0,"dept":"01"}},{"type":"Feature","geometry":{"type":"Point","coordinates":[5.11402,46.1868]},"properties":{"nom":"Capitale","ag":["Réseau interurbain - Ain (01)","Agrégat des réseaux urbains et interurbains d'Auvergne-Rhône-Alpes"],"lt":0,"dept":"01"}},{"type":"Feature","geometry":{"type":"Point","coordinates":[5.15889,46.19655]},"properties":{"nom":"Corgenon","ag":["Réseau interurbain - Ain (01)","Agrégat des réseaux urbains et interurbains d'Auvergne-Rhône-Alpes"],"lt":0,"dept":"01"}},{"type":"Feature","geometry":{"type":"Point","coordinates":[5.04641,46.17196]},"properties":{"nom":"Corrobert","ag":["Réseau interurbain - Ain (01)","Agrégat des réseaux urbains et interurbains d'Auvergne-Rhône-Alpes"],"lt":0,"dept":"01"}},{"type":"Feature","geometry":{"type":"Point","coordinates":[4.80088,45.98283]},"properties":{"nom":"Lycée de Cibeins","ag":["Réseau interurbain - Ain (01)"],"lt":0,"dept":"01"}},{"type":"Feature","geometry":{"type":"Point","coordinates":[4.80005,45.9707]},"properties":{"nom":"Village Abri","ag":["Réseau interurbain - Ain (01)","Agrégat des réseaux urbains et interurbains d'Auvergne-Rhône-Alpes"],"lt":0,"dept":"01"}},{"type":"Feature","geometry":{"type":"Point","coordinates":[4.92125,46.43692]},"properties":{"nom":"Village Abribus","ag":["Réseau interurbain - Ain (01)","Agrégat des réseaux urbains et interurbains d'Auvergne-Rhône-Alpes"],"lt":0,"dept":"01"}},{"type":"Feature","geometry":{"type":"Point","coordinates":[4.91102,46.40757]},"properties":{"nom":"Village","ag":["Réseau interurbain - Ain (01)","Agrégat des réseaux urbains et interurbains d'Auvergne-Rhône-Alpes"],"lt":0,"dept":"01"}},{"type":"Feature","geometry":{"type":"Point","coordinates":[4.91759,46.29499]},"properties":{"nom":"Village","ag":["Réseau interurbain - Ain (01)","Agrégat des réseaux urbains et interurbains d'Auvergne-Rhône-Alpes"],"lt":0,"dept":"01"}},{"type":"Feature","geometry":{"type":"Point","coordinates":[4.94442,46.31564]},"properties":{"nom":"Bage-la-Ville - Mairie","ag":["Réseau interurbain - Ain (01)","Agrégat des réseaux urbains et interurbains d'Auvergne-Rhône-Alpes"],"lt":0,"dept":"01"}},{"type":"Feature","geometry":{"type":"Point","coordinates":[4.9044,46.28995]},"properties":{"nom":"L'Aumusse","ag":["Réseau interurbain - Ain (01)","Agrégat des réseaux urbains et interurbains d'Auvergne-Rhône-Alpes"],"lt":0,"dept":"01"}},{"type":"Feature","geometry":{"type":"Point","coordinates":[4.94803,46.3809]},"properties":{"nom":"Village","ag":["Réseau interurbain - Ain (01)","Agrégat des réseaux urbains et interurbains d'Auvergne-Rhône-Alpes"],"lt":0,"dept":"01"}},{"type":"Feature","geometry":{"type":"Point","coordinates":[5.53979,46.12814]},"properties":{"nom":"Village Ecole","ag":["Réseau interurbain - Ain (01)","Agrégat des réseaux urbains et interurbains d'Auvergne-Rhône-Alpes"],"lt":0,"dept":"01"}},{"type":"Feature","geometry":{"type":"Point","coordinates":[5.95453,46.32144]},"properties":{"nom":"Septfontaines - La Rose","ag":["Réseau interurbain - Ain (01)","Agrégat des réseaux urbains et interurbains d'Auvergne-Rhône-Alpes"],"lt":0,"dept":"01"}},{"type":"Feature","geometry":{"type":"Point","coordinates":[5.34729,45.95842]},"properties":{"nom":"Pérouses","ag":["Réseau interurbain - Ain (01)","Agrégat des réseaux urbains et interurbains d'Auvergne-Rhône-Alpes"],"lt":0,"dept":"01"}},{"type":"Feature","geometry":{"type":"Point","coordinates":[5.33782,45.95498]},"properties":{"nom":"Sarrail","ag":["Réseau interurbain - Ain (01)","Agrégat des réseaux urbains et interurbains d'Auvergne-Rhône-Alpes"],"lt":0,"dept":"01"}},{"type":"Feature","geometry":{"type":"Point","coordinates":[5.80788,45.896]},"properties":{"nom":"Champrion","ag":["Réseau interurbain - Ain (01)","Agrégat des réseaux urbains et interurbains d'Auvergne-Rhône-Alpes"],"lt":0,"dept":"01"}},{"type":"Feature","geometry":{"type":"Point","coordinates":[5.80965,45.92378]},"properties":{"nom":"Lotissement Saint-Symphorien","ag":["Réseau interurbain - Ain (01)","Agrégat des réseaux urbains et interurbains d'Auvergne-Rhône-Alpes"],"lt":0,"dept":"01"}},{"type":"Feature","geometry":{"type":"Point","coordinates":[5.80692,45.90234]},"properties":{"nom":"Route de Chevrier","ag":["Réseau interurbain - Ain (01)","Agrégat des réseaux urbains et interurbains d'Auvergne-Rhône-Alpes"],"lt":0,"dept":"01"}},{"type":"Feature","geometry":{"type":"Point","coordinates":[4.97041,46.46995]},"properties":{"nom":"Mairie","ag":["Réseau interurbain - Ain (01)","Agrégat des réseaux urbains et interurbains d'Auvergne-Rhône-Alpes"],"lt":0,"dept":"01"}},{"type":"Feature","geometry":{"type":"Point","coordinates":[5.69384,45.87339]},"properties":{"nom":"Stèle","ag":["Réseau interurbain - Ain (01)","Agrégat des réseaux urbains et interurbains d'Auvergne-Rhône-Alpes"],"lt":0,"dept":"01"}},{"type":"Feature","geometry":{"type":"Point","coordinates":[5.10292,45.84964]},"properties":{"nom":"Atochem","ag":["Réseau interurbain - Ain (01)","Agrégat des réseaux urbains et interurbains d'Auvergne-Rhône-Alpes"],"lt":0,"dept":"01"}},{"type":"Feature","geometry":{"type":"Point","coordinates":[5.32801,46.09978]},"properties":{"nom":"Village","ag":["Réseau interurbain - Ain (01)","Agrégat des réseaux urbains et interurbains d'Auvergne-Rhône-Alpes"],"lt":0,"dept":"01"}},{"type":"Feature","geometry":{"type":"Point","coordinates":[5.68993,45.76297]},"properties":{"nom":"Lycée Pb","ag":["Réseau interurbain - Ain (01)","Agrégat des réseaux urbains et interurbains d'Auvergne-Rhône-Alpes"],"lt":0,"dept":"01"}},{"type":"Feature","geometry":{"type":"Point","coordinates":[5.70863,45.75071]},"properties":{"nom":"Z.A. Coron","ag":["Réseau interurbain - Ain (01)","Agrégat des réseaux urbains et interurbains d'Auvergne-Rhône-Alpes"],"lt":0,"dept":"01"}},{"type":"Feature","geometry":{"type":"Point","coordinates":[5.66398,45.88229]},"properties":{"nom":"Belmont-Luth. - Belmont","ag":["Réseau interurbain - Ain (01)","Agrégat des réseaux urbains et interurbains d'Auvergne-Rhône-Alpes"],"lt":0,"dept":"01"}},{"type":"Feature","geometry":{"type":"Point","coordinates":[5.6353,45.90223]},"properties":{"nom":"Belmont-Luth. - Monument","ag":["Réseau interurbain - Ain (01)","Agrégat des réseaux urbains et interurbains d'Auvergne-Rhône-Alpes"],"lt":0,"dept":"01"}},{"type":"Feature","geometry":{"type":"Point","coordinates":[5.65491,45.90704]},"properties":{"nom":"Belmont-Luth. - Vieux Tilleul","ag":["Réseau interurbain - Ain (01)","Agrégat des réseaux urbains et interurbains d'Auvergne-Rhône-Alpes"],"lt":0,"dept":"01"}},{"type":"Feature","geometry":{"type":"Point","coordinates":[5.66197,45.88969]},"properties":{"nom":"Belmont-Luth. - Samonod","ag":["Réseau interurbain - Ain (01)","Agrégat des réseaux urbains et interurbains d'Auvergne-Rhône-Alpes"],"lt":0,"dept":"01"}},{"type":"Feature","geometry":{"type":"Point","coordinates":[5.38783,46.15971]},"properties":{"nom":"Bohas Village","ag":["Réseau interurbain - Ain (01)","Agrégat des réseaux urbains et interurbains d'Auvergne-Rhône-Alpes"],"lt":0,"dept":"01"}},{"type":"Feature","geometry":{"type":"Point","coordinates":[4.99142,46.02328]},"properties":{"nom":"Village","ag":["Réseau interurbain - Ain (01)","Agrégat des réseaux urbains et interurbains d'Auvergne-Rhône-Alpes"],"lt":0,"dept":"01"}},{"type":"Feature","geometry":{"type":"Point","coordinates":[5.22371,46.19819]},"properties":{"nom":"Alfred de Vigny","ag":["Réseau interurbain - Ain (01)","Agrégat des réseaux urbains et interurbains d'Auvergne-Rhône-Alpes"],"lt":0,"dept":"01"}},{"type":"Feature","geometry":{"type":"Point","coordinates":[5.2298,46.19449]},"properties":{"nom":"Thomas Riboud","ag":["Réseau interurbain - Ain (01)","Agrégat des réseaux urbains et interurbains d'Auvergne-Rhône-Alpes"],"lt":0,"dept":"01"}},{"type":"Feature","geometry":{"type":"Point","coordinates":[5.22375,46.20091]},"properties":{"nom":"Lalande","ag":["Réseau interurbain - Ain (01)","Agrégat des réseaux urbains et interurbains d'Auvergne-Rhône-Alpes"],"lt":0,"dept":"01"}},{"type":"Feature","geometry":{"type":"Point","coordinates":[5.25559,46.21161]},"properties":{"nom":"Les Sardières","ag":["Réseau interurbain - Ain (01)","Agrégat des réseaux urbains et interurbains d'Auvergne-Rhône-Alpes"],"lt":0,"dept":"01"}},{"type":"Feature","geometry":{"type":"Point","coordinates":[5.23141,46.20288]},"properties":{"nom":"Collège de Brou","ag":["Réseau interurbain - Ain (01)","Agrégat des réseaux urbains et interurbains d'Auvergne-Rhône-Alpes"],"lt":0,"dept":"01"}},{"type":"Feature","geometry":{"type":"Point","coordinates":[5.45506,45.78829]},"properties":{"nom":"Lotissement en Mermont","ag":["Réseau interurbain - Ain (01)","Agrégat des réseaux urbains et interurbains d'Auvergne-Rhône-Alpes"],"lt":0,"dept":"01"}},{"type":"Feature","geometry":{"type":"Point","coordinates":[5.47092,45.7788]},"properties":{"nom":"Sur Plaine","ag":["Réseau interurbain - Ain (01)","Agrégat des réseaux urbains et interurbains d'Auvergne-Rhône-Alpes"],"lt":0,"dept":"01"}},{"type":"Feature","geometry":{"type":"Point","coordinates":[5.59732,46.01708]},"properties":{"nom":"Champdor - Village","ag":["Réseau interurbain - Ain (01)","Agrégat des réseaux urbains et interurbains d'Auvergne-Rhône-Alpes"],"lt":0,"dept":"01"}},{"type":"Feature","geometry":{"type":"Point","coordinates":[4.95787,46.12134]},"properties":{"nom":"Office de Tourisme","ag":["Réseau interurbain - Ain (01)","Agrégat des réseaux urbains et interurbains d'Auvergne-Rhône-Alpes"],"lt":0,"dept":"01"}},{"type":"Feature","geometry":{"type":"Point","coordinates":[4.95951,46.12652]},"properties":{"nom":"Collège Public","ag":["Réseau interurbain - Ain (01)","Agrégat des réseaux urbains et interurbains d'Auvergne-Rhône-Alpes"],"lt":0,"dept":"01"}},{"type":"Feature","geometry":{"type":"Point","coordinates":[5.41637,46.2596]},"properties":{"nom":"Chavannes-sur-Suran - Bois Clapay","ag":["Réseau interurbain - Ain (01)","Agrégat des réseaux urbains et interurbains d'Auvergne-Rhône-Alpes"],"lt":0,"dept":"01"}},{"type":"Feature","geometry":{"type":"Point","coordinates":[6.0386,46.28224]},"properties":{"nom":"Rond-point","ag":["Réseau interurbain - Ain (01)","Agrégat des réseaux urbains et interurbains d'Auvergne-Rhône-Alpes"],"lt":0,"dept":"01"}},{"type":"Feature","geometry":{"type":"Point","coordinates":[5.90324,46.13725]},"properties":{"nom":"La Poste","ag":["Réseau interurbain - Ain (01)","Agrégat des réseaux urbains et interurbains d'Auvergne-Rhône-Alpes"],"lt":0,"dept":"01"}},{"type":"Feature","geometry":{"type":"Point","coordinates":[5.82446,46.14671]},"properties":{"nom":"Rue du Crêt d'Eau","ag":["Réseau interurbain - Ain (01)","Agrégat des réseaux urbains et interurbains d'Auvergne-Rhône-Alpes"],"lt":0,"dept":"01"}},{"type":"Feature","geometry":{"type":"Point","coordinates":[5.80564,45.98101]},"properties":{"nom":"Etranginaz","ag":["Réseau interurbain - Ain (01)","Agrégat des réseaux urbains et interurbains d'Auvergne-Rhône-Alpes"],"lt":0,"dept":"01"}},{"type":"Feature","geometry":{"type":"Point","coordinates":[5.81316,45.94108]},"properties":{"nom":"Rhémoz","ag":["Réseau interurbain - Ain (01)","Agrégat des réseaux urbains et interurbains d'Auvergne-Rhône-Alpes"],"lt":0,"dept":"01"}},{"type":"Feature","geometry":{"type":"Point","coordinates":[5.57477,46.03559]},"properties":{"nom":"Corcelles - Mairie","ag":["Réseau interurbain - Ain (01)","Agrégat des réseaux urbains et interurbains d'Auvergne-Rhône-Alpes"],"lt":0,"dept":"01"}},{"type":"Feature","geometry":{"type":"Point","coordinates":[5.59958,45.93083]},"properties":{"nom":"Cormaranche - Teillères","ag":["Réseau interurbain - Ain (01)","Agrégat des réseaux urbains et interurbains d'Auvergne-Rhône-Alpes"],"lt":0,"dept":"01"}},{"type":"Feature","geometry":{"type":"Point","coordinates":[5.61164,45.9508]},"properties":{"nom":"Cormaranche - Village","ag":["Réseau interurbain - Ain (01)","Agrégat des réseaux urbains et interurbains d'Auvergne-Rhône-Alpes"],"lt":0,"dept":"01"}},{"type":"Feature","geometry":{"type":"Point","coordinates":[5.69058,45.88118]},"properties":{"nom":"Vieu - Don","ag":["Réseau interurbain - Ain (01)","Agrégat des réseaux urbains et interurbains d'Auvergne-Rhône-Alpes"],"lt":0,"dept":"01"}},{"type":"Feature","geometry":{"type":"Point","coordinates":[4.9122,46.28952]},"properties":{"nom":"Croisée","ag":["Réseau interurbain - Ain (01)","Agrégat des réseaux urbains et interurbains d'Auvergne-Rhône-Alpes"],"lt":0,"dept":"01"}},{"type":"Feature","geometry":{"type":"Point","coordinates":[5.76162,45.77703]},"properties":{"nom":"Cressin","ag":["Réseau interurbain - Ain (01)","Agrégat des réseaux urbains et interurbains d'Auvergne-Rhône-Alpes"],"lt":0,"dept":"01"}},{"type":"Feature","geometry":{"type":"Point","coordinates":[4.87556,46.28376]},"properties":{"nom":"La Ville Neuve","ag":["Réseau interurbain - Ain (01)","Agrégat des réseaux urbains et interurbains d'Auvergne-Rhône-Alpes"],"lt":0,"dept":"01"}},{"type":"Feature","geometry":{"type":"Point","coordinates":[5.78728,45.85238]},"properties":{"nom":"Culoz - Crêts","ag":["Réseau interurbain - Ain (01)","Agrégat des réseaux urbains et interurbains d'Auvergne-Rhône-Alpes"],"lt":0,"dept":"01"}},{"type":"Feature","geometry":{"type":"Point","coordinates":[5.78385,45.84979]},"properties":{"nom":"Culoz - Stade","ag":["Réseau interurbain - Ain (01)","Agrégat des réseaux urbains et interurbains d'Auvergne-Rhône-Alpes"],"lt":0,"dept":"01"}},{"type":"Feature","geometry":{"type":"Point","coordinates":[6.04989,46.31111]},"properties":{"nom":"Mury","ag":["Réseau interurbain - Ain (01)","Agrégat des réseaux urbains et interurbains d'Auvergne-Rhône-Alpes"],"lt":0,"dept":"01"}},{"type":"Feature","geometry":{"type":"Point","coordinates":[4.89269,46.33949]},"properties":{"nom":"Croix Blanche","ag":["Réseau interurbain - Ain (01)","Agrégat des réseaux urbains et interurbains d'Auvergne-Rhône-Alpes"],"lt":0,"dept":"01"}},{"type":"Feature","geometry":{"type":"Point","coordinates":[4.90879,46.32369]},"properties":{"nom":"Montagnat","ag":["Réseau interurbain - Ain (01)","Agrégat des réseaux urbains et interurbains d'Auvergne-Rhône-Alpes"],"lt":0,"dept":"01"}},{"type":"Feature","geometry":{"type":"Point","coordinates":[4.89663,46.32863]},"properties":{"nom":"Ternant","ag":["Réseau interurbain - Ain (01)","Agrégat des réseaux urbains et interurbains d'Auvergne-Rhône-Alpes"],"lt":0,"dept":"01"}},{"type":"Feature","geometry":{"type":"Point","coordinates":[4.8815,46.3099]},"properties":{"nom":"Mairie","ag":["Réseau interurbain - Ain (01)","Agrégat des réseaux urbains et interurbains d'Auvergne-Rhône-Alpes"],"lt":0,"dept":"01"}},{"type":"Feature","geometry":{"type":"Point","coordinates":[6.05985,46.33201]},"properties":{"nom":"Centre","ag":["Réseau interurbain - Ain (01)","Agrégat des réseaux urbains et interurbains d'Auvergne-Rhône-Alpes"],"lt":0,"dept":"01"}},{"type":"Feature","geometry":{"type":"Point","coordinates":[5.55236,45.7124]},"properties":{"nom":"Groslée - Port","ag":["Réseau interurbain - Ain (01)","Agrégat des réseaux urbains et interurbains d'Auvergne-Rhône-Alpes"],"lt":0,"dept":"01"}},{"type":"Feature","geometry":{"type":"Point","coordinates":[4.76947,46.10029]},"properties":{"nom":"Croisée","ag":["Réseau interurbain - Ain (01)"],"lt":0,"dept":"01"}},{"type":"Feature","geometry":{"type":"Point","coordinates":[4.76907,46.10094]},"properties":{"nom":"Croisée","ag":["Réseau interurbain - Ain (01)","Agrégat des réseaux urbains et interurbains d'Auvergne-Rhône-Alpes"],"lt":0,"dept":"01"}},{"type":"Feature","geometry":{"type":"Point","coordinates":[4.77151,46.10047]},"properties":{"nom":"Croisée","ag":["Réseau interurbain - Ain (01)","Agrégat des réseaux urbains et interurbains d'Auvergne-Rhône-Alpes"],"lt":0,"dept":"01"}},{"type":"Feature","geometry":{"type":"Point","coordinates":[5.57679,45.9695]},"properties":{"nom":"Hauteville - Nantuy","ag":["Réseau interurbain - Ain (01)","Agrégat des réseaux urbains et interurbains d'Auvergne-Rhône-Alpes"],"lt":0,"dept":"01"}},{"type":"Feature","geometry":{"type":"Point","coordinates":[5.58178,45.9739]},"properties":{"nom":"Hauteville - Trépont","ag":["Réseau interurbain - Ain (01)","Agrégat des réseaux urbains et interurbains d'Auvergne-Rhône-Alpes"],"lt":0,"dept":"01"}},{"type":"Feature","geometry":{"type":"Point","coordinates":[4.88507,46.1871]},"properties":{"nom":"Lotissement (Village)","ag":["Réseau interurbain - Ain (01)","Agrégat des réseaux urbains et interurbains d'Auvergne-Rhône-Alpes"],"lt":0,"dept":"01"}},{"type":"Feature","geometry":{"type":"Point","coordinates":[5.53319,45.74717]},"properties":{"nom":"Gare","ag":["Réseau interurbain - Ain (01)","Agrégat des réseaux urbains et interurbains d'Auvergne-Rhône-Alpes"],"lt":0,"dept":"01"}},{"type":"Feature","geometry":{"type":"Point","coordinates":[5.7769,46.06159]},"properties":{"nom":"Louvatière","ag":["Réseau interurbain - Ain (01)","Agrégat des réseaux urbains et interurbains d'Auvergne-Rhône-Alpes"],"lt":0,"dept":"01"}},{"type":"Feature","geometry":{"type":"Point","coordinates":[5.52263,45.75979]},"properties":{"nom":"Milieu","ag":["Réseau interurbain - Ain (01)","Agrégat des réseaux urbains et interurbains d'Auvergne-Rhône-Alpes"],"lt":0,"dept":"01"}},{"type":"Feature","geometry":{"type":"Point","coordinates":[4.75714,45.98438]},"properties":{"nom":"Place Limelette","ag":["Réseau interurbain - Ain (01)","Agrégat des réseaux urbains et interurbains d'Auvergne-Rhône-Alpes"],"lt":0,"dept":"01"}},{"type":"Feature","geometry":{"type":"Point","coordinates":[5.38829,46.05321]},"properties":{"nom":"La Route","ag":["Réseau interurbain - Ain (01)","Agrégat des réseaux urbains et interurbains d'Auvergne-Rhône-Alpes"],"lt":0,"dept":"01"}},{"type":"Feature","geometry":{"type":"Point","coordinates":[5.34448,45.8989]},"properties":{"nom":"Collège","ag":["Réseau interurbain - Ain (01)","Agrégat des réseaux urbains et interurbains d'Auvergne-Rhône-Alpes"],"lt":0,"dept":"01"}},{"type":"Feature","geometry":{"type":"Point","coordinates":[5.82855,46.13585]},"properties":{"nom":"Lancrans - La Grande Côte","ag":["Réseau interurbain - Ain (01)","Agrégat des réseaux urbains et interurbains d'Auvergne-Rhône-Alpes"],"lt":0,"dept":"01"}},{"type":"Feature","geometry":{"type":"Point","coordinates":[4.97731,45.98246]},"properties":{"nom":"Village","ag":["Réseau interurbain - Ain (01)","Agrégat des réseaux urbains et interurbains d'Auvergne-Rhône-Alpes"],"lt":0,"dept":"01"}},{"type":"Feature","geometry":{"type":"Point","coordinates":[5.78131,45.81664]},"properties":{"nom":"Paillère","ag":["Réseau interurbain - Ain (01)","Agrégat des réseaux urbains et interurbains d'Auvergne-Rhône-Alpes"],"lt":0,"dept":"01"}},{"type":"Feature","geometry":{"type":"Point","coordinates":[5.19344,45.90194]},"properties":{"nom":"Gare","ag":["Réseau interurbain - Ain (01)","Agrégat des réseaux urbains et interurbains d'Auvergne-Rhône-Alpes"],"lt":0,"dept":"01"}},{"type":"Feature","geometry":{"type":"Point","coordinates":[5.232,45.93339]},"properties":{"nom":"Loyes - Croix","ag":["Réseau interurbain - Ain (01)","Agrégat des réseaux urbains et interurbains d'Auvergne-Rhône-Alpes"],"lt":0,"dept":"01"}},{"type":"Feature","geometry":{"type":"Point","coordinates":[4.90893,46.36595]},"properties":{"nom":"Borjons","ag":["Réseau interurbain - Ain (01)","Agrégat des réseaux urbains et interurbains d'Auvergne-Rhône-Alpes"],"lt":0,"dept":"01"}},{"type":"Feature","geometry":{"type":"Point","coordinates":[5.20818,45.90801]},"properties":{"nom":"Chavagnieux","ag":["Réseau interurbain - Ain (01)","Agrégat des réseaux urbains et interurbains d'Auvergne-Rhône-Alpes"],"lt":0,"dept":"01"}},{"type":"Feature","geometry":{"type":"Point","coordinates":[4.80627,45.96234]},"properties":{"nom":"Thorine","ag":["Réseau interurbain - Ain (01)","Agrégat des réseaux urbains et interurbains d'Auvergne-Rhône-Alpes"],"lt":0,"dept":"01"}},{"type":"Feature","geometry":{"type":"Point","coordinates":[4.80499,45.99327]},"properties":{"nom":"Combes","ag":["Réseau interurbain - Ain (01)","Agrégat des réseaux urbains et interurbains d'Auvergne-Rhône-Alpes"],"lt":0,"dept":"01"}},{"type":"Feature","geometry":{"type":"Point","coordinates":[5.05315,45.84966]},"properties":{"nom":"Cheval Blanc","ag":["Réseau interurbain - Ain (01)","Agrégat des réseaux urbains et interurbains d'Auvergne-Rhône-Alpes"],"lt":0,"dept":"01"}},{"type":"Feature","geometry":{"type":"Point","coordinates":[5.04724,45.84828]},"properties":{"nom":"Les Albanières","ag":["Réseau interurbain - Ain (01)","Agrégat des réseaux urbains et interurbains d'Auvergne-Rhône-Alpes"],"lt":0,"dept":"01"}},{"type":"Feature","geometry":{"type":"Point","coordinates":[4.75467,46.08864]},"properties":{"nom":"Chemin Vert","ag":["Réseau interurbain - Ain (01)","Agrégat des réseaux urbains et interurbains d'Auvergne-Rhône-Alpes"],"lt":0,"dept":"01"}},{"type":"Feature","geometry":{"type":"Point","coordinates":[5.13391,46.19107]},"properties":{"nom":"L'Etoile","ag":["Réseau interurbain - Ain (01)","Agrégat des réseaux urbains et interurbains d'Auvergne-Rhône-Alpes"],"lt":0,"dept":"01"}},{"type":"Feature","geometry":{"type":"Point","coordinates":[5.03364,46.16913]},"properties":{"nom":"Laiterie","ag":["Réseau interurbain - Ain (01)","Agrégat des réseaux urbains et interurbains d'Auvergne-Rhône-Alpes"],"lt":0,"dept":"01"}},{"type":"Feature","geometry":{"type":"Point","coordinates":[4.92492,46.38735]},"properties":{"nom":"Allonziat","ag":["Réseau interurbain - Ain (01)","Agrégat des réseaux urbains et interurbains d'Auvergne-Rhône-Alpes"],"lt":0,"dept":"01"}},{"type":"Feature","geometry":{"type":"Point","coordinates":[5.95235,46.19482]},"properties":{"nom":"Grény","ag":["Réseau interurbain - Ain (01)","Agrégat des réseaux urbains et interurbains d'Auvergne-Rhône-Alpes"],"lt":0,"dept":"01"}},{"type":"Feature","geometry":{"type":"Point","coordinates":[5.16965,45.88496]},"properties":{"nom":"Rapan","ag":["Réseau interurbain - Ain (01)","Agrégat des réseaux urbains et interurbains d'Auvergne-Rhône-Alpes"],"lt":0,"dept":"01"}},{"type":"Feature","geometry":{"type":"Point","coordinates":[5.40929,46.08334]},"properties":{"nom":"Collège","ag":["Réseau interurbain - Ain (01)","Agrégat des réseaux urbains et interurbains d'Auvergne-Rhône-Alpes"],"lt":0,"dept":"01"}},{"type":"Feature","geometry":{"type":"Point","coordinates":[5.34697,46.05315]},"properties":{"nom":"Eglise","ag":["Réseau interurbain - Ain (01)","Agrégat des réseaux urbains et interurbains d'Auvergne-Rhône-Alpes"],"lt":0,"dept":"01"}},{"type":"Feature","geometry":{"type":"Point","coordinates":[4.93633,46.42715]},"properties":{"nom":"4 Vents","ag":["Réseau interurbain - Ain (01)","Agrégat des réseaux urbains et interurbains d'Auvergne-Rhône-Alpes"],"lt":0,"dept":"01"}},{"type":"Feature","geometry":{"type":"Point","coordinates":[4.93735,46.43307]},"properties":{"nom":"Place Joubert","ag":["Réseau interurbain - Ain (01)","Agrégat des réseaux urbains et interurbains d'Auvergne-Rhône-Alpes"],"lt":0,"dept":"01"}},{"type":"Feature","geometry":{"type":"Point","coordinates":[5.19461,46.11773]},"properties":{"nom":"Salle des Fêtes","ag":["Réseau interurbain - Ain (01)","Agrégat des réseaux urbains et interurbains d'Auvergne-Rhône-Alpes"],"lt":0,"dept":"01"}},{"type":"Feature","geometry":{"type":"Point","coordinates":[5.29476,46.01588]},"properties":{"nom":"Bellegarde","ag":["Réseau interurbain - Ain (01)","Agrégat des réseaux urbains et interurbains d'Auvergne-Rhône-Alpes"],"lt":0,"dept":"01"}},{"type":"Feature","geometry":{"type":"Point","coordinates":[4.9303,46.09888]},"properties":{"nom":"Biolay Carrefour D936","ag":["Réseau interurbain - Ain (01)","Agrégat des réseaux urbains et interurbains d'Auvergne-Rhône-Alpes"],"lt":0,"dept":"01"}},{"type":"Feature","geometry":{"type":"Point","coordinates":[4.73816,45.94538]},"properties":{"nom":"Carré","ag":["Réseau interurbain - Ain (01)","Agrégat des réseaux urbains et interurbains d'Auvergne-Rhône-Alpes"],"lt":0,"dept":"01"}},{"type":"Feature","geometry":{"type":"Point","coordinates":[4.91263,46.42412]},"properties":{"nom":"Vernay Croix","ag":["Réseau interurbain - Ain (01)","Agrégat des réseaux urbains et interurbains d'Auvergne-Rhône-Alpes"],"lt":0,"dept":"01"}},{"type":"Feature","geometry":{"type":"Point","coordinates":[4.95156,46.45626]},"properties":{"nom":"Chamerande","ag":["Réseau interurbain - Ain (01)","Agrégat des réseaux urbains et interurbains d'Auvergne-Rhône-Alpes"],"lt":0,"dept":"01"}},{"type":"Feature","geometry":{"type":"Point","coordinates":[4.97992,46.49727]},"properties":{"nom":"Village","ag":["Réseau interurbain - Ain (01)","Agrégat des réseaux urbains et interurbains d'Auvergne-Rhône-Alpes"],"lt":0,"dept":"01"}},{"type":"Feature","geometry":{"type":"Point","coordinates":[4.86734,46.30224]},"properties":{"nom":"Madeleine","ag":["Réseau interurbain - Ain (01)","Agrégat des réseaux urbains et interurbains d'Auvergne-Rhône-Alpes"],"lt":0,"dept":"01"}},{"type":"Feature","geometry":{"type":"Point","coordinates":[4.8717,46.30681]},"properties":{"nom":"Poste","ag":["Réseau interurbain - Ain (01)","Agrégat des réseaux urbains et interurbains d'Auvergne-Rhône-Alpes"],"lt":0,"dept":"01"}},{"type":"Feature","geometry":{"type":"Point","coordinates":[4.7952,45.9475]},"properties":{"nom":"Communaux","ag":["Réseau interurbain - Ain (01)","Agrégat des réseaux urbains et interurbains d'Auvergne-Rhône-Alpes"],"lt":0,"dept":"01"}},{"type":"Feature","geometry":{"type":"Point","coordinates":[4.87258,46.14842]},"properties":{"nom":"Lotissement les Sources","ag":["Réseau interurbain - Ain (01)","Agrégat des réseaux urbains et interurbains d'Auvergne-Rhône-Alpes"],"lt":0,"dept":"01"}},{"type":"Feature","geometry":{"type":"Point","coordinates":[5.962,46.20749]},"properties":{"nom":"Sous Saint-Jean","ag":["Réseau interurbain - Ain (01)","Agrégat des réseaux urbains et interurbains d'Auvergne-Rhône-Alpes"],"lt":0,"dept":"01"}},{"type":"Feature","geometry":{"type":"Point","coordinates":[5.32644,46.1094]},"properties":{"nom":"Croix Pommier","ag":["Réseau interurbain - Ain (01)","Agrégat des réseaux urbains et interurbains d'Auvergne-Rhône-Alpes"],"lt":0,"dept":"01"}},{"type":"Feature","geometry":{"type":"Point","coordinates":[5.31939,46.08152]},"properties":{"nom":"Chapelle","ag":["Réseau interurbain - Ain (01)","Agrégat des réseaux urbains et interurbains d'Auvergne-Rhône-Alpes"],"lt":0,"dept":"01"}},{"type":"Feature","geometry":{"type":"Point","coordinates":[5.31657,46.09944]},"properties":{"nom":"Farget","ag":["Réseau interurbain - Ain (01)","Agrégat des réseaux urbains et interurbains d'Auvergne-Rhône-Alpes"],"lt":0,"dept":"01"}},{"type":"Feature","geometry":{"type":"Point","coordinates":[5.32142,46.10182]},"properties":{"nom":"Pied Côte Lavoir","ag":["Réseau interurbain - Ain (01)","Agrégat des réseaux urbains et interurbains d'Auvergne-Rhône-Alpes"],"lt":0,"dept":"01"}},{"type":"Feature","geometry":{"type":"Point","coordinates":[4.89907,46.07332]},"properties":{"nom":"Pharmacie","ag":["Réseau interurbain - Ain (01)","Agrégat des réseaux urbains et interurbains d'Auvergne-Rhône-Alpes"],"lt":0,"dept":"01"}},{"type":"Feature","geometry":{"type":"Point","coordinates":[5.597,45.89342]},"properties":{"nom":"Thezillieu - Village Ecole","ag":["Réseau interurbain - Ain (01)","Agrégat des réseaux urbains et interurbains d'Auvergne-Rhône-Alpes"],"lt":0,"dept":"01"}},{"type":"Feature","geometry":{"type":"Point","coordinates":[5.1025,45.98038]},"properties":{"nom":"Village","ag":["Réseau interurbain - Ain (01)","Agrégat des réseaux urbains et interurbains d'Auvergne-Rhône-Alpes"],"lt":0,"dept":"01"}},{"type":"Feature","geometry":{"type":"Point","coordinates":[5.67706,45.77828]},"properties":{"nom":"Chazey - Ancienne Fruitière","ag":["Réseau interurbain - Ain (01)","Agrégat des réseaux urbains et interurbains d'Auvergne-Rhône-Alpes"],"lt":0,"dept":"01"}},{"type":"Feature","geometry":{"type":"Point","coordinates":[5.21827,45.91474]},"properties":{"nom":"Villieu - Le Janivon","ag":["Réseau interurbain - Ain (01)","Agrégat des réseaux urbains et interurbains d'Auvergne-Rhône-Alpes"],"lt":0,"dept":"01"}},{"type":"Feature","geometry":{"type":"Point","coordinates":[5.20927,46.22165]},"properties":{"nom":"Hôpital Fleyriat","ag":["Réseau interurbain - Ain (01)","Agrégat des réseaux urbains et interurbains d'Auvergne-Rhône-Alpes"],"lt":0,"dept":"01"}},{"type":"Feature","geometry":{"type":"Point","coordinates":[5.65512,45.84505]},"properties":{"nom":"Murat Carrefour Craz","ag":["Réseau interurbain - Ain (01)","Agrégat des réseaux urbains et interurbains d'Auvergne-Rhône-Alpes"],"lt":0,"dept":"01"}},{"type":"Feature","geometry":{"type":"Point","coordinates":[5.04225,45.84687]},"properties":{"nom":"La Maladière","ag":["Réseau interurbain - Ain (01)","Agrégat des réseaux urbains et interurbains d'Auvergne-Rhône-Alpes"],"lt":0,"dept":"01"}},{"type":"Feature","geometry":{"type":"Point","coordinates":[5.02999,45.8434]},"properties":{"nom":"Deux Ponts","ag":["Réseau interurbain - Ain (01)","Agrégat des réseaux urbains et interurbains d'Auvergne-Rhône-Alpes"],"lt":0,"dept":"01"}},{"type":"Feature","geometry":{"type":"Point","coordinates":[4.99959,45.8352]},"properties":{"nom":"La Sereine","ag":["Réseau interurbain - Ain (01)","Agrégat des réseaux urbains et interurbains d'Auvergne-Rhône-Alpes"],"lt":0,"dept":"01"}},{"type":"Feature","geometry":{"type":"Point","coordinates":[5.0222,45.84145]},"properties":{"nom":"Cité EDF","ag":["Réseau interurbain - Ain (01)","Agrégat des réseaux urbains et interurbains d'Auvergne-Rhône-Alpes"],"lt":0,"dept":"01"}},{"type":"Feature","geometry":{"type":"Point","coordinates":[4.99588,45.83436]},"properties":{"nom":"Prieuré","ag":["Réseau interurbain - Ain (01)","Agrégat des réseaux urbains et interurbains d'Auvergne-Rhône-Alpes"],"lt":0,"dept":"01"}},{"type":"Feature","geometry":{"type":"Point","coordinates":[4.87371,46.31202]},"properties":{"nom":"Creux","ag":["Réseau interurbain - Ain (01)","Agrégat des réseaux urbains et interurbains d'Auvergne-Rhône-Alpes"],"lt":0,"dept":"01"}},{"type":"Feature","geometry":{"type":"Point","coordinates":[4.95762,45.82579]},"properties":{"nom":"Place de la République","ag":["Réseau interurbain - Ain (01)","Agrégat des réseaux urbains et interurbains d'Auvergne-Rhône-Alpes"],"lt":0,"dept":"01"}},{"type":"Feature","geometry":{"type":"Point","coordinates":[4.98139,45.83031]},"properties":{"nom":"Hirondelles","ag":["Réseau interurbain - Ain (01)","Agrégat des réseaux urbains et interurbains d'Auvergne-Rhône-Alpes"],"lt":0,"dept":"01"}},{"type":"Feature","geometry":{"type":"Point","coordinates":[5.12443,45.84994]},"properties":{"nom":"La Valbonne Laverne","ag":["Réseau interurbain - Ain (01)","Agrégat des réseaux urbains et interurbains d'Auvergne-Rhône-Alpes"],"lt":0,"dept":"01"}},{"type":"Feature","geometry":{"type":"Point","coordinates":[4.92352,46.30129]},"properties":{"nom":"Bage-la-Ville - Ecottay","ag":["Réseau interurbain - Ain (01)","Agrégat des réseaux urbains et interurbains d'Auvergne-Rhône-Alpes"],"lt":0,"dept":"01"}},{"type":"Feature","geometry":{"type":"Point","coordinates":[5.12644,46.24918]},"properties":{"nom":"Village-Ecole","ag":["Réseau interurbain - Ain (01)","Agrégat des réseaux urbains et interurbains d'Auvergne-Rhône-Alpes"],"lt":0,"dept":"01"}},{"type":"Feature","geometry":{"type":"Point","coordinates":[5.30402,45.9721]},"properties":{"nom":"Village-Ecole","ag":["Réseau interurbain - Ain (01)","Agrégat des réseaux urbains et interurbains d'Auvergne-Rhône-Alpes"],"lt":0,"dept":"01"}},{"type":"Feature","geometry":{"type":"Point","coordinates":[4.9683,45.82676]},"properties":{"nom":"Pavotière","ag":["Réseau interurbain - Ain (01)","Agrégat des réseaux urbains et interurbains d'Auvergne-Rhône-Alpes"],"lt":0,"dept":"01"}},{"type":"Feature","geometry":{"type":"Point","coordinates":[5.29874,45.96562]},"properties":{"nom":"Cormoz - Laiterie","ag":["Réseau interurbain - Ain (01)","Agrégat des réseaux urbains et interurbains d'Auvergne-Rhône-Alpes"],"lt":0,"dept":"01"}},{"type":"Feature","geometry":{"type":"Point","coordinates":[5.29744,45.96486]},"properties":{"nom":"Cormoz - Laiterie","ag":["Réseau interurbain - Ain (01)","Agrégat des réseaux urbains et interurbains d'Auvergne-Rhône-Alpes"],"lt":0,"dept":"01"}},{"type":"Feature","geometry":{"type":"Point","coordinates":[4.94441,45.82059]},"properties":{"nom":"Elysée","ag":["Réseau interurbain - Ain (01)","Agrégat des réseaux urbains et interurbains d'Auvergne-Rhône-Alpes"],"lt":0,"dept":"01"}},{"type":"Feature","geometry":{"type":"Point","coordinates":[4.98765,45.83199]},"properties":{"nom":"Saint-Pierre","ag":["Réseau interurbain - Ain (01)","Agrégat des réseaux urbains et interurbains d'Auvergne-Rhône-Alpes"],"lt":0,"dept":"01"}},{"type":"Feature","geometry":{"type":"Point","coordinates":[5.35597,45.96175]},"properties":{"nom":"Saint-Exupéry","ag":["Réseau interurbain - Ain (01)","Agrégat des réseaux urbains et interurbains d'Auvergne-Rhône-Alpes"],"lt":0,"dept":"01"}},{"type":"Feature","geometry":{"type":"Point","coordinates":[5.18842,45.90738]},"properties":{"nom":"Collège","ag":["Réseau interurbain - Ain (01)","Agrégat des réseaux urbains et interurbains d'Auvergne-Rhône-Alpes"],"lt":0,"dept":"01"}},{"type":"Feature","geometry":{"type":"Point","coordinates":[5.05523,46.25636]},"properties":{"nom":"Logis Neuf Place","ag":["Réseau interurbain - Ain (01)","Agrégat des réseaux urbains et interurbains d'Auvergne-Rhône-Alpes"],"lt":0,"dept":"01"}},{"type":"Feature","geometry":{"type":"Point","coordinates":[5.34704,45.96331]},"properties":{"nom":"Plaine l'Ain","ag":["Réseau interurbain - Ain (01)","Agrégat des réseaux urbains et interurbains d'Auvergne-Rhône-Alpes"],"lt":0,"dept":"01"}},{"type":"Feature","geometry":{"type":"Point","coordinates":[5.34606,45.91018]},"properties":{"nom":"Saint-Gobain","ag":["Réseau interurbain - Ain (01)","Agrégat des réseaux urbains et interurbains d'Auvergne-Rhône-Alpes"],"lt":0,"dept":"01"}},{"type":"Feature","geometry":{"type":"Point","coordinates":[5.18844,45.90056]},"properties":{"nom":"Gendarmerie","ag":["Réseau interurbain - Ain (01)","Agrégat des réseaux urbains et interurbains d'Auvergne-Rhône-Alpes"],"lt":0,"dept":"01"}},{"type":"Feature","geometry":{"type":"Point","coordinates":[5.33422,46.04931]},"properties":{"nom":"Pharmacie","ag":["Réseau interurbain - Ain (01)","Agrégat des réseaux urbains et interurbains d'Auvergne-Rhône-Alpes"],"lt":0,"dept":"01"}},{"type":"Feature","geometry":{"type":"Point","coordinates":[5.02843,46.00426]},"properties":{"nom":"Gare SNCF","ag":["Réseau interurbain - Ain (01)","Agrégat des réseaux urbains et interurbains d'Auvergne-Rhône-Alpes"],"lt":0,"dept":"01"}},{"type":"Feature","geometry":{"type":"Point","coordinates":[5.06221,45.85065]},"properties":{"nom":"Montbréval","ag":["Réseau interurbain - Ain (01)","Agrégat des réseaux urbains et interurbains d'Auvergne-Rhône-Alpes"],"lt":0,"dept":"01"}},{"type":"Feature","geometry":{"type":"Point","coordinates":[4.75885,46.08081]},"properties":{"nom":"Eglise","ag":["Réseau interurbain - Ain (01)","Agrégat des réseaux urbains et interurbains d'Auvergne-Rhône-Alpes"],"lt":0,"dept":"01"}},{"type":"Feature","geometry":{"type":"Point","coordinates":[4.79738,45.93972]},"properties":{"nom":"Carriat","ag":["Réseau interurbain - Ain (01)","Agrégat des réseaux urbains et interurbains d'Auvergne-Rhône-Alpes"],"lt":0,"dept":"01"}},{"type":"Feature","geometry":{"type":"Point","coordinates":[4.7915,45.93961]},"properties":{"nom":"Jacobée","ag":["Réseau interurbain - Ain (01)","Agrégat des réseaux urbains et interurbains d'Auvergne-Rhône-Alpes"],"lt":0,"dept":"01"}},{"type":"Feature","geometry":{"type":"Point","coordinates":[4.82446,45.93521]},"properties":{"nom":"Eglise","ag":["Réseau interurbain - Ain (01)","Agrégat des réseaux urbains et interurbains d'Auvergne-Rhône-Alpes"],"lt":0,"dept":"01"}},{"type":"Feature","geometry":{"type":"Point","coordinates":[4.81157,45.93644]},"properties":{"nom":"Feux de Balmont","ag":["Réseau interurbain - Ain (01)","Agrégat des réseaux urbains et interurbains d'Auvergne-Rhône-Alpes"],"lt":0,"dept":"01"}},{"type":"Feature","geometry":{"type":"Point","coordinates":[4.82613,45.92676]},"properties":{"nom":"Veyssieux les Serres","ag":["Réseau interurbain - Ain (01)","Agrégat des réseaux urbains et interurbains d'Auvergne-Rhône-Alpes"],"lt":0,"dept":"01"}},{"type":"Feature","geometry":{"type":"Point","coordinates":[4.82613,45.92238]},"properties":{"nom":"Veyssieux Croix","ag":["Réseau interurbain - Ain (01)","Agrégat des réseaux urbains et interurbains d'Auvergne-Rhône-Alpes"],"lt":0,"dept":"01"}},{"type":"Feature","geometry":{"type":"Point","coordinates":[4.82394,45.91757]},"properties":{"nom":"Gare","ag":["Réseau interurbain - Ain (01)","Agrégat des réseaux urbains et interurbains d'Auvergne-Rhône-Alpes"],"lt":0,"dept":"01"}},{"type":"Feature","geometry":{"type":"Point","coordinates":[5.3682,46.21853]},"properties":{"nom":"Village","ag":["Réseau interurbain - Ain (01)","Agrégat des réseaux urbains et interurbains d'Auvergne-Rhône-Alpes"],"lt":0,"dept":"01"}},{"type":"Feature","geometry":{"type":"Point","coordinates":[5.57348,46.1716]},"properties":{"nom":"Ancienne Gare","ag":["Réseau interurbain - Ain (01)","Agrégat des réseaux urbains et interurbains d'Auvergne-Rhône-Alpes"],"lt":0,"dept":"01"}},{"type":"Feature","geometry":{"type":"Point","coordinates":[4.88573,46.27414]},"properties":{"nom":"Le Piquant","ag":["Réseau interurbain - Ain (01)","Agrégat des réseaux urbains et interurbains d'Auvergne-Rhône-Alpes"],"lt":0,"dept":"01"}},{"type":"Feature","geometry":{"type":"Point","coordinates":[5.37151,46.08174]},"properties":{"nom":"Ecole","ag":["Réseau interurbain - Ain (01)","Agrégat des réseaux urbains et interurbains d'Auvergne-Rhône-Alpes"],"lt":0,"dept":"01"}},{"type":"Feature","geometry":{"type":"Point","coordinates":[4.88606,46.31006]},"properties":{"nom":"Eglise","ag":["Réseau interurbain - Ain (01)","Agrégat des réseaux urbains et interurbains d'Auvergne-Rhône-Alpes"],"lt":0,"dept":"01"}},{"type":"Feature","geometry":{"type":"Point","coordinates":[4.90589,46.30799]},"properties":{"nom":"Mons","ag":["Réseau interurbain - Ain (01)","Agrégat des réseaux urbains et interurbains d'Auvergne-Rhône-Alpes"],"lt":0,"dept":"01"}},{"type":"Feature","geometry":{"type":"Point","coordinates":[4.85481,46.25918]},"properties":{"nom":"Laiterie","ag":["Réseau interurbain - Ain (01)","Agrégat des réseaux urbains et interurbains d'Auvergne-Rhône-Alpes"],"lt":0,"dept":"01"}},{"type":"Feature","geometry":{"type":"Point","coordinates":[4.82132,45.99356]},"properties":{"nom":"Village","ag":["Réseau interurbain - Ain (01)","Agrégat des réseaux urbains et interurbains d'Auvergne-Rhône-Alpes"],"lt":0,"dept":"01"}},{"type":"Feature","geometry":{"type":"Point","coordinates":[5.48943,46.25842]},"properties":{"nom":"Saint-Maurice-Echazeau","ag":["Réseau interurbain - Ain (01)","Agrégat des réseaux urbains et interurbains d'Auvergne-Rhône-Alpes"],"lt":0,"dept":"01"}},{"type":"Feature","geometry":{"type":"Point","coordinates":[5.48186,46.24259]},"properties":{"nom":"Village","ag":["Réseau interurbain - Ain (01)","Agrégat des réseaux urbains et interurbains d'Auvergne-Rhône-Alpes"],"lt":0,"dept":"01"}},{"type":"Feature","geometry":{"type":"Point","coordinates":[4.9153,46.39201]},"properties":{"nom":"Village","ag":["Réseau interurbain - Ain (01)","Agrégat des réseaux urbains et interurbains d'Auvergne-Rhône-Alpes"],"lt":0,"dept":"01"}},{"type":"Feature","geometry":{"type":"Point","coordinates":[5.35985,46.00287]},"properties":{"nom":"Rue des Ravinelles","ag":["Réseau interurbain - Ain (01)","Agrégat des réseaux urbains et interurbains d'Auvergne-Rhône-Alpes"],"lt":0,"dept":"01"}},{"type":"Feature","geometry":{"type":"Point","coordinates":[5.11314,45.84911]},"properties":{"nom":"Valbonne Cité Bains","ag":["Réseau interurbain - Ain (01)","Agrégat des réseaux urbains et interurbains d'Auvergne-Rhône-Alpes"],"lt":0,"dept":"01"}},{"type":"Feature","geometry":{"type":"Point","coordinates":[5.12233,45.84949]},"properties":{"nom":"La Valbonne Tabac","ag":["Réseau interurbain - Ain (01)","Agrégat des réseaux urbains et interurbains d'Auvergne-Rhône-Alpes"],"lt":0,"dept":"01"}},{"type":"Feature","geometry":{"type":"Point","coordinates":[5.65424,45.8481]},"properties":{"nom":"Rond-point Gare","ag":["Réseau interurbain - Ain (01)","Agrégat des réseaux urbains et interurbains d'Auvergne-Rhône-Alpes"],"lt":0,"dept":"01"}},{"type":"Feature","geometry":{"type":"Point","coordinates":[5.45903,46.26163]},"properties":{"nom":"Arnans","ag":["Réseau interurbain - Ain (01)","Agrégat des réseaux urbains et interurbains d'Auvergne-Rhône-Alpes"],"lt":0,"dept":"01"}},{"type":"Feature","geometry":{"type":"Point","coordinates":[5.64793,45.84718]},"properties":{"nom":"Route de Lyon","ag":["Réseau interurbain - Ain (01)","Agrégat des réseaux urbains et interurbains d'Auvergne-Rhône-Alpes"],"lt":0,"dept":"01"}},{"type":"Feature","geometry":{"type":"Point","coordinates":[5.6408,45.82949]},"properties":{"nom":"Le Lac","ag":["Réseau interurbain - Ain (01)","Agrégat des réseaux urbains et interurbains d'Auvergne-Rhône-Alpes"],"lt":0,"dept":"01"}},{"type":"Feature","geometry":{"type":"Point","coordinates":[5.63995,45.82131]},"properties":{"nom":"Pugieu - Martinet","ag":["Réseau interurbain - Ain (01)","Agrégat des réseaux urbains et interurbains d'Auvergne-Rhône-Alpes"],"lt":0,"dept":"01"}},{"type":"Feature","geometry":{"type":"Point","coordinates":[5.68171,45.8074]},"properties":{"nom":"Chazey - Comptoir Bât.","ag":["Réseau interurbain - Ain (01)","Agrégat des réseaux urbains et interurbains d'Auvergne-Rhône-Alpes"],"lt":0,"dept":"01"}},{"type":"Feature","geometry":{"type":"Point","coordinates":[5.68241,45.79626]},"properties":{"nom":"Chazey - Biolates","ag":["Réseau interurbain - Ain (01)","Agrégat des réseaux urbains et interurbains d'Auvergne-Rhône-Alpes"],"lt":0,"dept":"01"}},{"type":"Feature","geometry":{"type":"Point","coordinates":[5.82548,46.11081]},"properties":{"nom":"Bellegarde - Gare SNCF","ag":["Réseau interurbain - Ain (01)","Agrégat des réseaux urbains et interurbains d'Auvergne-Rhône-Alpes"],"lt":0,"dept":"01"}},{"type":"Feature","geometry":{"type":"Point","coordinates":[5.43719,45.94801]},"properties":{"nom":"Eglise","ag":["Réseau interurbain - Ain (01)","Agrégat des réseaux urbains et interurbains d'Auvergne-Rhône-Alpes"],"lt":0,"dept":"01"}},{"type":"Feature","geometry":{"type":"Point","coordinates":[4.81592,45.91544]},"properties":{"nom":"Muriers","ag":["Réseau interurbain - Ain (01)","Agrégat des réseaux urbains et interurbains d'Auvergne-Rhône-Alpes"],"lt":0,"dept":"01"}},{"type":"Feature","geometry":{"type":"Point","coordinates":[4.81386,45.92133]},"properties":{"nom":"Croix Rp Eyguets","ag":["Réseau interurbain - Ain (01)","Agrégat des réseaux urbains et interurbains d'Auvergne-Rhône-Alpes"],"lt":0,"dept":"01"}},{"type":"Feature","geometry":{"type":"Point","coordinates":[4.81588,45.90524]},"properties":{"nom":"Genetière","ag":["Réseau interurbain - Ain (01)","Agrégat des réseaux urbains et interurbains d'Auvergne-Rhône-Alpes"],"lt":0,"dept":"01"}},{"type":"Feature","geometry":{"type":"Point","coordinates":[4.82448,45.90615]},"properties":{"nom":"Bascule","ag":["Réseau interurbain - Ain (01)","Agrégat des réseaux urbains et interurbains d'Auvergne-Rhône-Alpes"],"lt":0,"dept":"01"}},{"type":"Feature","geometry":{"type":"Point","coordinates":[4.95974,46.27741]},"properties":{"nom":"Place Lamberet","ag":["Réseau interurbain - Ain (01)","Agrégat des réseaux urbains et interurbains d'Auvergne-Rhône-Alpes"],"lt":0,"dept":"01"}},{"type":"Feature","geometry":{"type":"Point","coordinates":[5.10103,46.25193]},"properties":{"nom":"Chérinal","ag":["Réseau interurbain - Ain (01)","Agrégat des réseaux urbains et interurbains d'Auvergne-Rhône-Alpes"],"lt":0,"dept":"01"}},{"type":"Feature","geometry":{"type":"Point","coordinates":[4.76051,45.94483]},"properties":{"nom":"Beluison","ag":["Réseau interurbain - Ain (01)","Agrégat des réseaux urbains et interurbains d'Auvergne-Rhône-Alpes"],"lt":0,"dept":"01"}},{"type":"Feature","geometry":{"type":"Point","coordinates":[5.44966,46.07397]},"properties":{"nom":"Pont de Préau","ag":["Réseau interurbain - Ain (01)","Agrégat des réseaux urbains et interurbains d'Auvergne-Rhône-Alpes"],"lt":0,"dept":"01"}},{"type":"Feature","geometry":{"type":"Point","coordinates":[5.42652,45.84139]},"properties":{"nom":"Gare","ag":["Réseau interurbain - Ain (01)","Agrégat des réseaux urbains et interurbains d'Auvergne-Rhône-Alpes"],"lt":0,"dept":"01"}},{"type":"Feature","geometry":{"type":"Point","coordinates":[5.29743,46.02017]},"properties":{"nom":"Le Biez","ag":["Réseau interurbain - Ain (01)","Agrégat des réseaux urbains et interurbains d'Auvergne-Rhône-Alpes"],"lt":0,"dept":"01"}},{"type":"Feature","geometry":{"type":"Point","coordinates":[5.38145,46.09653]},"properties":{"nom":"Fromente","ag":["Réseau interurbain - Ain (01)","Agrégat des réseaux urbains et interurbains d'Auvergne-Rhône-Alpes"],"lt":0,"dept":"01"}},{"type":"Feature","geometry":{"type":"Point","coordinates":[4.83417,46.20669]},"properties":{"nom":"La Gare","ag":["Réseau interurbain - Ain (01)","Agrégat des réseaux urbains et interurbains d'Auvergne-Rhône-Alpes"],"lt":0,"dept":"01"}},{"type":"Feature","geometry":{"type":"Point","coordinates":[4.82371,46.18908]},"properties":{"nom":"Bas Mizeriat Crozes","ag":["Réseau interurbain - Ain (01)","Agrégat des réseaux urbains et interurbains d'Auvergne-Rhône-Alpes"],"lt":0,"dept":"01"}},{"type":"Feature","geometry":{"type":"Point","coordinates":[5.35011,45.88648]},"properties":{"nom":"R. Moulin","ag":["Réseau interurbain - Ain (01)","Agrégat des réseaux urbains et interurbains d'Auvergne-Rhône-Alpes"],"lt":0,"dept":"01"}},{"type":"Feature","geometry":{"type":"Point","coordinates":[4.84715,46.00132]},"properties":{"nom":"Tennis (Route Villeneuve)","ag":["Réseau interurbain - Ain (01)","Agrégat des réseaux urbains et interurbains d'Auvergne-Rhône-Alpes"],"lt":0,"dept":"01"}},{"type":"Feature","geometry":{"type":"Point","coordinates":[5.50276,46.11831]},"properties":{"nom":"Moulin Chabaud","ag":["Réseau interurbain - Ain (01)","Agrégat des réseaux urbains et interurbains d'Auvergne-Rhône-Alpes"],"lt":0,"dept":"01"}},{"type":"Feature","geometry":{"type":"Point","coordinates":[5.27207,46.1541]},"properties":{"nom":"Donguy","ag":["Réseau interurbain - Ain (01)","Agrégat des réseaux urbains et interurbains d'Auvergne-Rhône-Alpes"],"lt":0,"dept":"01"}},{"type":"Feature","geometry":{"type":"Point","coordinates":[5.26517,46.14422]},"properties":{"nom":"Les Jallatières","ag":["Réseau interurbain - Ain (01)","Agrégat des réseaux urbains et interurbains d'Auvergne-Rhône-Alpes"],"lt":0,"dept":"01"}},{"type":"Feature","geometry":{"type":"Point","coordinates":[5.81543,46.15927]},"properties":{"nom":"La Mulaz","ag":["Réseau interurbain - Ain (01)","Agrégat des réseaux urbains et interurbains d'Auvergne-Rhône-Alpes"],"lt":0,"dept":"01"}},{"type":"Feature","geometry":{"type":"Point","coordinates":[5.85795,46.21489]},"properties":{"nom":"Forens","ag":["Réseau interurbain - Ain (01)","Agrégat des réseaux urbains et interurbains d'Auvergne-Rhône-Alpes"],"lt":0,"dept":"01"}},{"type":"Feature","geometry":{"type":"Point","coordinates":[5.85039,46.20143]},"properties":{"nom":"Les Isles","ag":["Réseau interurbain - Ain (01)","Agrégat des réseaux urbains et interurbains d'Auvergne-Rhône-Alpes"],"lt":0,"dept":"01"}},{"type":"Feature","geometry":{"type":"Point","coordinates":[5.91513,46.17847]},"properties":{"nom":"Logras Parking","ag":["Réseau interurbain - Ain (01)","Agrégat des réseaux urbains et interurbains d'Auvergne-Rhône-Alpes"],"lt":0,"dept":"01"}},{"type":"Feature","geometry":{"type":"Point","coordinates":[4.75351,45.95486]},"properties":{"nom":"En Formans","ag":["Réseau interurbain - Ain (01)","Agrégat des réseaux urbains et interurbains d'Auvergne-Rhône-Alpes"],"lt":0,"dept":"01"}},{"type":"Feature","geometry":{"type":"Point","coordinates":[5.19904,45.9048]},"properties":{"nom":"Les Maisons Neuves","ag":["Réseau interurbain - Ain (01)","Agrégat des réseaux urbains et interurbains d'Auvergne-Rhône-Alpes"],"lt":0,"dept":"01"}},{"type":"Feature","geometry":{"type":"Point","coordinates":[5.17757,45.94425]},"properties":{"nom":"Chanoz","ag":["Réseau interurbain - Ain (01)","Agrégat des réseaux urbains et interurbains d'Auvergne-Rhône-Alpes"],"lt":0,"dept":"01"}},{"type":"Feature","geometry":{"type":"Point","coordinates":[5.25501,45.97282]},"properties":{"nom":"Ecole","ag":["Réseau interurbain - Ain (01)","Agrégat des réseaux urbains et interurbains d'Auvergne-Rhône-Alpes"],"lt":0,"dept":"01"}},{"type":"Feature","geometry":{"type":"Point","coordinates":[5.25445,45.96501]},"properties":{"nom":"Gévrieux Pont","ag":["Réseau interurbain - Ain (01)","Agrégat des réseaux urbains et interurbains d'Auvergne-Rhône-Alpes"],"lt":0,"dept":"01"}},{"type":"Feature","geometry":{"type":"Point","coordinates":[4.85913,46.26333]},"properties":{"nom":"Croix Blanche","ag":["Réseau interurbain - Ain (01)","Agrégat des réseaux urbains et interurbains d'Auvergne-Rhône-Alpes"],"lt":0,"dept":"01"}},{"type":"Feature","geometry":{"type":"Point","coordinates":[4.8107,45.9742]},"properties":{"nom":"Eglise","ag":["Réseau interurbain - Ain (01)","Agrégat des réseaux urbains et interurbains d'Auvergne-Rhône-Alpes"],"lt":0,"dept":"01"}},{"type":"Feature","geometry":{"type":"Point","coordinates":[5.81321,45.94785]},"properties":{"nom":"La Trille","ag":["Réseau interurbain - Ain (01)","Agrégat des réseaux urbains et interurbains d'Auvergne-Rhône-Alpes"],"lt":0,"dept":"01"}},{"type":"Feature","geometry":{"type":"Point","coordinates":[5.96066,46.1437]},"properties":{"nom":"Bas, Gare SNCF","ag":["Réseau interurbain - Ain (01)","Agrégat des réseaux urbains et interurbains d'Auvergne-Rhône-Alpes"],"lt":0,"dept":"01"}},{"type":"Feature","geometry":{"type":"Point","coordinates":[5.9511,46.13889]},"properties":{"nom":"Haut Église","ag":["Réseau interurbain - Ain (01)","Agrégat des réseaux urbains et interurbains d'Auvergne-Rhône-Alpes"],"lt":0,"dept":"01"}},{"type":"Feature","geometry":{"type":"Point","coordinates":[4.94818,46.11671]},"properties":{"nom":"Z.I. Route de Belleville","ag":["Réseau interurbain - Ain (01)","Agrégat des réseaux urbains et interurbains d'Auvergne-Rhône-Alpes"],"lt":0,"dept":"01"}},{"type":"Feature","geometry":{"type":"Point","coordinates":[5.68879,45.76043]},"properties":{"nom":"Boulevard du Mail","ag":["Réseau interurbain - Ain (01)","Agrégat des réseaux urbains et interurbains d'Auvergne-Rhône-Alpes"],"lt":0,"dept":"01"}},{"type":"Feature","geometry":{"type":"Point","coordinates":[4.79687,46.09647]},"properties":{"nom":"Eglise","ag":["Réseau interurbain - Ain (01)","Agrégat des réseaux urbains et interurbains d'Auvergne-Rhône-Alpes"],"lt":0,"dept":"01"}},{"type":"Feature","geometry":{"type":"Point","coordinates":[5.7101,45.72074]},"properties":{"nom":"Ecole","ag":["Réseau interurbain - Ain (01)","Agrégat des réseaux urbains et interurbains d'Auvergne-Rhône-Alpes"],"lt":0,"dept":"01"}},{"type":"Feature","geometry":{"type":"Point","coordinates":[5.38955,46.15152]},"properties":{"nom":"Chatillonnet","ag":["Réseau interurbain - Ain (01)","Agrégat des réseaux urbains et interurbains d'Auvergne-Rhône-Alpes"],"lt":0,"dept":"01"}},{"type":"Feature","geometry":{"type":"Point","coordinates":[5.39325,46.1544]},"properties":{"nom":"Les Teppes","ag":["Réseau interurbain - Ain (01)","Agrégat des réseaux urbains et interurbains d'Auvergne-Rhône-Alpes"],"lt":0,"dept":"01"}},{"type":"Feature","geometry":{"type":"Point","coordinates":[5.16905,45.99157]},"properties":{"nom":"La Croix","ag":["Réseau interurbain - Ain (01)","Agrégat des réseaux urbains et interurbains d'Auvergne-Rhône-Alpes"],"lt":0,"dept":"01"}},{"type":"Feature","geometry":{"type":"Point","coordinates":[5.77016,46.05874]},"properties":{"nom":"Place Église","ag":["Réseau interurbain - Ain (01)","Agrégat des réseaux urbains et interurbains d'Auvergne-Rhône-Alpes"],"lt":0,"dept":"01"}},{"type":"Feature","geometry":{"type":"Point","coordinates":[4.7724,45.94028]},"properties":{"nom":"Passerelle","ag":["Réseau interurbain - Ain (01)","Agrégat des réseaux urbains et interurbains d'Auvergne-Rhône-Alpes"],"lt":0,"dept":"01"}},{"type":"Feature","geometry":{"type":"Point","coordinates":[4.8156,45.93546]},"properties":{"nom":"Escoffier","ag":["Réseau interurbain - Ain (01)","Agrégat des réseaux urbains et interurbains d'Auvergne-Rhône-Alpes"],"lt":0,"dept":"01"}},{"type":"Feature","geometry":{"type":"Point","coordinates":[4.88889,46.33476]},"properties":{"nom":"Salle Notre Maison","ag":["Réseau interurbain - Ain (01)","Agrégat des réseaux urbains et interurbains d'Auvergne-Rhône-Alpes"],"lt":0,"dept":"01"}},{"type":"Feature","geometry":{"type":"Point","coordinates":[4.80265,46.17153]},"properties":{"nom":"M.J.C.","ag":["Réseau interurbain - Ain (01)","Agrégat des réseaux urbains et interurbains d'Auvergne-Rhône-Alpes"],"lt":0,"dept":"01"}},{"type":"Feature","geometry":{"type":"Point","coordinates":[4.75636,46.03343]},"properties":{"nom":"Grelonges","ag":["Réseau interurbain - Ain (01)","Agrégat des réseaux urbains et interurbains d'Auvergne-Rhône-Alpes"],"lt":0,"dept":"01"}},{"type":"Feature","geometry":{"type":"Point","coordinates":[4.82808,46.19776]},"properties":{"nom":"B. Mizériat Tr Giroud","ag":["Réseau interurbain - Ain (01)","Agrégat des réseaux urbains et interurbains d'Auvergne-Rhône-Alpes"],"lt":0,"dept":"01"}},{"type":"Feature","geometry":{"type":"Point","coordinates":[4.75676,45.97642]},"properties":{"nom":"Tennis","ag":["Réseau interurbain - Ain (01)","Agrégat des réseaux urbains et interurbains d'Auvergne-Rhône-Alpes"],"lt":0,"dept":"01"}},{"type":"Feature","geometry":{"type":"Point","coordinates":[4.75597,46.01438]},"properties":{"nom":"Le Lavoir","ag":["Réseau interurbain - Ain (01)","Agrégat des réseaux urbains et interurbains d'Auvergne-Rhône-Alpes"],"lt":0,"dept":"01"}},{"type":"Feature","geometry":{"type":"Point","coordinates":[5.78318,46.1146]},"properties":{"nom":"Chatillon - Vouvray Marinet","ag":["Réseau interurbain - Ain (01)","Agrégat des réseaux urbains et interurbains d'Auvergne-Rhône-Alpes"],"lt":0,"dept":"01"}},{"type":"Feature","geometry":{"type":"Point","coordinates":[4.80334,45.93901]},"properties":{"nom":"Viaduc","ag":["Réseau interurbain - Ain (01)","Agrégat des réseaux urbains et interurbains d'Auvergne-Rhône-Alpes"],"lt":0,"dept":"01"}},{"type":"Feature","geometry":{"type":"Point","coordinates":[5.60378,46.05661]},"properties":{"nom":"Place de la Gare","ag":["Réseau interurbain - Ain (01)","Agrégat des réseaux urbains et interurbains d'Auvergne-Rhône-Alpes"],"lt":0,"dept":"01"}},{"type":"Feature","geometry":{"type":"Point","coordinates":[5.1292,45.85296]},"properties":{"nom":"La Valbonne Rond-point","ag":["Réseau interurbain - Ain (01)","Agrégat des réseaux urbains et interurbains d'Auvergne-Rhône-Alpes"],"lt":0,"dept":"01"}},{"type":"Feature","geometry":{"type":"Point","coordinates":[5.12866,45.85251]},"properties":{"nom":"La Valbonne Rond-point","ag":["Réseau interurbain - Ain (01)","Agrégat des réseaux urbains et interurbains d'Auvergne-Rhône-Alpes"],"lt":0,"dept":"01"}},{"type":"Feature","geometry":{"type":"Point","coordinates":[4.8173,46.17822]},"properties":{"nom":"Place Halles","ag":["Réseau interurbain - Ain (01)","Agrégat des réseaux urbains et interurbains d'Auvergne-Rhône-Alpes"],"lt":0,"dept":"01"}},{"type":"Feature","geometry":{"type":"Point","coordinates":[4.74179,45.94819]},"properties":{"nom":"Chemin de Fétan","ag":["Réseau interurbain - Ain (01)","Agrégat des réseaux urbains et interurbains d'Auvergne-Rhône-Alpes"],"lt":0,"dept":"01"}},{"type":"Feature","geometry":{"type":"Point","coordinates":[5.29202,46.16814]},"properties":{"nom":"Moulin Neuf","ag":["Réseau interurbain - Ain (01)","Agrégat des réseaux urbains et interurbains d'Auvergne-Rhône-Alpes"],"lt":0,"dept":"01"}},{"type":"Feature","geometry":{"type":"Point","coordinates":[5.26874,46.17393]},"properties":{"nom":"Bois des Crêts","ag":["Réseau interurbain - Ain (01)","Agrégat des réseaux urbains et interurbains d'Auvergne-Rhône-Alpes"],"lt":0,"dept":"01"}},{"type":"Feature","geometry":{"type":"Point","coordinates":[5.26061,46.17703]},"properties":{"nom":"Mas Coupé","ag":["Réseau interurbain - Ain (01)","Agrégat des réseaux urbains et interurbains d'Auvergne-Rhône-Alpes"],"lt":0,"dept":"01"}},{"type":"Feature","geometry":{"type":"Point","coordinates":[5.78395,45.84069]},"properties":{"nom":"Culoz - Martini","ag":["Réseau interurbain - Ain (01)","Agrégat des réseaux urbains et interurbains d'Auvergne-Rhône-Alpes"],"lt":0,"dept":"01"}},{"type":"Feature","geometry":{"type":"Point","coordinates":[5.30668,46.16231]},"properties":{"nom":"Les Mathys","ag":["Réseau interurbain - Ain (01)","Agrégat des réseaux urbains et interurbains d'Auvergne-Rhône-Alpes"],"lt":0,"dept":"01"}},{"type":"Feature","geometry":{"type":"Point","coordinates":[5.32387,46.11905]},"properties":{"nom":"Salles Croix","ag":["Réseau interurbain - Ain (01)","Agrégat des réseaux urbains et interurbains d'Auvergne-Rhône-Alpes"],"lt":0,"dept":"01"}},{"type":"Feature","geometry":{"type":"Point","coordinates":[5.32758,46.14411]},"properties":{"nom":"Le Bas","ag":["Réseau interurbain - Ain (01)","Agrégat des réseaux urbains et interurbains d'Auvergne-Rhône-Alpes"],"lt":0,"dept":"01"}},{"type":"Feature","geometry":{"type":"Point","coordinates":[5.29423,46.13679]},"properties":{"nom":"Bériat","ag":["Réseau interurbain - Ain (01)","Agrégat des réseaux urbains et interurbains d'Auvergne-Rhône-Alpes"],"lt":0,"dept":"01"}},{"type":"Feature","geometry":{"type":"Point","coordinates":[5.30727,46.13889]},"properties":{"nom":"Mas Ballet","ag":["Réseau interurbain - Ain (01)","Agrégat des réseaux urbains et interurbains d'Auvergne-Rhône-Alpes"],"lt":0,"dept":"01"}},{"type":"Feature","geometry":{"type":"Point","coordinates":[5.31689,46.13596]},"properties":{"nom":"La Croix Mulaty","ag":["Réseau interurbain - Ain (01)","Agrégat des réseaux urbains et interurbains d'Auvergne-Rhône-Alpes"],"lt":0,"dept":"01"}},{"type":"Feature","geometry":{"type":"Point","coordinates":[5.27816,46.17393]},"properties":{"nom":"Les Curnillats","ag":["Réseau interurbain - Ain (01)","Agrégat des réseaux urbains et interurbains d'Auvergne-Rhône-Alpes"],"lt":0,"dept":"01"}},{"type":"Feature","geometry":{"type":"Point","coordinates":[5.17359,45.99587]},"properties":{"nom":"Parking Gendarmerie","ag":["Réseau interurbain - Ain (01)","Agrégat des réseaux urbains et interurbains d'Auvergne-Rhône-Alpes"],"lt":0,"dept":"01"}},{"type":"Feature","geometry":{"type":"Point","coordinates":[5.19337,45.9045]},"properties":{"nom":"Place Lieutenant Giraud","ag":["Réseau interurbain - Ain (01)","Agrégat des réseaux urbains et interurbains d'Auvergne-Rhône-Alpes"],"lt":0,"dept":"01"}},{"type":"Feature","geometry":{"type":"Point","coordinates":[5.19408,45.91143]},"properties":{"nom":"Les Carronnières","ag":["Réseau interurbain - Ain (01)","Agrégat des réseaux urbains et interurbains d'Auvergne-Rhône-Alpes"],"lt":0,"dept":"01"}},{"type":"Feature","geometry":{"type":"Point","coordinates":[5.43371,45.846]},"properties":{"nom":"Allée des Tilleuls","ag":["Réseau interurbain - Ain (01)","Agrégat des réseaux urbains et interurbains d'Auvergne-Rhône-Alpes"],"lt":0,"dept":"01"}},{"type":"Feature","geometry":{"type":"Point","coordinates":[5.32955,45.94669]},"properties":{"nom":"Croisettes","ag":["Réseau interurbain - Ain (01)","Agrégat des réseaux urbains et interurbains d'Auvergne-Rhône-Alpes"],"lt":0,"dept":"01"}},{"type":"Feature","geometry":{"type":"Point","coordinates":[5.35365,45.92651]},"properties":{"nom":"Poste","ag":["Réseau interurbain - Ain (01)","Agrégat des réseaux urbains et interurbains d'Auvergne-Rhône-Alpes"],"lt":0,"dept":"01"}},{"type":"Feature","geometry":{"type":"Point","coordinates":[5.37226,45.88378]},"properties":{"nom":"Arrêt Bus","ag":["Réseau interurbain - Ain (01)","Agrégat des réseaux urbains et interurbains d'Auvergne-Rhône-Alpes"],"lt":0,"dept":"01"}},{"type":"Feature","geometry":{"type":"Point","coordinates":[5.40761,46.08263]},"properties":{"nom":"Gendarmerie","ag":["Réseau interurbain - Ain (01)","Agrégat des réseaux urbains et interurbains d'Auvergne-Rhône-Alpes"],"lt":0,"dept":"01"}},{"type":"Feature","geometry":{"type":"Point","coordinates":[5.3711,46.0641]},"properties":{"nom":"Croix de Thol","ag":["Réseau interurbain - Ain (01)","Agrégat des réseaux urbains et interurbains d'Auvergne-Rhône-Alpes"],"lt":0,"dept":"01"}},{"type":"Feature","geometry":{"type":"Point","coordinates":[5.36847,45.98781]},"properties":{"nom":"Croix des Villes","ag":["Réseau interurbain - Ain (01)","Agrégat des réseaux urbains et interurbains d'Auvergne-Rhône-Alpes"],"lt":0,"dept":"01"}},{"type":"Feature","geometry":{"type":"Point","coordinates":[4.90671,46.35842]},"properties":{"nom":"Le Bourg","ag":["Réseau interurbain - Ain (01)","Agrégat des réseaux urbains et interurbains d'Auvergne-Rhône-Alpes"],"lt":0,"dept":"01"}},{"type":"Feature","geometry":{"type":"Point","coordinates":[4.92303,46.40587]},"properties":{"nom":"Gare","ag":["Réseau interurbain - Ain (01)","Agrégat des réseaux urbains et interurbains d'Auvergne-Rhône-Alpes"],"lt":0,"dept":"01"}},{"type":"Feature","geometry":{"type":"Point","coordinates":[5.34905,45.98018]},"properties":{"nom":"Centre Hospitalier","ag":["Réseau interurbain - Ain (01)","Agrégat des réseaux urbains et interurbains d'Auvergne-Rhône-Alpes"],"lt":0,"dept":"01"}},{"type":"Feature","geometry":{"type":"Point","coordinates":[5.35686,45.96207]},"properties":{"nom":"Les Arcades","ag":["Réseau interurbain - Ain (01)","Agrégat des réseaux urbains et interurbains d'Auvergne-Rhône-Alpes"],"lt":0,"dept":"01"}},{"type":"Feature","geometry":{"type":"Point","coordinates":[5.2685,45.98723]},"properties":{"nom":"Lavoir","ag":["Réseau interurbain - Ain (01)","Agrégat des réseaux urbains et interurbains d'Auvergne-Rhône-Alpes"],"lt":0,"dept":"01"}},{"type":"Feature","geometry":{"type":"Point","coordinates":[5.61308,45.66487]},"properties":{"nom":"Glandieu Cascade","ag":["Réseau interurbain - Ain (01)","Agrégat des réseaux urbains et interurbains d'Auvergne-Rhône-Alpes"],"lt":0,"dept":"01"}},{"type":"Feature","geometry":{"type":"Point","coordinates":[5.18406,46.04588]},"properties":{"nom":"Bifurcation","ag":["Réseau interurbain - Ain (01)","Agrégat des réseaux urbains et interurbains d'Auvergne-Rhône-Alpes"],"lt":0,"dept":"01"}},{"type":"Feature","geometry":{"type":"Point","coordinates":[5.01352,45.83908]},"properties":{"nom":"La Batonne","ag":["Réseau interurbain - Ain (01)","Agrégat des réseaux urbains et interurbains d'Auvergne-Rhône-Alpes"],"lt":0,"dept":"01"}},{"type":"Feature","geometry":{"type":"Point","coordinates":[4.93717,45.818]},"properties":{"nom":"La Traille","ag":["Réseau interurbain - Ain (01)","Agrégat des réseaux urbains et interurbains d'Auvergne-Rhône-Alpes"],"lt":0,"dept":"01"}},{"type":"Feature","geometry":{"type":"Point","coordinates":[5.40739,45.85588]},"properties":{"nom":"Place","ag":["Réseau interurbain - Ain (01)","Agrégat des réseaux urbains et interurbains d'Auvergne-Rhône-Alpes"],"lt":0,"dept":"01"}},{"type":"Feature","geometry":{"type":"Point","coordinates":[4.77978,46.10882]},"properties":{"nom":"Mairie","ag":["Réseau interurbain - Ain (01)","Agrégat des réseaux urbains et interurbains d'Auvergne-Rhône-Alpes"],"lt":0,"dept":"01"}},{"type":"Feature","geometry":{"type":"Point","coordinates":[4.78047,45.94005]},"properties":{"nom":"Combattants","ag":["Réseau interurbain - Ain (01)","Agrégat des réseaux urbains et interurbains d'Auvergne-Rhône-Alpes"],"lt":0,"dept":"01"}},{"type":"Feature","geometry":{"type":"Point","coordinates":[5.57115,46.16462]},"properties":{"nom":"La Matinière","ag":["Réseau interurbain - Ain (01)","Agrégat des réseaux urbains et interurbains d'Auvergne-Rhône-Alpes"],"lt":0,"dept":"01"}},{"type":"Feature","geometry":{"type":"Point","coordinates":[5.55305,46.1398]},"properties":{"nom":"Eglise","ag":["Réseau interurbain - Ain (01)","Agrégat des réseaux urbains et interurbains d'Auvergne-Rhône-Alpes"],"lt":0,"dept":"01"}},{"type":"Feature","geometry":{"type":"Point","coordinates":[5.35924,46.00741]},"properties":{"nom":"Salle des Fêtes","ag":["Réseau interurbain - Ain (01)","Agrégat des réseaux urbains et interurbains d'Auvergne-Rhône-Alpes"],"lt":0,"dept":"01"}},{"type":"Feature","geometry":{"type":"Point","coordinates":[4.7591,46.07929]},"properties":{"nom":"Place Mairie","ag":["Réseau interurbain - Ain (01)","Agrégat des réseaux urbains et interurbains d'Auvergne-Rhône-Alpes"],"lt":0,"dept":"01"}},{"type":"Feature","geometry":{"type":"Point","coordinates":[4.78626,46.11888]},"properties":{"nom":"Mairie","ag":["Réseau interurbain - Ain (01)","Agrégat des réseaux urbains et interurbains d'Auvergne-Rhône-Alpes"],"lt":0,"dept":"01"}},{"type":"Feature","geometry":{"type":"Point","coordinates":[4.80693,46.14094]},"properties":{"nom":"Centre RD933","ag":["Réseau interurbain - Ain (01)","Agrégat des réseaux urbains et interurbains d'Auvergne-Rhône-Alpes"],"lt":0,"dept":"01"}},{"type":"Feature","geometry":{"type":"Point","coordinates":[4.8999,46.16262]},"properties":{"nom":"Croisement RD66 RD64","ag":["Réseau interurbain - Ain (01)","Agrégat des réseaux urbains et interurbains d'Auvergne-Rhône-Alpes"],"lt":0,"dept":"01"}},{"type":"Feature","geometry":{"type":"Point","coordinates":[5.19153,46.19999]},"properties":{"nom":"Flèches","ag":["Réseau interurbain - Ain (01)","Agrégat des réseaux urbains et interurbains d'Auvergne-Rhône-Alpes"],"lt":0,"dept":"01"}},{"type":"Feature","geometry":{"type":"Point","coordinates":[5.9069,46.16956]},"properties":{"nom":"Arrêt TER","ag":["Réseau interurbain - Ain (01)","Agrégat des réseaux urbains et interurbains d'Auvergne-Rhône-Alpes"],"lt":0,"dept":"01"}},{"type":"Feature","geometry":{"type":"Point","coordinates":[5.79506,46.11503]},"properties":{"nom":"Bellegarde - Autoroute","ag":["Réseau interurbain - Ain (01)","Agrégat des réseaux urbains et interurbains d'Auvergne-Rhône-Alpes"],"lt":0,"dept":"01"}},{"type":"Feature","geometry":{"type":"Point","coordinates":[5.79483,46.11512]},"properties":{"nom":"Bellegarde - Autoroute","ag":["Réseau interurbain - Ain (01)","Agrégat des réseaux urbains et interurbains d'Auvergne-Rhône-Alpes"],"lt":0,"dept":"01"}},{"type":"Feature","geometry":{"type":"Point","coordinates":[5.37654,46.07912]},"properties":{"nom":"Pont","ag":["Réseau interurbain - Ain (01)","Agrégat des réseaux urbains et interurbains d'Auvergne-Rhône-Alpes"],"lt":0,"dept":"01"}},{"type":"Feature","geometry":{"type":"Point","coordinates":[4.83936,46.30475]},"properties":{"nom":"Républic","ag":["Réseau interurbain - Ain (01)","Agrégat des réseaux urbains et interurbains d'Auvergne-Rhône-Alpes"],"lt":0,"dept":"01"}},{"type":"Feature","geometry":{"type":"Point","coordinates":[4.87978,46.29932]},"properties":{"nom":"Intermarché","ag":["Réseau interurbain - Ain (01)","Agrégat des réseaux urbains et interurbains d'Auvergne-Rhône-Alpes"],"lt":0,"dept":"01"}},{"type":"Feature","geometry":{"type":"Point","coordinates":[4.78221,45.93805]},"properties":{"nom":"Ancienne Gare","ag":["Réseau interurbain - Ain (01)","Agrégat des réseaux urbains et interurbains d'Auvergne-Rhône-Alpes"],"lt":0,"dept":"01"}},{"type":"Feature","geometry":{"type":"Point","coordinates":[4.75612,45.99126]},"properties":{"nom":"M. Convalesc.","ag":["Réseau interurbain - Ain (01)","Agrégat des réseaux urbains et interurbains d'Auvergne-Rhône-Alpes"],"lt":0,"dept":"01"}},{"type":"Feature","geometry":{"type":"Point","coordinates":[4.76116,46.01896]},"properties":{"nom":"Place Merlino","ag":["Réseau interurbain - Ain (01)","Agrégat des réseaux urbains et interurbains d'Auvergne-Rhône-Alpes"],"lt":0,"dept":"01"}},{"type":"Feature","geometry":{"type":"Point","coordinates":[4.75113,46.00079]},"properties":{"nom":"Place Jean Moulin","ag":["Réseau interurbain - Ain (01)","Agrégat des réseaux urbains et interurbains d'Auvergne-Rhône-Alpes"],"lt":0,"dept":"01"}},{"type":"Feature","geometry":{"type":"Point","coordinates":[4.76523,46.04984]},"properties":{"nom":"Rue du Bourg","ag":["Réseau interurbain - Ain (01)","Agrégat des réseaux urbains et interurbains d'Auvergne-Rhône-Alpes"],"lt":0,"dept":"01"}},{"type":"Feature","geometry":{"type":"Point","coordinates":[4.77191,46.067]},"properties":{"nom":"Route de la Fournière","ag":["Réseau interurbain - Ain (01)","Agrégat des réseaux urbains et interurbains d'Auvergne-Rhône-Alpes"],"lt":0,"dept":"01"}},{"type":"Feature","geometry":{"type":"Point","coordinates":[4.76363,46.07447]},"properties":{"nom":"Camping","ag":["Réseau interurbain - Ain (01)","Agrégat des réseaux urbains et interurbains d'Auvergne-Rhône-Alpes"],"lt":0,"dept":"01"}},{"type":"Feature","geometry":{"type":"Point","coordinates":[4.84004,46.22951]},"properties":{"nom":"Jaillets","ag":["Réseau interurbain - Ain (01)","Agrégat des réseaux urbains et interurbains d'Auvergne-Rhône-Alpes"],"lt":0,"dept":"01"}},{"type":"Feature","geometry":{"type":"Point","coordinates":[4.83136,46.24058]},"properties":{"nom":"Mairie","ag":["Réseau interurbain - Ain (01)","Agrégat des réseaux urbains et interurbains d'Auvergne-Rhône-Alpes"],"lt":0,"dept":"01"}},{"type":"Feature","geometry":{"type":"Point","coordinates":[4.89184,46.26804]},"properties":{"nom":"Gare de Pont de Veyle","ag":["Réseau interurbain - Ain (01)","Agrégat des réseaux urbains et interurbains d'Auvergne-Rhône-Alpes"],"lt":0,"dept":"01"}},{"type":"Feature","geometry":{"type":"Point","coordinates":[5.60196,45.97819]},"properties":{"nom":"Hauteville - Place Salle Fêtes","ag":["Réseau interurbain - Ain (01)","Agrégat des réseaux urbains et interurbains d'Auvergne-Rhône-Alpes"],"lt":0,"dept":"01"}},{"type":"Feature","geometry":{"type":"Point","coordinates":[5.60745,45.97394]},"properties":{"nom":"Hauteville - Rue Chemin d'Eau","ag":["Réseau interurbain - Ain (01)","Agrégat des réseaux urbains et interurbains d'Auvergne-Rhône-Alpes"],"lt":0,"dept":"01"}},{"type":"Feature","geometry":{"type":"Point","coordinates":[5.60817,45.97614]},"properties":{"nom":"Hauteville - Avenue Mangini","ag":["Réseau interurbain - Ain (01)","Agrégat des réseaux urbains et interurbains d'Auvergne-Rhône-Alpes"],"lt":0,"dept":"01"}},{"type":"Feature","geometry":{"type":"Point","coordinates":[5.60542,45.97933]},"properties":{"nom":"Hauteville - Monument de Bellevue","ag":["Réseau interurbain - Ain (01)","Agrégat des réseaux urbains et interurbains d'Auvergne-Rhône-Alpes"],"lt":0,"dept":"01"}},{"type":"Feature","geometry":{"type":"Point","coordinates":[5.60451,45.98222]},"properties":{"nom":"Hauteville - Place Martyrs","ag":["Réseau interurbain - Ain (01)","Agrégat des réseaux urbains et interurbains d'Auvergne-Rhône-Alpes"],"lt":0,"dept":"01"}},{"type":"Feature","geometry":{"type":"Point","coordinates":[5.59938,45.98007]},"properties":{"nom":"Hauteville - Résidence H.Dunant","ag":["Réseau interurbain - Ain (01)","Agrégat des réseaux urbains et interurbains d'Auvergne-Rhône-Alpes"],"lt":0,"dept":"01"}},{"type":"Feature","geometry":{"type":"Point","coordinates":[5.50921,45.91859]},