{"type":"FeatureCollection","features":[{"type":"Feature","geometry":{"type":"Point","coordinates":[3.39241,49.04299]},"properties":{"nom":"A. BRIAND","ag":["Réseau urbain Fablio"],"lt":0,"dept":"02"}},{"type":"Feature","geometry":{"type":"Point","coordinates":[3.40388,49.04467]},"properties":{"nom":"POTERNE","ag":["Réseau urbain Fablio"],"lt":0,"dept":"02"}},{"type":"Feature","geometry":{"type":"Point","coordinates":[3.40351,49.01858]},"properties":{"nom":"LA PAIX","ag":["Réseau urbain Fablio"],"lt":0,"dept":"02"}},{"type":"Feature","geometry":{"type":"Point","coordinates":[3.39657,49.04038]},"properties":{"nom":"LES DEUX RIVES","ag":["Réseau urbain Fablio"],"lt":0,"dept":"02"}},{"type":"Feature","geometry":{"type":"Point","coordinates":[3.3865,49.05958]},"properties":{"nom":"TROIS PIERRES","ag":["Réseau urbain Fablio"],"lt":0,"dept":"02"}},{"type":"Feature","geometry":{"type":"Point","coordinates":[3.39088,49.05086]},"properties":{"nom":"C. GUERIN","ag":["Réseau urbain Fablio"],"lt":0,"dept":"02"}},{"type":"Feature","geometry":{"type":"Point","coordinates":[3.39619,49.0375]},"properties":{"nom":"ZONE COMMERCIALE","ag":["Réseau urbain Fablio"],"lt":0,"dept":"02"}},{"type":"Feature","geometry":{"type":"Point","coordinates":[3.38751,49.04338]},"properties":{"nom":"PATIS ST MARTIN","ag":["Réseau urbain Fablio"],"lt":0,"dept":"02"}},{"type":"Feature","geometry":{"type":"Point","coordinates":[3.375,49.02997]},"properties":{"nom":"PL FERREOL","ag":["Réseau urbain Fablio"],"lt":0,"dept":"02"}},{"type":"Feature","geometry":{"type":"Point","coordinates":[3.36612,49.02977]},"properties":{"nom":"FOURRIER","ag":["Réseau urbain Fablio"],"lt":0,"dept":"02"}},{"type":"Feature","geometry":{"type":"Point","coordinates":[3.39491,49.06092]},"properties":{"nom":"BOIS BLANCHARD","ag":["Réseau urbain Fablio"],"lt":0,"dept":"02"}},{"type":"Feature","geometry":{"type":"Point","coordinates":[3.40139,49.03796]},"properties":{"nom":"AV. DE L EUROPE","ag":["Réseau urbain Fablio"],"lt":0,"dept":"02"}},{"type":"Feature","geometry":{"type":"Point","coordinates":[3.40928,49.03826]},"properties":{"nom":"GARE SNCF","ag":["Réseau urbain Fablio"],"lt":0,"dept":"02"}},{"type":"Feature","geometry":{"type":"Point","coordinates":[3.38654,49.03961]},"properties":{"nom":"CASTEL REPOS","ag":["Réseau urbain Fablio"],"lt":0,"dept":"02"}},{"type":"Feature","geometry":{"type":"Point","coordinates":[3.38663,49.03983]},"properties":{"nom":"CASTEL REPOS","ag":["Réseau urbain Fablio"],"lt":0,"dept":"02"}},{"type":"Feature","geometry":{"type":"Point","coordinates":[3.39389,49.08206]},"properties":{"nom":"PRE DES BARRES","ag":["Réseau urbain Fablio"],"lt":0,"dept":"02"}},{"type":"Feature","geometry":{"type":"Point","coordinates":[3.42662,49.048]},"properties":{"nom":"BRASLES MAIRIE","ag":["Réseau urbain Fablio"],"lt":0,"dept":"02"}},{"type":"Feature","geometry":{"type":"Point","coordinates":[3.40514,49.10583]},"properties":{"nom":"LES COQUELICOTS","ag":["Réseau urbain Fablio"],"lt":0,"dept":"02"}},{"type":"Feature","geometry":{"type":"Point","coordinates":[3.38101,49.05131]},"properties":{"nom":"BUISSON","ag":["Réseau urbain Fablio"],"lt":0,"dept":"02"}},{"type":"Feature","geometry":{"type":"Point","coordinates":[3.37759,49.03284]},"properties":{"nom":"LA VALLEE","ag":["Réseau urbain Fablio"],"lt":0,"dept":"02"}},{"type":"Feature","geometry":{"type":"Point","coordinates":[3.40735,49.03999]},"properties":{"nom":"REPUBLIQUE","ag":["Réseau urbain Fablio"],"lt":0,"dept":"02"}},{"type":"Feature","geometry":{"type":"Point","coordinates":[3.38297,49.03756]},"properties":{"nom":"GALLEGO","ag":["Réseau urbain Fablio"],"lt":0,"dept":"02"}},{"type":"Feature","geometry":{"type":"Point","coordinates":[3.39589,49.04906]},"properties":{"nom":"MADELEINE","ag":["Réseau urbain Fablio"],"lt":0,"dept":"02"}},{"type":"Feature","geometry":{"type":"Point","coordinates":[3.38183,49.064]},"properties":{"nom":"LAUCONNOIS","ag":["Réseau urbain Fablio"],"lt":0,"dept":"02"}},{"type":"Feature","geometry":{"type":"Point","coordinates":[3.38928,49.08151]},"properties":{"nom":"OMOIS","ag":["Réseau urbain Fablio"],"lt":0,"dept":"02"}},{"type":"Feature","geometry":{"type":"Point","coordinates":[3.3978,49.04968]},"properties":{"nom":"PETITS CHAMPS","ag":["Réseau urbain Fablio"],"lt":0,"dept":"02"}},{"type":"Feature","geometry":{"type":"Point","coordinates":[3.39866,49.04681]},"properties":{"nom":"RACINE","ag":["Réseau urbain Fablio"],"lt":0,"dept":"02"}},{"type":"Feature","geometry":{"type":"Point","coordinates":[3.40821,49.03087]},"properties":{"nom":"NENUPHARS","ag":["Réseau urbain Fablio"],"lt":0,"dept":"02"}},{"type":"Feature","geometry":{"type":"Point","coordinates":[3.34852,49.0253]},"properties":{"nom":"CROGIS","ag":["Réseau urbain Fablio"],"lt":0,"dept":"02"}},{"type":"Feature","geometry":{"type":"Point","coordinates":[3.3811,49.07889]},"properties":{"nom":"LE MARCHIS 2","ag":["Réseau urbain Fablio"],"lt":0,"dept":"02"}},{"type":"Feature","geometry":{"type":"Point","coordinates":[3.37768,49.04894]},"properties":{"nom":"PARADIS","ag":["Réseau urbain Fablio"],"lt":0,"dept":"02"}},{"type":"Feature","geometry":{"type":"Point","coordinates":[3.42157,49.01729]},"properties":{"nom":"LA DHUYS","ag":["Réseau urbain Fablio"],"lt":0,"dept":"02"}},{"type":"Feature","geometry":{"type":"Point","coordinates":[3.41433,49.03664]},"properties":{"nom":"ESMMUGUET2","ag":["Réseau urbain Fablio"],"lt":0,"dept":"02"}},{"type":"Feature","geometry":{"type":"Point","coordinates":[3.38926,49.08151]},"properties":{"nom":"OMOIS","ag":["Réseau urbain Fablio"],"lt":0,"dept":"02"}},{"type":"Feature","geometry":{"type":"Point","coordinates":[3.41798,49.03453]},"properties":{"nom":"ESMCENTRE2","ag":["Réseau urbain Fablio"],"lt":0,"dept":"02"}},{"type":"Feature","geometry":{"type":"Point","coordinates":[3.35068,49.03904]},"properties":{"nom":"MONNEAUX","ag":["Réseau urbain Fablio"],"lt":0,"dept":"02"}},{"type":"Feature","geometry":{"type":"Point","coordinates":[3.42733,49.03913]},"properties":{"nom":"MALPEINE","ag":["Réseau urbain Fablio"],"lt":0,"dept":"02"}},{"type":"Feature","geometry":{"type":"Point","coordinates":[3.42023,49.04538]},"properties":{"nom":"CROIX VITARD","ag":["Réseau urbain Fablio"],"lt":0,"dept":"02"}},{"type":"Feature","geometry":{"type":"Point","coordinates":[3.41286,49.05307]},"properties":{"nom":"HOPITAL","ag":["Réseau urbain Fablio"],"lt":0,"dept":"02"}},{"type":"Feature","geometry":{"type":"Point","coordinates":[3.3777,49.0328]},"properties":{"nom":"LA VALLEE","ag":["Réseau urbain Fablio"],"lt":0,"dept":"02"}},{"type":"Feature","geometry":{"type":"Point","coordinates":[3.44864,49.03976]},"properties":{"nom":"D1003 BLESMES","ag":["Réseau urbain Fablio"],"lt":0,"dept":"02"}},{"type":"Feature","geometry":{"type":"Point","coordinates":[3.42296,49.03507]},"properties":{"nom":"J. JAURES ETAMPES","ag":["Réseau urbain Fablio"],"lt":0,"dept":"02"}},{"type":"Feature","geometry":{"type":"Point","coordinates":[3.3903,49.03686]},"properties":{"nom":"CHAMPUNANT","ag":["Réseau urbain Fablio"],"lt":0,"dept":"02"}},{"type":"Feature","geometry":{"type":"Point","coordinates":[3.40482,49.03978]},"properties":{"nom":"PDOUMER 2","ag":["Réseau urbain Fablio"],"lt":0,"dept":"02"}},{"type":"Feature","geometry":{"type":"Point","coordinates":[3.41966,49.03386]},"properties":{"nom":"MAIRIE ETAMPES2","ag":["Réseau urbain Fablio"],"lt":0,"dept":"02"}},{"type":"Feature","geometry":{"type":"Point","coordinates":[3.37695,49.0251]},"properties":{"nom":"ESS?MES LES COLLINETTES","ag":["Réseau urbain Fablio"],"lt":0,"dept":"02"}},{"type":"Feature","geometry":{"type":"Point","coordinates":[3.39174,49.03522]},"properties":{"nom":"CARREFOUR DE L EUROPE (L4B)","ag":["Réseau urbain Fablio"],"lt":0,"dept":"02"}},{"type":"Feature","geometry":{"type":"Point","coordinates":[3.39246,49.06179]},"properties":{"nom":"HORLOGE","ag":["Réseau urbain Fablio"],"lt":0,"dept":"02"}},{"type":"Feature","geometry":{"type":"Point","coordinates":[3.39097,49.06722]},"properties":{"nom":"CENTRE AQUATIQUE","ag":["Réseau urbain Fablio"],"lt":0,"dept":"02"}},{"type":"Feature","geometry":{"type":"Point","coordinates":[3.38198,49.04456]},"properties":{"nom":"LES MARAIS","ag":["Réseau urbain Fablio"],"lt":0,"dept":"02"}},{"type":"Feature","geometry":{"type":"Point","coordinates":[3.39732,49.08696]},"properties":{"nom":"BEZUET","ag":["Réseau urbain Fablio"],"lt":0,"dept":"02"}},{"type":"Feature","geometry":{"type":"Point","coordinates":[3.40128,49.04061]},"properties":{"nom":"COLLEGE J RACINE","ag":["Réseau urbain Fablio"],"lt":0,"dept":"02"}},{"type":"Feature","geometry":{"type":"Point","coordinates":[3.4101,49.03666]},"properties":{"nom":"COUVRECELLE","ag":["Réseau urbain Fablio"],"lt":0,"dept":"02"}},{"type":"Feature","geometry":{"type":"Point","coordinates":[3.38455,49.04355]},"properties":{"nom":"ROOSEVELT","ag":["Réseau urbain Fablio"],"lt":0,"dept":"02"}},{"type":"Feature","geometry":{"type":"Point","coordinates":[3.4227,49.03512]},"properties":{"nom":"J. JAURES ETAMPES","ag":["Réseau urbain Fablio"],"lt":0,"dept":"02"}},{"type":"Feature","geometry":{"type":"Point","coordinates":[3.39058,49.05086]},"properties":{"nom":"C. GUERIN","ag":["Réseau urbain Fablio"],"lt":0,"dept":"02"}},{"type":"Feature","geometry":{"type":"Point","coordinates":[3.40151,49.05052]},"properties":{"nom":"LHERMITE","ag":["Réseau urbain Fablio"],"lt":0,"dept":"02"}},{"type":"Feature","geometry":{"type":"Point","coordinates":[3.42662,49.04799]},"properties":{"nom":"BRASLES MAIRIE","ag":["Réseau urbain Fablio"],"lt":0,"dept":"02"}},{"type":"Feature","geometry":{"type":"Point","coordinates":[3.39019,49.03662]},"properties":{"nom":"CHAMPUNANT","ag":["Réseau urbain Fablio"],"lt":0,"dept":"02"}},{"type":"Feature","geometry":{"type":"Point","coordinates":[3.39632,49.04907]},"properties":{"nom":"MADELEINE","ag":["Réseau urbain Fablio"],"lt":0,"dept":"02"}},{"type":"Feature","geometry":{"type":"Point","coordinates":[3.38331,49.04829]},"properties":{"nom":"MENNONERIE","ag":["Réseau urbain Fablio"],"lt":0,"dept":"02"}},{"type":"Feature","geometry":{"type":"Point","coordinates":[3.41499,49.03627]},"properties":{"nom":"ESMMUGUET1","ag":["Réseau urbain Fablio"],"lt":0,"dept":"02"}},{"type":"Feature","geometry":{"type":"Point","coordinates":[3.41189,49.02464]},"properties":{"nom":"NESLES NOUVEAU","ag":["Réseau urbain Fablio"],"lt":0,"dept":"02"}},{"type":"Feature","geometry":{"type":"Point","coordinates":[3.37505,49.0298]},"properties":{"nom":"PL FERREOL","ag":["Réseau urbain Fablio"],"lt":0,"dept":"02"}},{"type":"Feature","geometry":{"type":"Point","coordinates":[3.40493,49.03983]},"properties":{"nom":"PDOUMER 4","ag":["Réseau urbain Fablio"],"lt":0,"dept":"02"}},{"type":"Feature","geometry":{"type":"Point","coordinates":[3.40049,49.03869]},"properties":{"nom":"PRAIRIE","ag":["Réseau urbain Fablio"],"lt":0,"dept":"02"}},{"type":"Feature","geometry":{"type":"Point","coordinates":[3.38404,49.0592]},"properties":{"nom":"J.ROSTAND","ag":["Réseau urbain Fablio"],"lt":0,"dept":"02"}},{"type":"Feature","geometry":{"type":"Point","coordinates":[3.40008,49.04767]},"properties":{"nom":"RUE DE FERE","ag":["Réseau urbain Fablio"],"lt":0,"dept":"02"}},{"type":"Feature","geometry":{"type":"Point","coordinates":[3.38533,49.08129]},"properties":{"nom":"LE MARCHIS","ag":["Réseau urbain Fablio"],"lt":0,"dept":"02"}},{"type":"Feature","geometry":{"type":"Point","coordinates":[3.38834,49.05243]},"properties":{"nom":"LOUVETS","ag":["Réseau urbain Fablio"],"lt":0,"dept":"02"}},{"type":"Feature","geometry":{"type":"Point","coordinates":[3.43244,49.03756]},"properties":{"nom":"LES MARINIERS","ag":["Réseau urbain Fablio"],"lt":0,"dept":"02"}},{"type":"Feature","geometry":{"type":"Point","coordinates":[3.39506,49.05686]},"properties":{"nom":"FONDERIE","ag":["Réseau urbain Fablio"],"lt":0,"dept":"02"}},{"type":"Feature","geometry":{"type":"Point","coordinates":[3.38907,49.04795]},"properties":{"nom":"OTMUS","ag":["Réseau urbain Fablio"],"lt":0,"dept":"02"}},{"type":"Feature","geometry":{"type":"Point","coordinates":[3.39126,49.06455]},"properties":{"nom":"PARC CITELIUM","ag":["Réseau urbain Fablio"],"lt":0,"dept":"02"}},{"type":"Feature","geometry":{"type":"Point","coordinates":[3.38283,49.03722]},"properties":{"nom":"GALLEGO","ag":["Réseau urbain Fablio"],"lt":0,"dept":"02"}},{"type":"Feature","geometry":{"type":"Point","coordinates":[3.37516,49.05046]},"properties":{"nom":"VINCELLES","ag":["Réseau urbain Fablio"],"lt":0,"dept":"02"}},{"type":"Feature","geometry":{"type":"Point","coordinates":[3.40715,49.04007]},"properties":{"nom":"REPUBLIQUE","ag":["Réseau urbain Fablio"],"lt":0,"dept":"02"}},{"type":"Feature","geometry":{"type":"Point","coordinates":[3.43998,49.00593]},"properties":{"nom":"PETRET","ag":["Réseau urbain Fablio"],"lt":0,"dept":"02"}},{"type":"Feature","geometry":{"type":"Point","coordinates":[3.39165,49.03529]},"properties":{"nom":"CARREFOUR DE L EUROPE (L4B)","ag":["Réseau urbain Fablio"],"lt":0,"dept":"02"}},{"type":"Feature","geometry":{"type":"Point","coordinates":[3.40419,49.10567]},"properties":{"nom":"LES COQUELICOTS","ag":["Réseau urbain Fablio"],"lt":0,"dept":"02"}},{"type":"Feature","geometry":{"type":"Point","coordinates":[3.4016,49.04427]},"properties":{"nom":"LA FONTAINE","ag":["Réseau urbain Fablio"],"lt":0,"dept":"02"}},{"type":"Feature","geometry":{"type":"Point","coordinates":[3.40243,49.04275]},"properties":{"nom":"VICTOR HUGO","ag":["Réseau urbain Fablio"],"lt":0,"dept":"02"}},{"type":"Feature","geometry":{"type":"Point","coordinates":[3.43026,49.03937]},"properties":{"nom":"MAIRIE CHIERRY","ag":["Réseau urbain Fablio"],"lt":0,"dept":"02"}},{"type":"Feature","geometry":{"type":"Point","coordinates":[3.41295,49.05308]},"properties":{"nom":"HOPITAL","ag":["Réseau urbain Fablio"],"lt":0,"dept":"02"}},{"type":"Feature","geometry":{"type":"Point","coordinates":[3.40496,49.02035]},"properties":{"nom":"BARONNE","ag":["Réseau urbain Fablio"],"lt":0,"dept":"02"}},{"type":"Feature","geometry":{"type":"Point","coordinates":[3.39859,49.04376]},"properties":{"nom":"J. MOULIN","ag":["Réseau urbain Fablio"],"lt":0,"dept":"02"}},{"type":"Feature","geometry":{"type":"Point","coordinates":[3.39564,49.03744]},"properties":{"nom":"ZONE COMMERCIALE","ag":["Réseau urbain Fablio"],"lt":0,"dept":"02"}},{"type":"Feature","geometry":{"type":"Point","coordinates":[3.39543,49.04313]},"properties":{"nom":"P&MCURRY","ag":["Réseau urbain Fablio"],"lt":0,"dept":"02"}},{"type":"Feature","geometry":{"type":"Point","coordinates":[3.349,49.0449]},"properties":{"nom":"ESS?MES VAUX","ag":["Réseau urbain Fablio"],"lt":0,"dept":"02"}},{"type":"Feature","geometry":{"type":"Point","coordinates":[3.38814,49.06287]},"properties":{"nom":"BALLADE","ag":["Réseau urbain Fablio"],"lt":0,"dept":"02"}},{"type":"Feature","geometry":{"type":"Point","coordinates":[3.40455,49.04042]},"properties":{"nom":"PDOUMER 1","ag":["Réseau urbain Fablio"],"lt":0,"dept":"02"}},{"type":"Feature","geometry":{"type":"Point","coordinates":[3.38424,49.05929]},"properties":{"nom":"J.ROSTAND","ag":["Réseau urbain Fablio"],"lt":0,"dept":"02"}},{"type":"Feature","geometry":{"type":"Point","coordinates":[3.40145,49.01448]},"properties":{"nom":"NOGENTEL MAIRIE","ag":["Réseau urbain Fablio"],"lt":0,"dept":"02"}},{"type":"Feature","geometry":{"type":"Point","coordinates":[3.39957,49.03848]},"properties":{"nom":"PRAIRIE","ag":["Réseau urbain Fablio"],"lt":0,"dept":"02"}},{"type":"Feature","geometry":{"type":"Point","coordinates":[3.42502,49.01958]},"properties":{"nom":"MAIRIE NESLE","ag":["Réseau urbain Fablio"],"lt":0,"dept":"02"}},{"type":"Feature","geometry":{"type":"Point","coordinates":[3.38197,49.06059]},"properties":{"nom":"CLOS DES VIGNES","ag":["Réseau urbain Fablio"],"lt":0,"dept":"02"}},{"type":"Feature","geometry":{"type":"Point","coordinates":[3.41959,49.03379]},"properties":{"nom":"MARIE ETAMPES1","ag":["Réseau urbain Fablio"],"lt":0,"dept":"02"}},{"type":"Feature","geometry":{"type":"Point","coordinates":[3.4023,49.04449]},"properties":{"nom":"LA FONTAINE","ag":["Réseau urbain Fablio"],"lt":0,"dept":"02"}},{"type":"Feature","geometry":{"type":"Point","coordinates":[3.40388,49.04463]},"properties":{"nom":"POTERNE","ag":["Réseau urbain Fablio"],"lt":0,"dept":"02"}},{"type":"Feature","geometry":{"type":"Point","coordinates":[3.39358,49.04596]},"properties":{"nom":"J.JAURES","ag":["Réseau urbain Fablio"],"lt":0,"dept":"02"}},{"type":"Feature","geometry":{"type":"Point","coordinates":[3.38402,49.04375]},"properties":{"nom":"ROOSEVELT","ag":["Réseau urbain Fablio"],"lt":0,"dept":"02"}},{"type":"Feature","geometry":{"type":"Point","coordinates":[3.36058,49.02846]},"properties":{"nom":"PETIT MONTCOURT","ag":["Réseau urbain Fablio"],"lt":0,"dept":"02"}},{"type":"Feature","geometry":{"type":"Point","coordinates":[3.39782,49.05002]},"properties":{"nom":"PETITS CHAMPS","ag":["Réseau urbain Fablio"],"lt":0,"dept":"02"}},{"type":"Feature","geometry":{"type":"Point","coordinates":[3.39698,49.05305]},"properties":{"nom":"CHESNEAUX","ag":["Réseau urbain Fablio"],"lt":0,"dept":"02"}},{"type":"Feature","geometry":{"type":"Point","coordinates":[3.38226,49.0606]},"properties":{"nom":"CLOS DES VIGNES","ag":["Réseau urbain Fablio"],"lt":0,"dept":"02"}},{"type":"Feature","geometry":{"type":"Point","coordinates":[3.38408,49.06225]},"properties":{"nom":"L'ALEXANDRIN","ag":["Réseau urbain Fablio"],"lt":0,"dept":"02"}},{"type":"Feature","geometry":{"type":"Point","coordinates":[3.39927,49.04415]},"properties":{"nom":"POSTE","ag":["Réseau urbain Fablio"],"lt":0,"dept":"02"}},{"type":"Feature","geometry":{"type":"Point","coordinates":[3.40927,49.03645]},"properties":{"nom":"COUVRECELLE","ag":["Réseau urbain Fablio"],"lt":0,"dept":"02"}},{"type":"Feature","geometry":{"type":"Point","coordinates":[3.34902,49.04488]},"properties":{"nom":"ESS?MES VAUX","ag":["Réseau urbain Fablio"],"lt":0,"dept":"02"}},{"type":"Feature","geometry":{"type":"Point","coordinates":[3.45037,49.03919]},"properties":{"nom":"COURBOIN","ag":["Réseau urbain Fablio"],"lt":0,"dept":"02"}},{"type":"Feature","geometry":{"type":"Point","coordinates":[3.39223,49.04308]},"properties":{"nom":"A. BRIAND","ag":["Réseau urbain Fablio"],"lt":0,"dept":"02"}},{"type":"Feature","geometry":{"type":"Point","coordinates":[3.41819,49.03431]},"properties":{"nom":"ESMCENTRE1","ag":["Réseau urbain Fablio"],"lt":0,"dept":"02"}},{"type":"Feature","geometry":{"type":"Point","coordinates":[3.39871,49.01067]},"properties":{"nom":"ROUESSES","ag":["Réseau urbain Fablio"],"lt":0,"dept":"02"}},{"type":"Feature","geometry":{"type":"Point","coordinates":[3.3857,49.05463]},"properties":{"nom":"CHAMPAGNE","ag":["Réseau urbain Fablio"],"lt":0,"dept":"02"}},{"type":"Feature","geometry":{"type":"Point","coordinates":[3.39401,49.04557]},"properties":{"nom":"J.JAURES","ag":["Réseau urbain Fablio"],"lt":0,"dept":"02"}},{"type":"Feature","geometry":{"type":"Point","coordinates":[3.3817,49.06404]},"properties":{"nom":"LAUCONNOIS","ag":["Réseau urbain Fablio"],"lt":0,"dept":"02"}},{"type":"Feature","geometry":{"type":"Point","coordinates":[3.40264,49.05074]},"properties":{"nom":"LHERMITE","ag":["Réseau urbain Fablio"],"lt":0,"dept":"02"}},{"type":"Feature","geometry":{"type":"Point","coordinates":[3.42138,49.02163]},"properties":{"nom":"LE PREI","ag":["Réseau urbain Fablio"],"lt":0,"dept":"02"}},{"type":"Feature","geometry":{"type":"Point","coordinates":[3.42022,49.04543]},"properties":{"nom":"CROIX VITARD","ag":["Réseau urbain Fablio"],"lt":0,"dept":"02"}},{"type":"Feature","geometry":{"type":"Point","coordinates":[3.38791,49.06303]},"properties":{"nom":"BALLADE","ag":["Réseau urbain Fablio"],"lt":0,"dept":"02"}},{"type":"Feature","geometry":{"type":"Point","coordinates":[3.39465,49.06081]},"properties":{"nom":"BOIS BLANCHARD","ag":["Réseau urbain Fablio"],"lt":0,"dept":"02"}},{"type":"Feature","geometry":{"type":"Point","coordinates":[3.38821,49.05238]},"properties":{"nom":"LOUVETS","ag":["Réseau urbain Fablio"],"lt":0,"dept":"02"}},{"type":"Feature","geometry":{"type":"Point","coordinates":[3.35079,49.03892]},"properties":{"nom":"MONNEAUX","ag":["Réseau urbain Fablio"],"lt":0,"dept":"02"}},{"type":"Feature","geometry":{"type":"Point","coordinates":[3.40883,49.1081]},"properties":{"nom":"MAIRIE BEZU","ag":["Réseau urbain Fablio"],"lt":0,"dept":"02"}},{"type":"Feature","geometry":{"type":"Point","coordinates":[3.43416,49.03946]},"properties":{"nom":"LE MOULIN CHIERRY","ag":["Réseau urbain Fablio"],"lt":0,"dept":"02"}},{"type":"Feature","geometry":{"type":"Point","coordinates":[3.42747,49.03789]},"properties":{"nom":"LES SABLONS","ag":["Réseau urbain Fablio"],"lt":0,"dept":"02"}},{"type":"Feature","geometry":{"type":"Point","coordinates":[3.39515,49.05687]},"properties":{"nom":"FONDERIE","ag":["Réseau urbain Fablio"],"lt":0,"dept":"02"}},{"type":"Feature","geometry":{"type":"Point","coordinates":[3.40717,49.03357]},"properties":{"nom":"STADE DE CHATEAU THIERRY","ag":["Réseau urbain Fablio"],"lt":0,"dept":"02"}},{"type":"Feature","geometry":{"type":"Point","coordinates":[3.39156,49.03421]},"properties":{"nom":"CARREFOUR DE L EUROPE (navette 1)","ag":["Réseau urbain Fablio"],"lt":0,"dept":"02"}},{"type":"Feature","geometry":{"type":"Point","coordinates":[3.40177,49.04419]},"properties":{"nom":"LA FONTAINE","ag":["Réseau urbain Fablio"],"lt":0,"dept":"02"}},{"type":"Feature","geometry":{"type":"Point","coordinates":[3.40614,49.04542]},"properties":{"nom":"PLACE DU JEU DE PAUME","ag":["Réseau urbain Fablio"],"lt":0,"dept":"02"}},{"type":"Feature","geometry":{"type":"Point","coordinates":[3.40717,49.03389]},"properties":{"nom":"STADE DE CHATEAU THIERRY","ag":["Réseau urbain Fablio"],"lt":0,"dept":"02"}},{"type":"Feature","geometry":{"type":"Point","coordinates":[3.4065,49.04971]},"properties":{"nom":"LA BARRE","ag":["Réseau urbain Fablio"],"lt":0,"dept":"02"}},{"type":"Feature","geometry":{"type":"Point","coordinates":[3.36651,49.02985]},"properties":{"nom":"FOURRIER","ag":["Réseau urbain Fablio"],"lt":0,"dept":"02"}},{"type":"Feature","geometry":{"type":"Point","coordinates":[3.39753,49.0873]},"properties":{"nom":"BEZUET","ag":["Réseau urbain Fablio"],"lt":0,"dept":"02"}},{"type":"Feature","geometry":{"type":"Point","coordinates":[3.4112,49.02512]},"properties":{"nom":"NESLES NOUVEAU","ag":["Réseau urbain Fablio"],"lt":0,"dept":"02"}},{"type":"Feature","geometry":{"type":"Point","coordinates":[3.4444,49.01203]},"properties":{"nom":"PETIT BALLOIS","ag":["Réseau urbain Fablio"],"lt":0,"dept":"02"}},{"type":"Feature","geometry":{"type":"Point","coordinates":[3.40939,49.0511]},"properties":{"nom":"BELLEVUE","ag":["Réseau urbain Fablio"],"lt":0,"dept":"02"}},{"type":"Feature","geometry":{"type":"Point","coordinates":[3.40156,49.03812]},"properties":{"nom":"AV. DE L EUROPE","ag":["Réseau urbain Fablio"],"lt":0,"dept":"02"}},{"type":"Feature","geometry":{"type":"Point","coordinates":[3.397,49.05276]},"properties":{"nom":"CHESNEAUX","ag":["Réseau urbain Fablio"],"lt":0,"dept":"02"}},{"type":"Feature","geometry":{"type":"Point","coordinates":[3.40472,49.04052]},"properties":{"nom":"PDOUMER 3","ag":["Réseau urbain Fablio"],"lt":0,"dept":"02"}},{"type":"Feature","geometry":{"type":"Point","coordinates":[3.39119,49.06453]},"properties":{"nom":"PARC CITELIUM","ag":["Réseau urbain Fablio"],"lt":0,"dept":"02"}},{"type":"Feature","geometry":{"type":"Point","coordinates":[3.38404,49.06223]},"properties":{"nom":"L'ALEXANDRIN","ag":["Réseau urbain Fablio"],"lt":0,"dept":"02"}},{"type":"Feature","geometry":{"type":"Point","coordinates":[3.36046,49.02839]},"properties":{"nom":"PETIT MONTCOURT","ag":["Réseau urbain Fablio"],"lt":0,"dept":"02"}},{"type":"Feature","geometry":{"type":"Point","coordinates":[3.38578,49.05451]},"properties":{"nom":"CHAMPAGNE","ag":["Réseau urbain Fablio"],"lt":0,"dept":"02"}},{"type":"Feature","geometry":{"type":"Point","coordinates":[3.40941,49.0511]},"properties":{"nom":"BELLEVUE","ag":["Réseau urbain Fablio"],"lt":0,"dept":"02"}},{"type":"Feature","geometry":{"type":"Point","coordinates":[3.40646,49.04979]},"properties":{"nom":"LA BARRE","ag":["Réseau urbain Fablio"],"lt":0,"dept":"02"}},{"type":"Feature","geometry":{"type":"Point","coordinates":[3.3938,49.0821]},"properties":{"nom":"PRE DES BARRES","ag":["Réseau urbain Fablio"],"lt":0,"dept":"02"}},{"type":"Feature","geometry":{"type":"Point","coordinates":[3.39948,49.04412]},"properties":{"nom":"POSTE","ag":["Réseau urbain Fablio"],"lt":0,"dept":"02"}},{"type":"Feature","geometry":{"type":"Point","coordinates":[3.39493,49.08295]},"properties":{"nom":"ESAT BLANCHISSERIE","ag":["Réseau urbain Fablio"],"lt":0,"dept":"02"}},{"type":"Feature","geometry":{"type":"Point","coordinates":[3.38149,49.04806]},"properties":{"nom":"CATILLON","ag":["Réseau urbain Fablio"],"lt":0,"dept":"02"}},{"type":"Feature","geometry":{"type":"Point","coordinates":[3.40803,49.02394]},"properties":{"nom":"MARINIER","ag":["Réseau urbain Fablio"],"lt":0,"dept":"02"}},{"type":"Feature","geometry":{"type":"Point","coordinates":[3.38939,49.04823]},"properties":{"nom":"OTMUS","ag":["Réseau urbain Fablio"],"lt":0,"dept":"02"}},{"type":"Feature","geometry":{"type":"Point","coordinates":[3.38729,49.04955]},"properties":{"nom":"COMTESSES","ag":["Réseau urbain Fablio"],"lt":0,"dept":"02"}},{"type":"Feature","geometry":{"type":"Point","coordinates":[3.4488,49.03772]},"properties":{"nom":"MAIRIE BLESMES","ag":["Réseau urbain Fablio"],"lt":0,"dept":"02"}},{"type":"Feature","geometry":{"type":"Point","coordinates":[3.38751,49.04949]},"properties":{"nom":"COMTESSES","ag":["Réseau urbain Fablio"],"lt":0,"dept":"02"}},{"type":"Feature","geometry":{"type":"Point","coordinates":[3.40087,49.04794]},"properties":{"nom":"RUE DE FERE","ag":["Réseau urbain Fablio"],"lt":0,"dept":"02"}},{"type":"Feature","geometry":{"type":"Point","coordinates":[3.39694,49.04347]},"properties":{"nom":"J.MOULIN/P&MCURRY","ag":["Réseau urbain Fablio"],"lt":0,"dept":"02"}},{"type":"Feature","geometry":{"type":"Point","coordinates":[3.39156,49.03451]},"properties":{"nom":"CARREFOUR DE L EUROPE (navette 2)","ag":["Réseau urbain Fablio"],"lt":0,"dept":"02"}},{"type":"Feature","geometry":{"type":"Point","coordinates":[3.38717,49.04349]},"properties":{"nom":"PATIS ST MARTIN","ag":["Réseau urbain Fablio"],"lt":0,"dept":"02"}},{"type":"Feature","geometry":{"type":"Point","coordinates":[3.39211,49.06174]},"properties":{"nom":"HORLOGE","ag":["Réseau urbain Fablio"],"lt":0,"dept":"02"}},{"type":"Feature","geometry":{"type":"Point","coordinates":[3.40813,49.0313]},"properties":{"nom":"NENUPHARS","ag":["Réseau urbain Fablio"],"lt":0,"dept":"02"}},{"type":"Feature","geometry":{"type":"Point","coordinates":[3.17045,49.85746]},"properties":{"nom":"ATTILLY - Centre","ag":["Réseau interurbain - Somme (80)"],"lt":0,"dept":"02"}},{"type":"Feature","geometry":{"type":"Point","coordinates":[3.15545,49.87174]},"properties":{"nom":"ATTILLY - (MARTEVILLE) Abri","ag":["Réseau interurbain - Somme (80)"],"lt":0,"dept":"02"}},{"type":"Feature","geometry":{"type":"Point","coordinates":[3.21426,49.861]},"properties":{"nom":"HOLNON - Place","ag":["Réseau interurbain - Somme (80)"],"lt":0,"dept":"02"}},{"type":"Feature","geometry":{"type":"Point","coordinates":[3.14697,49.92759]},"properties":{"nom":"JEANCOURT - Abri","ag":["Réseau interurbain - Somme (80)"],"lt":0,"dept":"02"}},{"type":"Feature","geometry":{"type":"Point","coordinates":[3.29825,49.84054]},"properties":{"nom":"SAINT-QUENTIN - Gare routière","ag":["Réseau interurbain - Somme (80)"],"lt":0,"dept":"02"}},{"type":"Feature","geometry":{"type":"Point","coordinates":[3.2769,49.84851]},"properties":{"nom":"SAINT QUENTIN - Paringault","ag":["Réseau interurbain - Somme (80)"],"lt":0,"dept":"02"}},{"type":"Feature","geometry":{"type":"Point","coordinates":[3.13582,49.91017]},"properties":{"nom":"VENDELLES - Abri Eglise","ag":["Réseau interurbain - Somme (80)"],"lt":0,"dept":"02"}},{"type":"Feature","geometry":{"type":"Point","coordinates":[3.14748,49.87954]},"properties":{"nom":"VERMAND - Arrêt Centre Notaire","ag":["Réseau interurbain - Somme (80)"],"lt":0,"dept":"02"}},{"type":"Feature","geometry":{"type":"Point","coordinates":[3.14187,49.87864]},"properties":{"nom":"VERMAND - Collège","ag":["Réseau interurbain - Somme (80)"],"lt":0,"dept":"02"}},{"type":"Feature","geometry":{"type":"Point","coordinates":[3.15836,49.87907]},"properties":{"nom":"VERMAND - Abri Garage Renault","ag":["Réseau interurbain - Somme (80)"],"lt":0,"dept":"02"}},{"type":"Feature","geometry":{"type":"Point","coordinates":[3.17014,49.99117]},"properties":{"nom":"LEMPIRE - Mairie","ag":["Réseau interurbain - Somme (80)"],"lt":0,"dept":"02"}},{"type":"Feature","geometry":{"type":"Point","coordinates":[3.29315,49.85917]},"properties":{"nom":"SAINT-QUENTIN - Joliot Curie","ag":["Réseau interurbain - Somme (80)"],"lt":0,"dept":"02"}},{"type":"Feature","geometry":{"type":"Point","coordinates":[3.28377,49.85105]},"properties":{"nom":"SAINT-QUENTIN - Lycée H. Martin Richelieu","ag":["Réseau interurbain - Somme (80)"],"lt":0,"dept":"02"}},{"type":"Feature","geometry":{"type":"Point","coordinates":[3.29824,49.85145]},"properties":{"nom":"SAINT QUENTIN - Mulhouse","ag":["Réseau interurbain - Somme (80)"],"lt":0,"dept":"02"}},{"type":"Feature","geometry":{"type":"Point","coordinates":[3.28268,49.85047]},"properties":{"nom":"SAINT QUENTIN - Lycée H. Martin (Richelieu)","ag":["Réseau interurbain - Somme (80)"],"lt":0,"dept":"02"}},{"type":"Feature","geometry":{"type":"Point","coordinates":[3.11604,49.77423]},"properties":{"nom":"AUBIGNY AUX KAISNES - Eglise","ag":["Réseau interurbain - Somme (80)"],"lt":0,"dept":"02"}},{"type":"Feature","geometry":{"type":"Point","coordinates":[3.16777,49.85629]},"properties":{"nom":"ATTILLY - (VILLEVEQUE) Hameau","ag":["Réseau interurbain - Somme (80)"],"lt":0,"dept":"02"}},{"type":"Feature","geometry":{"type":"Point","coordinates":[3.13087,49.75086]},"properties":{"nom":"DURY - Centre","ag":["Réseau interurbain - Somme (80)"],"lt":0,"dept":"02"}},{"type":"Feature","geometry":{"type":"Point","coordinates":[3.09892,49.80565]},"properties":{"nom":"FORESTE - Centre","ag":["Réseau interurbain - Somme (80)"],"lt":0,"dept":"02"}},{"type":"Feature","geometry":{"type":"Point","coordinates":[3.22518,49.85616]},"properties":{"nom":"FRANCILLY-SELENCY - Eglise","ag":["Réseau interurbain - Somme (80)"],"lt":0,"dept":"02"}},{"type":"Feature","geometry":{"type":"Point","coordinates":[3.21281,49.85877]},"properties":{"nom":"HOLNON - Transformateur","ag":["Réseau interurbain - Somme (80)","Réseau scolaire de la Somme (80)"],"lt":0,"dept":"02"}},{"type":"Feature","geometry":{"type":"Point","coordinates":[3.09754,49.75306]},"properties":{"nom":"PITHON - Eglise","ag":["Réseau interurbain - Somme (80)"],"lt":0,"dept":"02"}},{"type":"Feature","geometry":{"type":"Point","coordinates":[3.09424,49.7796]},"properties":{"nom":"VILLERS-SAINT-CHRISTOPHE - Eglise","ag":["Réseau interurbain - Somme (80)"],"lt":0,"dept":"02"}},{"type":"Feature","geometry":{"type":"Point","coordinates":[3.12115,49.18467]},"properties":{"nom":"CARREFOUR CONTACT","ag":["Réseau urbain Villéo Retzéo"],"lt":0,"dept":"02"}},{"type":"Feature","geometry":{"type":"Point","coordinates":[3.12087,49.1794]},"properties":{"nom":"LA FERTE-MILON - GARE SNCF","ag":["Réseau urbain Villéo Retzéo"],"lt":0,"dept":"02"}},{"type":"Feature","geometry":{"type":"Point","coordinates":[3.12518,49.17809]},"properties":{"nom":"LA FERTE-MILON - MAIRIE","ag":["Réseau urbain Villéo Retzéo"],"lt":0,"dept":"02"}},{"type":"Feature","geometry":{"type":"Point","coordinates":[3.12521,49.17817]},"properties":{"nom":"LA FERTE-MILON - MAIRIE","ag":["Réseau urbain Villéo Retzéo"],"lt":0,"dept":"02"}},{"type":"Feature","geometry":{"type":"Point","coordinates":[3.12909,49.17548]},"properties":{"nom":"LA FERTE-MILON - PLACE DU PORT AU BLE","ag":["Réseau urbain Villéo Retzéo"],"lt":0,"dept":"02"}},{"type":"Feature","geometry":{"type":"Point","coordinates":[3.10202,49.25311]},"properties":{"nom":"BEAUCHAMPS","ag":["Réseau urbain Villéo Retzéo"],"lt":0,"dept":"02"}},{"type":"Feature","geometry":{"type":"Point","coordinates":[3.1022,49.25313]},"properties":{"nom":"BEAUCHAMPS","ag":["Réseau urbain Villéo Retzéo"],"lt":0,"dept":"02"}},{"type":"Feature","geometry":{"type":"Point","coordinates":[3.09828,49.26298]},"properties":{"nom":"J.BONHOMME","ag":["Réseau urbain Villéo Retzéo"],"lt":0,"dept":"02"}},{"type":"Feature","geometry":{"type":"Point","coordinates":[3.09074,49.23753]},"properties":{"nom":"BUCHERONS","ag":["Réseau urbain Villéo Retzéo"],"lt":0,"dept":"02"}},{"type":"Feature","geometry":{"type":"Point","coordinates":[3.09095,49.23752]},"properties":{"nom":"BUCHERONS","ag":["Réseau urbain Villéo Retzéo"],"lt":0,"dept":"02"}},{"type":"Feature","geometry":{"type":"Point","coordinates":[3.09992,49.25943]},"properties":{"nom":"LEON BLUM","ag":["Réseau urbain Villéo Retzéo"],"lt":0,"dept":"02"}},{"type":"Feature","geometry":{"type":"Point","coordinates":[3.08974,49.25468]},"properties":{"nom":"CENTRE","ag":["Réseau urbain Villéo Retzéo"],"lt":0,"dept":"02"}},{"type":"Feature","geometry":{"type":"Point","coordinates":[3.07485,49.24307]},"properties":{"nom":"CERF","ag":["Réseau urbain Villéo Retzéo"],"lt":0,"dept":"02"}},{"type":"Feature","geometry":{"type":"Point","coordinates":[3.07478,49.24313]},"properties":{"nom":"CERF","ag":["Réseau urbain Villéo Retzéo"],"lt":0,"dept":"02"}},{"type":"Feature","geometry":{"type":"Point","coordinates":[3.08474,49.25623]},"properties":{"nom":"CLOS HARAMONT","ag":["Réseau urbain Villéo Retzéo"],"lt":0,"dept":"02"}},{"type":"Feature","geometry":{"type":"Point","coordinates":[3.08505,49.25639]},"properties":{"nom":"CLOS HARAMONT","ag":["Réseau urbain Villéo Retzéo"],"lt":0,"dept":"02"}},{"type":"Feature","geometry":{"type":"Point","coordinates":[3.0997,49.26231]},"properties":{"nom":"CHOPIN","ag":["Réseau urbain Villéo Retzéo"],"lt":0,"dept":"02"}},{"type":"Feature","geometry":{"type":"Point","coordinates":[3.09958,49.26228]},"properties":{"nom":"CHOPIN","ag":["Réseau urbain Villéo Retzéo"],"lt":0,"dept":"02"}},{"type":"Feature","geometry":{"type":"Point","coordinates":[3.07843,49.24268]},"properties":{"nom":"LES DAIMS","ag":["Réseau urbain Villéo Retzéo"],"lt":0,"dept":"02"}},{"type":"Feature","geometry":{"type":"Point","coordinates":[3.07854,49.24269]},"properties":{"nom":"LES DAIMS","ag":["Réseau urbain Villéo Retzéo"],"lt":0,"dept":"02"}},{"type":"Feature","geometry":{"type":"Point","coordinates":[3.09642,49.26056]},"properties":{"nom":"D'ARTAGNAN","ag":["Réseau urbain Villéo Retzéo"],"lt":0,"dept":"02"}},{"type":"Feature","geometry":{"type":"Point","coordinates":[3.08211,49.25838]},"properties":{"nom":"DUSSUCHAL","ag":["Réseau urbain Villéo Retzéo"],"lt":0,"dept":"02"}},{"type":"Feature","geometry":{"type":"Point","coordinates":[3.07469,49.24134]},"properties":{"nom":"FRANCOIS 1er","ag":["Réseau urbain Villéo Retzéo"],"lt":0,"dept":"02"}},{"type":"Feature","geometry":{"type":"Point","coordinates":[3.07448,49.24189]},"properties":{"nom":"FRANCOIS 1er","ag":["Réseau urbain Villéo Retzéo"],"lt":0,"dept":"02"}},{"type":"Feature","geometry":{"type":"Point","coordinates":[3.10263,49.25467]},"properties":{"nom":"JEAN GOUJON","ag":["Réseau urbain Villéo Retzéo"],"lt":0,"dept":"02"}},{"type":"Feature","geometry":{"type":"Point","coordinates":[3.07941,49.2415]},"properties":{"nom":"HAUTE BORNE","ag":["Réseau urbain Villéo Retzéo"],"lt":0,"dept":"02"}},{"type":"Feature","geometry":{"type":"Point","coordinates":[3.08892,49.25066]},"properties":{"nom":"VICTOR HUGO","ag":["Réseau urbain Villéo Retzéo"],"lt":0,"dept":"02"}},{"type":"Feature","geometry":{"type":"Point","coordinates":[3.08885,49.25088]},"properties":{"nom":"VICTOR HUGO","ag":["Réseau urbain Villéo Retzéo"],"lt":0,"dept":"02"}},{"type":"Feature","geometry":{"type":"Point","coordinates":[3.09786,49.25584]},"properties":{"nom":"LES ALLEES","ag":["Réseau urbain Villéo Retzéo"],"lt":0,"dept":"02"}},{"type":"Feature","geometry":{"type":"Point","coordinates":[3.09795,49.25584]},"properties":{"nom":"LES ALLEES","ag":["Réseau urbain Villéo Retzéo"],"lt":0,"dept":"02"}},{"type":"Feature","geometry":{"type":"Point","coordinates":[3.09785,49.25016]},"properties":{"nom":"LEBLANC","ag":["Réseau urbain Villéo Retzéo"],"lt":0,"dept":"02"}},{"type":"Feature","geometry":{"type":"Point","coordinates":[3.0978,49.25006]},"properties":{"nom":"LEBLANC","ag":["Réseau urbain Villéo Retzéo"],"lt":0,"dept":"02"}},{"type":"Feature","geometry":{"type":"Point","coordinates":[3.07907,49.25061]},"properties":{"nom":"LYCEE EUROPEEN","ag":["Réseau urbain Villéo Retzéo"],"lt":0,"dept":"02"}},{"type":"Feature","geometry":{"type":"Point","coordinates":[3.09566,49.24908]},"properties":{"nom":"LIDL","ag":["Réseau urbain Villéo Retzéo"],"lt":0,"dept":"02"}},{"type":"Feature","geometry":{"type":"Point","coordinates":[3.09545,49.24905]},"properties":{"nom":"LIDL","ag":["Réseau urbain Villéo Retzéo"],"lt":0,"dept":"02"}},{"type":"Feature","geometry":{"type":"Point","coordinates":[3.09785,49.23638]},"properties":{"nom":"LES VERRIERS","ag":["Réseau urbain Villéo Retzéo"],"lt":0,"dept":"02"}},{"type":"Feature","geometry":{"type":"Point","coordinates":[3.09783,49.23646]},"properties":{"nom":"LES VERRIERS","ag":["Réseau urbain Villéo Retzéo"],"lt":0,"dept":"02"}},{"type":"Feature","geometry":{"type":"Point","coordinates":[3.09236,49.25482]},"properties":{"nom":"CHATEAU","ag":["Réseau urbain Villéo Retzéo"],"lt":0,"dept":"02"}},{"type":"Feature","geometry":{"type":"Point","coordinates":[3.10106,49.24897]},"properties":{"nom":"MARCHOIS","ag":["Réseau urbain Villéo Retzéo"],"lt":0,"dept":"02"}},{"type":"Feature","geometry":{"type":"Point","coordinates":[3.10108,49.24887]},"properties":{"nom":"MARCHOIS","ag":["Réseau urbain Villéo Retzéo"],"lt":0,"dept":"02"}},{"type":"Feature","geometry":{"type":"Point","coordinates":[3.08959,49.25299]},"properties":{"nom":"MUSEE DUMAS","ag":["Réseau urbain Villéo Retzéo"],"lt":0,"dept":"02"}},{"type":"Feature","geometry":{"type":"Point","coordinates":[3.08977,49.25288]},"properties":{"nom":"MUSEE DUMAS","ag":["Réseau urbain Villéo Retzéo"],"lt":0,"dept":"02"}},{"type":"Feature","geometry":{"type":"Point","coordinates":[3.08668,49.25001]},"properties":{"nom":"MEDIATHEQUE","ag":["Réseau urbain Villéo Retzéo"],"lt":0,"dept":"02"}},{"type":"Feature","geometry":{"type":"Point","coordinates":[3.08645,49.24993]},"properties":{"nom":"MEDIATHEQUE","ag":["Réseau urbain Villéo Retzéo"],"lt":0,"dept":"02"}},{"type":"Feature","geometry":{"type":"Point","coordinates":[3.08951,49.25152]},"properties":{"nom":"MILET","ag":["Réseau urbain Villéo Retzéo"],"lt":0,"dept":"02"}},{"type":"Feature","geometry":{"type":"Point","coordinates":[3.09032,49.25127]},"properties":{"nom":"MILET","ag":["Réseau urbain Villéo Retzéo"],"lt":0,"dept":"02"}},{"type":"Feature","geometry":{"type":"Point","coordinates":[3.08709,49.25311]},"properties":{"nom":"MAISON MEDICALE","ag":["Réseau urbain Villéo Retzéo"],"lt":0,"dept":"02"}},{"type":"Feature","geometry":{"type":"Point","coordinates":[3.08698,49.24782]},"properties":{"nom":"OASIS","ag":["Réseau urbain Villéo Retzéo"],"lt":0,"dept":"02"}},{"type":"Feature","geometry":{"type":"Point","coordinates":[3.08678,49.24792]},"properties":{"nom":"OASIS","ag":["Réseau urbain Villéo Retzéo"],"lt":0,"dept":"02"}},{"type":"Feature","geometry":{"type":"Point","coordinates":[3.08382,49.24123]},"properties":{"nom":"OREE DU BOIS","ag":["Réseau urbain Villéo Retzéo"],"lt":0,"dept":"02"}},{"type":"Feature","geometry":{"type":"Point","coordinates":[3.08372,49.24126]},"properties":{"nom":"OREE DU BOIS","ag":["Réseau urbain Villéo Retzéo"],"lt":0,"dept":"02"}},{"type":"Feature","geometry":{"type":"Point","coordinates":[3.0843,49.25414]},"properties":{"nom":"PELET OTTO","ag":["Réseau urbain Villéo Retzéo"],"lt":0,"dept":"02"}},{"type":"Feature","geometry":{"type":"Point","coordinates":[3.08417,49.2541]},"properties":{"nom":"PELET OTTO","ag":["Réseau urbain Villéo Retzéo"],"lt":0,"dept":"02"}},{"type":"Feature","geometry":{"type":"Point","coordinates":[3.09081,49.25426]},"properties":{"nom":"POSTE","ag":["Réseau urbain Villéo Retzéo"],"lt":0,"dept":"02"}},{"type":"Feature","geometry":{"type":"Point","coordinates":[3.09542,49.25457]},"properties":{"nom":"PRESBYTERE","ag":["Réseau urbain Villéo Retzéo"],"lt":0,"dept":"02"}},{"type":"Feature","geometry":{"type":"Point","coordinates":[3.09559,49.25444]},"properties":{"nom":"PRESBYTERE","ag":["Réseau urbain Villéo Retzéo"],"lt":0,"dept":"02"}},{"type":"Feature","geometry":{"type":"Point","coordinates":[3.09845,49.24035]},"properties":{"nom":"QUEUE D'OIGNY","ag":["Réseau urbain Villéo Retzéo"],"lt":0,"dept":"02"}},{"type":"Feature","geometry":{"type":"Point","coordinates":[3.09991,49.25178]},"properties":{"nom":"LES ROCHES","ag":["Réseau urbain Villéo Retzéo"],"lt":0,"dept":"02"}},{"type":"Feature","geometry":{"type":"Point","coordinates":[3.10011,49.2518]},"properties":{"nom":"LES ROCHES","ag":["Réseau urbain Villéo Retzéo"],"lt":0,"dept":"02"}},{"type":"Feature","geometry":{"type":"Point","coordinates":[3.09781,49.25944]},"properties":{"nom":"ROUTE DE VIVIERES","ag":["Réseau urbain Villéo Retzéo"],"lt":0,"dept":"02"}},{"type":"Feature","geometry":{"type":"Point","coordinates":[3.0979,49.25967]},"properties":{"nom":"ROUTE DE VIVIERES","ag":["Réseau urbain Villéo Retzéo"],"lt":0,"dept":"02"}},{"type":"Feature","geometry":{"type":"Point","coordinates":[3.09372,49.25026]},"properties":{"nom":"GARE SNCF","ag":["Réseau urbain Villéo Retzéo"],"lt":0,"dept":"02"}},{"type":"Feature","geometry":{"type":"Point","coordinates":[3.09326,49.25023]},"properties":{"nom":"GARE SNCF","ag":["Réseau urbain Villéo Retzéo"],"lt":0,"dept":"02"}},{"type":"Feature","geometry":{"type":"Point","coordinates":[3.08123,49.25562]},"properties":{"nom":"SAINT-ANNE","ag":["Réseau urbain Villéo Retzéo"],"lt":0,"dept":"02"}},{"type":"Feature","geometry":{"type":"Point","coordinates":[3.09683,49.26254]},"properties":{"nom":"TULIPE NOIRE","ag":["Réseau urbain Villéo Retzéo"],"lt":0,"dept":"02"}},{"type":"Feature","geometry":{"type":"Point","coordinates":[3.08679,49.24339]},"properties":{"nom":"VOLKSWAGEN","ag":["Réseau urbain Villéo Retzéo"],"lt":0,"dept":"02"}},{"type":"Feature","geometry":{"type":"Point","coordinates":[3.08693,49.24363]},"properties":{"nom":"VOLKSWAGEN","ag":["Réseau urbain Villéo Retzéo"],"lt":0,"dept":"02"}},{"type":"Feature","geometry":{"type":"Point","coordinates":[3.08735,49.25995]},"properties":{"nom":"PISCINE","ag":["Réseau urbain Villéo Retzéo"],"lt":0,"dept":"02"}},{"type":"Feature","geometry":{"type":"Point","coordinates":[3.662,50.0215]},"properties":{"nom":"OISY - Carrefour","ag":["Réseau interurbain et scolaire - Nord (59)"],"lt":0,"dept":"02"}},{"type":"Feature","geometry":{"type":"Point","coordinates":[3.5995,50.0144]},"properties":{"nom":"WASSIGNY - Place","ag":["Réseau interurbain et scolaire - Nord (59)"],"lt":0,"dept":"02"}},{"type":"Feature","geometry":{"type":"Point","coordinates":[3.6558,50.0355]},"properties":{"nom":"REJET-DE-BEAULIEU - Petit Cambrésis","ag":["Réseau interurbain et scolaire - Nord (59)","Réseau urbain Arc-en-ciel - Périmètre Caudrésis-Catésis"],"lt":0,"dept":"02"}},{"type":"Feature","geometry":{"type":"Point","coordinates":[3.66198,50.0215]},"properties":{"nom":"OISY - Carrefour","ag":["Réseau interurbain et scolaire - Nord (59)"],"lt":1,"dept":"02"}},{"type":"Feature","geometry":{"type":"Point","coordinates":[3.65592,50.03558]},"properties":{"nom":"REJET-DE-BEAULIEU - Petit Cambrésis","ag":["Réseau interurbain et scolaire - Nord (59)","Réseau urbain Arc-en-ciel - Périmètre Caudrésis-Catésis"],"lt":1,"dept":"02"}},{"type":"Feature","geometry":{"type":"Point","coordinates":[3.59956,50.01438]},"properties":{"nom":"WASSIGNY - Place","ag":["Réseau interurbain et scolaire - Nord (59)"],"lt":1,"dept":"02"}},{"type":"Feature","geometry":{"type":"Point","coordinates":[3.65725,49.39695]},"properties":{"nom":"BOURG ET C. - ABRI","ag":["Réseau scolaire de l'Aisne (02)","Réseau interurbain - Aisne (02)"],"lt":0,"dept":"02"}},{"type":"Feature","geometry":{"type":"Point","coordinates":[3.59535,49.40627]},"properties":{"nom":"SOUPIR - ABRI","ag":["Réseau scolaire de l'Aisne (02)","Réseau interurbain - Aisne (02)"],"lt":0,"dept":"02"}},{"type":"Feature","geometry":{"type":"Point","coordinates":[3.57062,49.39263]},"properties":{"nom":"CYS LA C. - MAIRIE","ag":["Réseau scolaire de l'Aisne (02)","Réseau interurbain - Aisne (02)"],"lt":0,"dept":"02"}},{"type":"Feature","geometry":{"type":"Point","coordinates":[3.55887,49.39361]},"properties":{"nom":"PRESLES ET B. - ABRI MAIRIE","ag":["Réseau scolaire de l'Aisne (02)","Réseau interurbain - Aisne (02)"],"lt":0,"dept":"02"}},{"type":"Feature","geometry":{"type":"Point","coordinates":[3.53445,49.39776]},"properties":{"nom":"PRESLES ET B. - ST AUDEBERT ABRI","ag":["Réseau scolaire de l'Aisne (02)","Réseau interurbain - Aisne (02)"],"lt":0,"dept":"02"}},{"type":"Feature","geometry":{"type":"Point","coordinates":[3.52817,49.39655]},"properties":{"nom":"PRESLES ET B. - CROIX ST THOMAS","ag":["Réseau scolaire de l'Aisne (02)","Réseau interurbain - Aisne (02)"],"lt":0,"dept":"02"}},{"type":"Feature","geometry":{"type":"Point","coordinates":[3.51635,49.40113]},"properties":{"nom":"PRESLES ET B. - PONT DE VAILLY","ag":["Réseau scolaire de l'Aisne (02)","Réseau interurbain - Aisne (02)"],"lt":0,"dept":"02"}},{"type":"Feature","geometry":{"type":"Point","coordinates":[3.51461,49.43617]},"properties":{"nom":"AIZY JOUY - MAIRIE ECOLE ABRI","ag":["Réseau scolaire de l'Aisne (02)","Réseau interurbain - Aisne (02)"],"lt":0,"dept":"02"}},{"type":"Feature","geometry":{"type":"Point","coordinates":[3.46933,49.39734]},"properties":{"nom":"CONDE S/ A. - ABRI","ag":["Réseau scolaire de l'Aisne (02)","Réseau interurbain - Aisne (02)"],"lt":0,"dept":"02"}},{"type":"Feature","geometry":{"type":"Point","coordinates":[3.33625,49.36852]},"properties":{"nom":"SOISSONS - GARE PEM","ag":["Réseau scolaire de l'Aisne (02)","Réseau interurbain - Aisne (02)"],"lt":0,"dept":"02"}},{"type":"Feature","geometry":{"type":"Point","coordinates":[3.31552,49.36417]},"properties":{"nom":"SOISSONS - LE CORBUSIER CITE SCOL","ag":["Réseau scolaire de l'Aisne (02)","Réseau interurbain - Aisne (02)"],"lt":0,"dept":"02"}},{"type":"Feature","geometry":{"type":"Point","coordinates":[3.57306,49.40337]},"properties":{"nom":"CHAVONNE - ABRI","ag":["Réseau scolaire de l'Aisne (02)","Réseau interurbain - Aisne (02)"],"lt":0,"dept":"02"}},{"type":"Feature","geometry":{"type":"Point","coordinates":[3.5937,49.56595]},"properties":{"nom":"LAON - COLL. J. MERMOZ","ag":["Réseau scolaire de l'Aisne (02)","Réseau interurbain - Aisne (02)"],"lt":0,"dept":"02"}},{"type":"Feature","geometry":{"type":"Point","coordinates":[3.63762,49.56182]},"properties":{"nom":"LAON - LY PIERRE MECHAIN","ag":["Réseau scolaire de l'Aisne (02)","Réseau interurbain - Aisne (02)"],"lt":0,"dept":"02"}},{"type":"Feature","geometry":{"type":"Point","coordinates":[3.6419,49.56187]},"properties":{"nom":"LAON - COLL.CHARLEMAGNE","ag":["Réseau scolaire de l'Aisne (02)","Réseau interurbain - Aisne (02)"],"lt":0,"dept":"02"}},{"type":"Feature","geometry":{"type":"Point","coordinates":[3.62571,49.56995]},"properties":{"nom":"LAON - GARE ROUTIERE","ag":["Réseau scolaire de l'Aisne (02)","Réseau interurbain - Aisne (02)"],"lt":0,"dept":"02"}},{"type":"Feature","geometry":{"type":"Point","coordinates":[3.60901,49.56454]},"properties":{"nom":"LAON - LY. PAUL CLAUDEL","ag":["Réseau scolaire de l'Aisne (02)","Réseau interurbain - Aisne (02)"],"lt":0,"dept":"02"}},{"type":"Feature","geometry":{"type":"Point","coordinates":[3.61134,49.56178]},"properties":{"nom":"LAON - COLL LENAIN","ag":["Réseau scolaire de l'Aisne (02)","Réseau interurbain - Aisne (02)"],"lt":0,"dept":"02"}},{"type":"Feature","geometry":{"type":"Point","coordinates":[3.51553,49.64163]},"properties":{"nom":"COUVRON ET A. -  ABRI GRAND PLACE","ag":["Réseau scolaire de l'Aisne (02)","Réseau interurbain - Aisne (02)"],"lt":0,"dept":"02"}},{"type":"Feature","geometry":{"type":"Point","coordinates":[3.48518,49.69037]},"properties":{"nom":"NOUVION ET C-PT A BUCY 4 PONCEAUX","ag":["Réseau scolaire de l'Aisne (02)","Réseau interurbain - Aisne (02)"],"lt":0,"dept":"02"}},{"type":"Feature","geometry":{"type":"Point","coordinates":[3.4614,49.69942]},"properties":{"nom":"NOUVION LE C. - ABRI ECOLE","ag":["Réseau scolaire de l'Aisne (02)","Réseau interurbain - Aisne (02)"],"lt":0,"dept":"02"}},{"type":"Feature","geometry":{"type":"Point","coordinates":[3.4815,49.70299]},"properties":{"nom":"NOUVION ET C. - FACE ABRI","ag":["Réseau scolaire de l'Aisne (02)","Réseau interurbain - Aisne (02)"],"lt":0,"dept":"02"}},{"type":"Feature","geometry":{"type":"Point","coordinates":[3.46713,49.80067]},"properties":{"nom":"RIBEMONT - COLLEGE","ag":["Réseau scolaire de l'Aisne (02)","Réseau interurbain - Aisne (02)"],"lt":0,"dept":"02"}},{"type":"Feature","geometry":{"type":"Point","coordinates":[3.29454,49.86025]},"properties":{"nom":"ST QUENTIN - LYCEE CONDORCET","ag":["Réseau scolaire de l'Aisne (02)","Réseau interurbain - Aisne (02)"],"lt":0,"dept":"02"}},{"type":"Feature","geometry":{"type":"Point","coordinates":[3.79216,49.90575]},"properties":{"nom":"MARLY GOMONT - ABRI RUE ST ALGIS","ag":["Réseau scolaire de l'Aisne (02)","Réseau interurbain - Aisne (02)"],"lt":0,"dept":"02"}},{"type":"Feature","geometry":{"type":"Point","coordinates":[3.82027,49.90137]},"properties":{"nom":"ST ALGIS -  CALVAIRE ABRI","ag":["Réseau scolaire de l'Aisne (02)","Réseau interurbain - Aisne (02)"],"lt":0,"dept":"02"}},{"type":"Feature","geometry":{"type":"Point","coordinates":[3.88625,49.8997]},"properties":{"nom":"SORBAIS - CROISEMENT D31","ag":["Réseau scolaire de l'Aisne (02)","Réseau interurbain - Aisne (02)"],"lt":0,"dept":"02"}},{"type":"Feature","geometry":{"type":"Point","coordinates":[3.93368,49.91492]},"properties":{"nom":"GERGNY - ARRET","ag":["Réseau scolaire de l'Aisne (02)","Réseau interurbain - Aisne (02)"],"lt":0,"dept":"02"}},{"type":"Feature","geometry":{"type":"Point","coordinates":[4.07691,49.93047]},"properties":{"nom":"HIRSON - GARE ROUTIERE","ag":["Réseau scolaire de l'Aisne (02)","Réseau interurbain - Aisne (02)"],"lt":0,"dept":"02"}},{"type":"Feature","geometry":{"type":"Point","coordinates":[4.0792,49.92182]},"properties":{"nom":"HIRSON - ENFANT JESUS","ag":["Réseau scolaire de l'Aisne (02)","Réseau interurbain - Aisne (02)"],"lt":0,"dept":"02"}},{"type":"Feature","geometry":{"type":"Point","coordinates":[4.09415,49.92352]},"properties":{"nom":"HIRSON - COLLEGE G.COBAST","ag":["Réseau scolaire de l'Aisne (02)","Réseau interurbain - Aisne (02)"],"lt":0,"dept":"02"}},{"type":"Feature","geometry":{"type":"Point","coordinates":[4.08418,49.91451]},"properties":{"nom":"HIRSON - GARE SNCF","ag":["Réseau scolaire de l'Aisne (02)","Réseau interurbain - Aisne (02)"],"lt":0,"dept":"02"}},{"type":"Feature","geometry":{"type":"Point","coordinates":[3.3111,49.15493]},"properties":{"nom":"LATILLY - ABRI","ag":["Réseau scolaire de l'Aisne (02)"],"lt":0,"dept":"02"}},{"type":"Feature","geometry":{"type":"Point","coordinates":[3.31089,49.15481]},"properties":{"nom":"LATILLY - MAIRIE ECOLE","ag":["Réseau scolaire de l'Aisne (02)"],"lt":0,"dept":"02"}},{"type":"Feature","geometry":{"type":"Point","coordinates":[4.05621,49.90345]},"properties":{"nom":"BUIRE -  VILLAGE ABRI","ag":["Réseau scolaire de l'Aisne (02)","Réseau interurbain - Aisne (02)"],"lt":0,"dept":"02"}},{"type":"Feature","geometry":{"type":"Point","coordinates":[3.34639,49.10909]},"properties":{"nom":"EPAUX BEZU - PLACE DE L'EUROPE","ag":["Réseau scolaire de l'Aisne (02)"],"lt":0,"dept":"02"}},{"type":"Feature","geometry":{"type":"Point","coordinates":[3.39737,49.0869]},"properties":{"nom":"BEZU ST G. - BEZUET","ag":["Réseau scolaire de l'Aisne (02)","Réseau interurbain - Aisne (02)"],"lt":0,"dept":"02"}},{"type":"Feature","geometry":{"type":"Point","coordinates":[3.39697,49.05306]},"properties":{"nom":"CHATEAU T. - LES CHESNEAUX","ag":["Réseau scolaire de l'Aisne (02)","Réseau interurbain - Aisne (02)"],"lt":0,"dept":"02"}},{"type":"Feature","geometry":{"type":"Point","coordinates":[3.26979,49.15411]},"properties":{"nom":"NEUILLY ST F. - ABRI RASSY","ag":["Réseau scolaire de l'Aisne (02)","Réseau interurbain - Aisne (02)"],"lt":0,"dept":"02"}},{"type":"Feature","geometry":{"type":"Point","coordinates":[3.2645,49.11273]},"properties":{"nom":"COURCHAMPS - FACE ABRI PLACE","ag":["Réseau scolaire de l'Aisne (02)"],"lt":0,"dept":"02"}},{"type":"Feature","geometry":{"type":"Point","coordinates":[3.27447,49.09999]},"properties":{"nom":"LICY CLIGNON - EGLISE","ag":["Réseau scolaire de l'Aisne (02)","Réseau interurbain - Aisne (02)"],"lt":0,"dept":"02"}},{"type":"Feature","geometry":{"type":"Point","coordinates":[3.3511,48.94499]},"properties":{"nom":"NOGENT L A. - LA GENESTRE ABRI","ag":["Réseau scolaire de l'Aisne (02)","Réseau interurbain - Aisne (02)"],"lt":0,"dept":"02"}},{"type":"Feature","geometry":{"type":"Point","coordinates":[3.35557,48.94575]},"properties":{"nom":"NOGENT L A. - CHEROST CENTRE","ag":["Réseau scolaire de l'Aisne (02)","Réseau interurbain - Aisne (02)"],"lt":0,"dept":"02"}},{"type":"Feature","geometry":{"type":"Point","coordinates":[3.39224,48.94671]},"properties":{"nom":"LA CHAPELLE S. - CAQUETONS ABRI","ag":["Réseau scolaire de l'Aisne (02)","Réseau interurbain - Aisne (02)"],"lt":0,"dept":"02"}},{"type":"Feature","geometry":{"type":"Point","coordinates":[3.39711,48.89599]},"properties":{"nom":"VIELS MAISONS - PLACE","ag":["Réseau scolaire de l'Aisne (02)","Réseau interurbain - Aisne (02)"],"lt":0,"dept":"02"}},{"type":"Feature","geometry":{"type":"Point","coordinates":[3.44529,48.89557]},"properties":{"nom":"L EPINE AUX B. - LA HAUTE EPINE","ag":["Réseau scolaire de l'Aisne (02)","Réseau interurbain - Aisne (02)"],"lt":0,"dept":"02"}},{"type":"Feature","geometry":{"type":"Point","coordinates":[3.36635,48.98909]},"properties":{"nom":"CHEZY S/ M. - PL. DE LA MAIRIE","ag":["Réseau scolaire de l'Aisne (02)","Réseau interurbain - Aisne (02)"],"lt":0,"dept":"02"}},{"type":"Feature","geometry":{"type":"Point","coordinates":[3.40517,49.02055]},"properties":{"nom":"NOGENTEL - LA BARONNE","ag":["Réseau scolaire de l'Aisne (02)","Réseau interurbain - Aisne (02)"],"lt":0,"dept":"02"}},{"type":"Feature","geometry":{"type":"Point","coordinates":[3.1947,49.02183]},"properties":{"nom":"MONTREUIL AUX L - PLACE MAIRIE","ag":["Réseau scolaire de l'Aisne (02)"],"lt":0,"dept":"02"}},{"type":"Feature","geometry":{"type":"Point","coordinates":[3.22066,49.05505]},"properties":{"nom":"MARIGNY EN O. - CORMONT","ag":["Réseau scolaire de l'Aisne (02)","Réseau interurbain - Aisne (02)"],"lt":0,"dept":"02"}},{"type":"Feature","geometry":{"type":"Point","coordinates":[3.31552,49.03961]},"properties":{"nom":"ESSOMES S/ M. - LE THIOLET ABRI","ag":["Réseau scolaire de l'Aisne (02)"],"lt":0,"dept":"02"}},{"type":"Feature","geometry":{"type":"Point","coordinates":[3.34864,49.02539]},"properties":{"nom":"ESSOMES S/ M. - CROGIS","ag":["Réseau scolaire de l'Aisne (02)","Réseau interurbain - Aisne (02)"],"lt":0,"dept":"02"}},{"type":"Feature","geometry":{"type":"Point","coordinates":[3.3665,49.02986]},"properties":{"nom":"ESSOMES S/ M. - 43B RUE FOURRIER","ag":["Réseau scolaire de l'Aisne (02)","Réseau interurbain - Aisne (02)"],"lt":0,"dept":"02"}},{"type":"Feature","geometry":{"type":"Point","coordinates":[3.38656,49.03965]},"properties":{"nom":"CHATEAU T. - CASTEL REPOS ABR.","ag":["Réseau scolaire de l'Aisne (02)","Réseau interurbain - Aisne (02)"],"lt":0,"dept":"02"}},{"type":"Feature","geometry":{"type":"Point","coordinates":[3.39938,49.04416]},"properties":{"nom":"CHATEAU T. - LA POSTE","ag":["Réseau scolaire de l'Aisne (02)","Réseau interurbain - Aisne (02)"],"lt":0,"dept":"02"}},{"type":"Feature","geometry":{"type":"Point","coordinates":[3.35336,49.26984]},"properties":{"nom":"HARTENNES ET T. - FACE ABRI PLACE","ag":["Réseau scolaire de l'Aisne (02)","Réseau interurbain - Aisne (02)"],"lt":0,"dept":"02"}},{"type":"Feature","geometry":{"type":"Point","coordinates":[3.35066,49.21329]},"properties":{"nom":"OULCHY LA V. - ABRI PLACE","ag":["Réseau scolaire de l'Aisne (02)","Réseau interurbain - Aisne (02)"],"lt":0,"dept":"02"}},{"type":"Feature","geometry":{"type":"Point","coordinates":[3.40873,49.10829]},"properties":{"nom":"BEZU ST G. - PLACE MAIRIE ABRI","ag":["Réseau scolaire de l'Aisne (02)","Réseau interurbain - Aisne (02)"],"lt":0,"dept":"02"}},{"type":"Feature","geometry":{"type":"Point","coordinates":[3.38667,49.05169]},"properties":{"nom":"CHATEAU T. - LYCEE LA FONTAINE","ag":["Réseau scolaire de l'Aisne (02)","Réseau interurbain - Aisne (02)"],"lt":0,"dept":"02"}},{"type":"Feature","geometry":{"type":"Point","coordinates":[3.38407,49.05915]},"properties":{"nom":"CHATEAU T. - CES JEAN ROSTAND","ag":["Réseau scolaire de l'Aisne (02)","Réseau interurbain - Aisne (02)"],"lt":0,"dept":"02"}},{"type":"Feature","geometry":{"type":"Point","coordinates":[3.40015,49.05304]},"properties":{"nom":"CHATEAU T. - CITE TECH J.VERNE","ag":["Réseau scolaire de l'Aisne (02)","Réseau interurbain - Aisne (02)"],"lt":0,"dept":"02"}},{"type":"Feature","geometry":{"type":"Point","coordinates":[3.40925,49.03827]},"properties":{"nom":"CHATEAU T. - GARE SNCF","ag":["Réseau scolaire de l'Aisne (02)","Réseau interurbain - Aisne (02)"],"lt":0,"dept":"02"}},{"type":"Feature","geometry":{"type":"Point","coordinates":[3.4012,49.04261]},"properties":{"nom":"CHATEAU T. - PLACE THIERS","ag":["Réseau scolaire de l'Aisne (02)","Réseau interurbain - Aisne (02)"],"lt":0,"dept":"02"}},{"type":"Feature","geometry":{"type":"Point","coordinates":[3.42117,49.16061]},"properties":{"nom":"COINCY  - ABRI MAIRIE","ag":["Réseau scolaire de l'Aisne (02)","Réseau interurbain - Aisne (02)"],"lt":0,"dept":"02"}},{"type":"Feature","geometry":{"type":"Point","coordinates":[3.4414,49.24216]},"properties":{"nom":"ARCY STE R. - SERVENAY","ag":["Réseau scolaire de l'Aisne (02)","Réseau interurbain - Aisne (02)"],"lt":0,"dept":"02"}},{"type":"Feature","geometry":{"type":"Point","coordinates":[3.49991,49.2667]},"properties":{"nom":"ARCY STE R. - BRANGES","ag":["Réseau scolaire de l'Aisne (02)","Réseau interurbain - Aisne (02)"],"lt":0,"dept":"02"}},{"type":"Feature","geometry":{"type":"Point","coordinates":[3.57093,49.01174]},"properties":{"nom":"CELLES LES C. - FACE ABRI","ag":["Réseau scolaire de l'Aisne (02)","Réseau interurbain - Aisne (02)"],"lt":0,"dept":"02"}},{"type":"Feature","geometry":{"type":"Point","coordinates":[3.53145,49.03201]},"properties":{"nom":"CONNIGIS - PLACE","ag":["Réseau scolaire de l'Aisne (02)","Réseau interurbain - Aisne (02)"],"lt":0,"dept":"02"}},{"type":"Feature","geometry":{"type":"Point","coordinates":[3.5211,49.05932]},"properties":{"nom":"MEZY MOULINS - MOULINS","ag":["Réseau scolaire de l'Aisne (02)","Réseau interurbain - Aisne (02)"],"lt":0,"dept":"02"}},{"type":"Feature","geometry":{"type":"Point","coordinates":[3.50532,49.06641]},"properties":{"nom":"MEZY MOULINS - X RUE MOULINS/GARE","ag":["Réseau scolaire de l'Aisne (02)","Réseau interurbain - Aisne (02)"],"lt":0,"dept":"02"}},{"type":"Feature","geometry":{"type":"Point","coordinates":[3.48596,49.05488]},"properties":{"nom":"FOSSOY - LA BADELLE","ag":["Réseau scolaire de l'Aisne (02)","Réseau interurbain - Aisne (02)"],"lt":0,"dept":"02"}},{"type":"Feature","geometry":{"type":"Point","coordinates":[3.55229,49.00541]},"properties":{"nom":"CONDE EN B. - COLLEGE","ag":["Réseau scolaire de l'Aisne (02)","Réseau interurbain - Aisne (02)"],"lt":0,"dept":"02"}},{"type":"Feature","geometry":{"type":"Point","coordinates":[3.53118,49.0227]},"properties":{"nom":"ST EUGENE - PLACE ECOLE","ag":["Réseau scolaire de l'Aisne (02)","Réseau interurbain - Aisne (02)"],"lt":0,"dept":"02"}},{"type":"Feature","geometry":{"type":"Point","coordinates":[3.50972,49.04901]},"properties":{"nom":"CREZANCY - LYCEE AGRICOLE","ag":["Réseau scolaire de l'Aisne (02)","Réseau interurbain - Aisne (02)"],"lt":0,"dept":"02"}},{"type":"Feature","geometry":{"type":"Point","coordinates":[3.55699,49.0579]},"properties":{"nom":"REUILLY S. - ABRI","ag":["Réseau scolaire de l'Aisne (02)","Réseau interurbain - Aisne (02)"],"lt":0,"dept":"02"}},{"type":"Feature","geometry":{"type":"Point","coordinates":[3.57596,49.05453]},"properties":{"nom":"REUILLY S. - SAUVIGNY","ag":["Réseau scolaire de l'Aisne (02)","Réseau interurbain - Aisne (02)"],"lt":0,"dept":"02"}},{"type":"Feature","geometry":{"type":"Point","coordinates":[3.55608,49.00452]},"properties":{"nom":"CONDE EN B. - ECOLE PRIMAIRE","ag":["Réseau scolaire de l'Aisne (02)","Réseau interurbain - Aisne (02)"],"lt":0,"dept":"02"}},{"type":"Feature","geometry":{"type":"Point","coordinates":[3.20102,49.38202]},"properties":{"nom":"AMBLENY - LE SOULIER","ag":["Réseau scolaire de l'Aisne (02)","Réseau interurbain - Aisne (02)"],"lt":0,"dept":"02"}},{"type":"Feature","geometry":{"type":"Point","coordinates":[3.16989,49.37127]},"properties":{"nom":"ST BANDRY - PLACE DE L'EGLISE","ag":["Réseau scolaire de l'Aisne (02)","Réseau interurbain - Aisne (02)"],"lt":0,"dept":"02"}},{"type":"Feature","geometry":{"type":"Point","coordinates":[3.17468,49.36649]},"properties":{"nom":"ST BANDRY - COURTANSON","ag":["Réseau scolaire de l'Aisne (02)","Réseau interurbain - Aisne (02)"],"lt":0,"dept":"02"}},{"type":"Feature","geometry":{"type":"Point","coordinates":[3.09286,49.25477]},"properties":{"nom":"VILLERS C. - GRAND BOSQUET","ag":["Réseau scolaire de l'Aisne (02)","Réseau interurbain - Aisne (02)"],"lt":0,"dept":"02"}},{"type":"Feature","geometry":{"type":"Point","coordinates":[3.15223,49.24413]},"properties":{"nom":"DAMPLEUX - PLACE ABRI","ag":["Réseau scolaire de l'Aisne (02)","Réseau interurbain - Aisne (02)"],"lt":0,"dept":"02"}},{"type":"Feature","geometry":{"type":"Point","coordinates":[3.17775,49.23167]},"properties":{"nom":"FAVEROLLES - VOUTY ABRI PLACE","ag":["Réseau scolaire de l'Aisne (02)","Réseau interurbain - Aisne (02)"],"lt":0,"dept":"02"}},{"type":"Feature","geometry":{"type":"Point","coordinates":[3.23878,49.2631]},"properties":{"nom":"LOUATRE - VIOLAINE","ag":["Réseau scolaire de l'Aisne (02)","Réseau interurbain - Aisne (02)"],"lt":0,"dept":"02"}},{"type":"Feature","geometry":{"type":"Point","coordinates":[3.21274,49.32862]},"properties":{"nom":"DOMMIERS - ABRI MAIRIE ECOLE","ag":["Réseau scolaire de l'Aisne (02)","Réseau interurbain - Aisne (02)"],"lt":0,"dept":"02"}},{"type":"Feature","geometry":{"type":"Point","coordinates":[3.37195,49.65996]},"properties":{"nom":"LA FERE - PONT DE L'OISE","ag":["Réseau scolaire de l'Aisne (02)","Réseau interurbain - Aisne (02)"],"lt":0,"dept":"02"}},{"type":"Feature","geometry":{"type":"Point","coordinates":[3.36309,49.66421]},"properties":{"nom":"LA FERE - COLLEGE MARIE DE LUXEMB","ag":["Réseau scolaire de l'Aisne (02)","Réseau interurbain - Aisne (02)"],"lt":0,"dept":"02"}},{"type":"Feature","geometry":{"type":"Point","coordinates":[3.29832,49.84094]},"properties":{"nom":"ST QUENTIN - GARE ROUTIERE","ag":["Réseau scolaire de l'Aisne (02)","Réseau interurbain - Aisne (02)"],"lt":0,"dept":"02"}},{"type":"Feature","geometry":{"type":"Point","coordinates":[3.50053,49.84253]},"properties":{"nom":"MONT D O. - ABRI","ag":["Réseau scolaire de l'Aisne (02)","Réseau interurbain - Aisne (02)"],"lt":0,"dept":"02"}},{"type":"Feature","geometry":{"type":"Point","coordinates":[3.62812,49.89813]},"properties":{"nom":"GUISE - ECOLE DU CENTRE","ag":["Réseau scolaire de l'Aisne (02)","Réseau interurbain - Aisne (02)"],"lt":0,"dept":"02"}},{"type":"Feature","geometry":{"type":"Point","coordinates":[3.62605,49.90242]},"properties":{"nom":"GUISE - JEANNE D'ARC","ag":["Réseau scolaire de l'Aisne (02)","Réseau interurbain - Aisne (02)"],"lt":0,"dept":"02"}},{"type":"Feature","geometry":{"type":"Point","coordinates":[3.6384,49.90415]},"properties":{"nom":"GUISE - LYCEE FRANCOISE DOLTO","ag":["Réseau scolaire de l'Aisne (02)","Réseau interurbain - Aisne (02)"],"lt":0,"dept":"02"}},{"type":"Feature","geometry":{"type":"Point","coordinates":[3.63514,49.9038]},"properties":{"nom":"GUISE - COLL. CAMILLE DESMOULINS","ag":["Réseau scolaire de l'Aisne (02)","Réseau interurbain - Aisne (02)"],"lt":0,"dept":"02"}},{"type":"Feature","geometry":{"type":"Point","coordinates":[3.49647,49.83648]},"properties":{"nom":"ORIGNY STE B. - ABRI ST GERMAIN","ag":["Réseau scolaire de l'Aisne (02)","Réseau interurbain - Aisne (02)"],"lt":0,"dept":"02"}},{"type":"Feature","geometry":{"type":"Point","coordinates":[3.62782,49.89853]},"properties":{"nom":"GUISE - PLACE LESUR","ag":["Réseau scolaire de l'Aisne (02)","Réseau interurbain - Aisne (02)"],"lt":0,"dept":"02"}},{"type":"Feature","geometry":{"type":"Point","coordinates":[3.30809,49.86291]},"properties":{"nom":"ST QUENTIN - LYCEE COLARD NOEL","ag":["Réseau scolaire de l'Aisne (02)","Réseau interurbain - Aisne (02)"],"lt":0,"dept":"02"}},{"type":"Feature","geometry":{"type":"Point","coordinates":[3.46297,49.73487]},"properties":{"nom":"RENANSART - ABRI FACE MAIRIE","ag":["Réseau scolaire de l'Aisne (02)","Réseau interurbain - Aisne (02)"],"lt":0,"dept":"02"}},{"type":"Feature","geometry":{"type":"Point","coordinates":[3.46555,49.75059]},"properties":{"nom":"SURFONTAINE - EGLISE","ag":["Réseau scolaire de l'Aisne (02)","Réseau interurbain - Aisne (02)"],"lt":0,"dept":"02"}},{"type":"Feature","geometry":{"type":"Point","coordinates":[3.46974,49.83224]},"properties":{"nom":"THENELLES -FACE ABRI EGLISE","ag":["Réseau scolaire de l'Aisne (02)","Réseau interurbain - Aisne (02)"],"lt":0,"dept":"02"}},{"type":"Feature","geometry":{"type":"Point","coordinates":[3.42882,49.82928]},"properties":{"nom":"REGNY - ABRI 1 RUE DE RIBEMONT","ag":["Réseau scolaire de l'Aisne (02)","Réseau interurbain - Aisne (02)"],"lt":0,"dept":"02"}},{"type":"Feature","geometry":{"type":"Point","coordinates":[3.30495,49.8545]},"properties":{"nom":"ST QUENTIN - RUE H.DUNANT","ag":["Réseau scolaire de l'Aisne (02)","Réseau interurbain - Aisne (02)"],"lt":0,"dept":"02"}},{"type":"Feature","geometry":{"type":"Point","coordinates":[3.33191,49.8256]},"properties":{"nom":"NEUVILLE ST A. - MAIRIE ECOLE","ag":["Réseau scolaire de l'Aisne (02)","Réseau interurbain - Aisne (02)"],"lt":0,"dept":"02"}},{"type":"Feature","geometry":{"type":"Point","coordinates":[3.47636,49.80851]},"properties":{"nom":"RIBEMONT - LUCY ABRI","ag":["Réseau scolaire de l'Aisne (02)","Réseau interurbain - Aisne (02)"],"lt":0,"dept":"02"}},{"type":"Feature","geometry":{"type":"Point","coordinates":[3.50049,49.84245]},"properties":{"nom":"MONT D O. - FACE ABRI","ag":["Réseau scolaire de l'Aisne (02)","Réseau interurbain - Aisne (02)"],"lt":0,"dept":"02"}},{"type":"Feature","geometry":{"type":"Point","coordinates":[3.46777,49.83009]},"properties":{"nom":"THENELLES - PLACE ABRI","ag":["Réseau scolaire de l'Aisne (02)","Réseau interurbain - Aisne (02)"],"lt":0,"dept":"02"}},{"type":"Feature","geometry":{"type":"Point","coordinates":[3.40417,49.85032]},"properties":{"nom":"MARCY - ABRI","ag":["Réseau scolaire de l'Aisne (02)","Réseau interurbain - Aisne (02)"],"lt":0,"dept":"02"}},{"type":"Feature","geometry":{"type":"Point","coordinates":[3.98713,49.70924]},"properties":{"nom":"CHAOURSE - MOULIN DE JEUNE","ag":["Réseau scolaire de l'Aisne (02)","Réseau interurbain - Aisne (02)"],"lt":0,"dept":"02"}},{"type":"Feature","geometry":{"type":"Point","coordinates":[3.97759,49.71324]},"properties":{"nom":"AGNICOURT ET S. - SECHELLES ABRI","ag":["Réseau scolaire de l'Aisne (02)","Réseau interurbain - Aisne (02)"],"lt":0,"dept":"02"}},{"type":"Feature","geometry":{"type":"Point","coordinates":[3.90952,49.7299]},"properties":{"nom":"TAVAUX ET P. - ABRI 1 R.DE MALAIS","ag":["Réseau scolaire de l'Aisne (02)","Réseau interurbain - Aisne (02)"],"lt":0,"dept":"02"}},{"type":"Feature","geometry":{"type":"Point","coordinates":[3.90782,49.72422]},"properties":{"nom":"TAVAUX ET P. - FACE ABRI EGL PONT","ag":["Réseau scolaire de l'Aisne (02)","Réseau interurbain - Aisne (02)"],"lt":0,"dept":"02"}},{"type":"Feature","geometry":{"type":"Point","coordinates":[3.91179,49.7061]},"properties":{"nom":"TAVAUX ET P. - X DE L'ESPERANCE","ag":["Réseau scolaire de l'Aisne (02)","Réseau interurbain - Aisne (02)"],"lt":0,"dept":"02"}},{"type":"Feature","geometry":{"type":"Point","coordinates":[3.87303,49.67313]},"properties":{"nom":"EBOULEAU - ARRET","ag":["Réseau scolaire de l'Aisne (02)","Réseau interurbain - Aisne (02)"],"lt":0,"dept":"02"}},{"type":"Feature","geometry":{"type":"Point","coordinates":[3.81499,49.68173]},"properties":{"nom":"CUIRIEUX - ABRI","ag":["Réseau scolaire de l'Aisne (02)","Réseau interurbain - Aisne (02)"],"lt":0,"dept":"02"}},{"type":"Feature","geometry":{"type":"Point","coordinates":[3.71448,49.61919]},"properties":{"nom":"MONCEAU LE W. - ABRI","ag":["Réseau scolaire de l'Aisne (02)","Réseau interurbain - Aisne (02)"],"lt":0,"dept":"02"}},{"type":"Feature","geometry":{"type":"Point","coordinates":[3.55484,49.89848]},"properties":{"nom":"NOYALES - PLACE ABRI","ag":["Réseau scolaire de l'Aisne (02)"],"lt":0,"dept":"02"}},{"type":"Feature","geometry":{"type":"Point","coordinates":[3.57319,49.91593]},"properties":{"nom":"VADENCOURT - BOHERIES ABRI","ag":["Réseau scolaire de l'Aisne (02)","Réseau interurbain - Aisne (02)"],"lt":0,"dept":"02"}},{"type":"Feature","geometry":{"type":"Point","coordinates":[3.63029,49.87441]},"properties":{"nom":"AUDIGNY - LA DESOLATION","ag":["Réseau scolaire de l'Aisne (02)","Réseau interurbain - Aisne (02)"],"lt":0,"dept":"02"}},{"type":"Feature","geometry":{"type":"Point","coordinates":[3.62173,49.56298]},"properties":{"nom":"LAON - INSTITUTION  LA PROVIDENCE","ag":["Réseau scolaire de l'Aisne (02)","Réseau interurbain - Aisne (02)"],"lt":0,"dept":"02"}},{"type":"Feature","geometry":{"type":"Point","coordinates":[3.64848,49.73099]},"properties":{"nom":"BOIS LES P. - ABRI RUE M. CARLIER","ag":["Réseau scolaire de l'Aisne (02)","Réseau interurbain - Aisne (02)"],"lt":0,"dept":"02"}},{"type":"Feature","geometry":{"type":"Point","coordinates":[3.55436,49.74056]},"properties":{"nom":"LA FERTE C. - ABRI RUE DE GUISE","ag":["Réseau scolaire de l'Aisne (02)","Réseau interurbain - Aisne (02)"],"lt":0,"dept":"02"}},{"type":"Feature","geometry":{"type":"Point","coordinates":[3.60548,49.81683]},"properties":{"nom":"LANDIFAY ET B. - ABRI RUE EGLISE","ag":["Réseau scolaire de l'Aisne (02)","Réseau interurbain - Aisne (02)"],"lt":0,"dept":"02"}},{"type":"Feature","geometry":{"type":"Point","coordinates":[3.67785,49.85317]},"properties":{"nom":"PUISIEUX ET C. - ABRI","ag":["Réseau scolaire de l'Aisne (02)","Réseau interurbain - Aisne (02)"],"lt":0,"dept":"02"}},{"type":"Feature","geometry":{"type":"Point","coordinates":[3.65501,49.64369]},"properties":{"nom":"BARENTON CEL - ARRET SCOLAIRE","ag":["Réseau scolaire de l'Aisne (02)","Réseau interurbain - Aisne (02)"],"lt":0,"dept":"02"}},{"type":"Feature","geometry":{"type":"Point","coordinates":[3.65069,49.63496]},"properties":{"nom":"BARENTON BUGNY - ARRET EGLISE","ag":["Réseau scolaire de l'Aisne (02)","Réseau interurbain - Aisne (02)"],"lt":0,"dept":"02"}},{"type":"Feature","geometry":{"type":"Point","coordinates":[3.58323,49.93806]},"properties":{"nom":"GRAND VERLY - ABRI","ag":["Réseau scolaire de l'Aisne (02)","Réseau interurbain - Aisne (02)"],"lt":0,"dept":"02"}},{"type":"Feature","geometry":{"type":"Point","coordinates":[3.55563,49.98524]},"properties":{"nom":"MENNEVRET - RTE DE WASSIGNY","ag":["Réseau scolaire de l'Aisne (02)","Réseau interurbain - Aisne (02)"],"lt":0,"dept":"02"}},{"type":"Feature","geometry":{"type":"Point","coordinates":[3.65483,49.98986]},"properties":{"nom":"ETREUX - ABRI S.POLYVA.","ag":["Réseau scolaire de l'Aisne (02)","Réseau interurbain - Aisne (02)"],"lt":0,"dept":"02"}},{"type":"Feature","geometry":{"type":"Point","coordinates":[3.54211,49.54878]},"properties":{"nom":"LANISCOURT - ABRI EGLISE","ag":["Réseau scolaire de l'Aisne (02)","Réseau interurbain - Aisne (02)"],"lt":0,"dept":"02"}},{"type":"Feature","geometry":{"type":"Point","coordinates":[3.46479,49.53481]},"properties":{"nom":"FAUCOUCOURT - MAIRIE","ag":["Réseau scolaire de l'Aisne (02)","Réseau interurbain - Aisne (02)"],"lt":0,"dept":"02"}},{"type":"Feature","geometry":{"type":"Point","coordinates":[3.46756,49.55045]},"properties":{"nom":"SUZY - ABRI","ag":["Réseau scolaire de l'Aisne (02)","Réseau interurbain - Aisne (02)"],"lt":0,"dept":"02"}},{"type":"Feature","geometry":{"type":"Point","coordinates":[3.41553,49.53883]},"properties":{"nom":"PREMONTRE - RUE DES CHASSEURS","ag":["Réseau scolaire de l'Aisne (02)","Réseau interurbain - Aisne (02)"],"lt":0,"dept":"02"}},{"type":"Feature","geometry":{"type":"Point","coordinates":[3.41166,49.54174]},"properties":{"nom":"PREMONTRE - ABRI SQUARE MAIRIE","ag":["Réseau scolaire de l'Aisne (02)","Réseau interurbain - Aisne (02)"],"lt":0,"dept":"02"}},{"type":"Feature","geometry":{"type":"Point","coordinates":[3.37941,49.59635]},"properties":{"nom":"ST GOBAIN - EC. MATERNELLE","ag":["Réseau scolaire de l'Aisne (02)","Réseau interurbain - Aisne (02)"],"lt":0,"dept":"02"}},{"type":"Feature","geometry":{"type":"Point","coordinates":[3.32783,49.57842]},"properties":{"nom":"BARISIS AUX B. - PLACE","ag":["Réseau scolaire de l'Aisne (02)","Réseau interurbain - Aisne (02)"],"lt":0,"dept":"02"}},{"type":"Feature","geometry":{"type":"Point","coordinates":[3.22385,49.61157]},"properties":{"nom":"CHAUNY - GARE SNCF","ag":["Réseau scolaire de l'Aisne (02)","Réseau interurbain - Aisne (02)"],"lt":0,"dept":"02"}},{"type":"Feature","geometry":{"type":"Point","coordinates":[3.21402,49.61692]},"properties":{"nom":"CHAUNY - PLACE BOUZIER","ag":["Réseau scolaire de l'Aisne (02)","Réseau interurbain - Aisne (02)"],"lt":0,"dept":"02"}},{"type":"Feature","geometry":{"type":"Point","coordinates":[3.49223,49.54179]},"properties":{"nom":"FAUCOUCOURT - FERME MANNEUX","ag":["Réseau scolaire de l'Aisne (02)","Réseau interurbain - Aisne (02)"],"lt":0,"dept":"02"}},{"type":"Feature","geometry":{"type":"Point","coordinates":[3.5554,49.55236]},"properties":{"nom":"CLACY ET T. - FERME DE THIERRET","ag":["Réseau scolaire de l'Aisne (02)"],"lt":0,"dept":"02"}},{"type":"Feature","geometry":{"type":"Point","coordinates":[3.61051,49.4712]},"properties":{"nom":"TRUCY - MAIRIE","ag":["Réseau scolaire de l'Aisne (02)","Réseau interurbain - Aisne (02)"],"lt":0,"dept":"02"}},{"type":"Feature","geometry":{"type":"Point","coordinates":[3.64021,49.47553]},"properties":{"nom":"COLLIGIS C. - COLLIGIS PLACE ABRI","ag":["Réseau scolaire de l'Aisne (02)","Réseau interurbain - Aisne (02)"],"lt":0,"dept":"02"}},{"type":"Feature","geometry":{"type":"Point","coordinates":[3.58149,49.5217]},"properties":{"nom":"ETOUVELLES - MAIRIE","ag":["Réseau scolaire de l'Aisne (02)","Réseau interurbain - Aisne (02)"],"lt":0,"dept":"02"}},{"type":"Feature","geometry":{"type":"Point","coordinates":[3.4567,49.98526]},"properties":{"nom":"BOHAIN EN V. - COLLEGE H. MATISSE","ag":["Réseau scolaire de l'Aisne (02)","Réseau interurbain - Aisne (02)"],"lt":0,"dept":"02"}},{"type":"Feature","geometry":{"type":"Point","coordinates":[3.45517,49.9881]},"properties":{"nom":"BOHAIN EN V. - ECOLE BERTHELOT","ag":["Réseau scolaire de l'Aisne (02)","Réseau interurbain - Aisne (02)"],"lt":0,"dept":"02"}},{"type":"Feature","geometry":{"type":"Point","coordinates":[3.45681,49.98911]},"properties":{"nom":"BOHAIN EN V. - EC.CHENE BRULE","ag":["Réseau scolaire de l'Aisne (02)","Réseau interurbain - Aisne (02)"],"lt":0,"dept":"02"}},{"type":"Feature","geometry":{"type":"Point","coordinates":[3.45014,49.98871]},"properties":{"nom":"BOHAIN EN V. - MAT ALAVOINE","ag":["Réseau scolaire de l'Aisne (02)","Réseau interurbain - Aisne (02)"],"lt":0,"dept":"02"}},{"type":"Feature","geometry":{"type":"Point","coordinates":[3.45364,49.98749]},"properties":{"nom":"BOHAIN EN V. - 24 RUE FAGARD","ag":["Réseau scolaire de l'Aisne (02)","Réseau interurbain - Aisne (02)"],"lt":0,"dept":"02"}},{"type":"Feature","geometry":{"type":"Point","coordinates":[3.44327,49.9881]},"properties":{"nom":"BOHAIN EN V. - ABRI GARE SNCF","ag":["Réseau scolaire de l'Aisne (02)","Réseau interurbain - Aisne (02)"],"lt":0,"dept":"02"}},{"type":"Feature","geometry":{"type":"Point","coordinates":[3.45871,49.98168]},"properties":{"nom":"BOHAIN EN V. - 30 RUE J. MOULIN","ag":["Réseau scolaire de l'Aisne (02)"],"lt":0,"dept":"02"}},{"type":"Feature","geometry":{"type":"Point","coordinates":[3.45202,49.6848]},"properties":{"nom":"COURBES - ABRI MAIRIE","ag":["Réseau scolaire de l'Aisne (02)","Réseau interurbain - Aisne (02)"],"lt":0,"dept":"02"}},{"type":"Feature","geometry":{"type":"Point","coordinates":[3.29564,49.74522]},"properties":{"nom":"HINACOURT - FACE ABRI","ag":["Réseau scolaire de l'Aisne (02)","Réseau interurbain - Aisne (02)"],"lt":0,"dept":"02"}},{"type":"Feature","geometry":{"type":"Point","coordinates":[3.32929,49.76069]},"properties":{"nom":"CERIZY - PLACE","ag":["Réseau scolaire de l'Aisne (02)","Réseau interurbain - Aisne (02)"],"lt":0,"dept":"02"}},{"type":"Feature","geometry":{"type":"Point","coordinates":[3.41834,49.51547]},"properties":{"nom":"BRANCOURT EN L. - EGLISE ABRI","ag":["Réseau scolaire de l'Aisne (02)","Réseau interurbain - Aisne (02)"],"lt":0,"dept":"02"}},{"type":"Feature","geometry":{"type":"Point","coordinates":[3.45248,49.50479]},"properties":{"nom":"ANIZY LE G. - ABRI COTE EGLISE","ag":["Réseau scolaire de l'Aisne (02)","Réseau interurbain - Aisne (02)"],"lt":0,"dept":"02"}},{"type":"Feature","geometry":{"type":"Point","coordinates":[3.44759,49.48799]},"properties":{"nom":"PINON - FACE ABRI PL. CH. DE GAUL","ag":["Réseau scolaire de l'Aisne (02)","Réseau interurbain - Aisne (02)"],"lt":0,"dept":"02"}},{"type":"Feature","geometry":{"type":"Point","coordinates":[3.42564,49.44891]},"properties":{"nom":"LAFFAUX - ABRI VILLAGE","ag":["Réseau scolaire de l'Aisne (02)","Réseau interurbain - Aisne (02)"],"lt":0,"dept":"02"}},{"type":"Feature","geometry":{"type":"Point","coordinates":[3.90949,49.834]},"properties":{"nom":"VERVINS - PLACE DU PALAIS","ag":["Réseau scolaire de l'Aisne (02)"],"lt":0,"dept":"02"}},{"type":"Feature","geometry":{"type":"Point","coordinates":[3.78145,49.8543]},"properties":{"nom":"LA VALLEE A. - ABRI PLACE HLM","ag":["Réseau scolaire de l'Aisne (02)","Réseau interurbain - Aisne (02)"],"lt":0,"dept":"02"}},{"type":"Feature","geometry":{"type":"Point","coordinates":[4.03497,49.83064]},"properties":{"nom":"PLOMION - LA NIGAUDIERE","ag":["Réseau scolaire de l'Aisne (02)","Réseau interurbain - Aisne (02)"],"lt":0,"dept":"02"}},{"type":"Feature","geometry":{"type":"Point","coordinates":[4.01771,49.89527]},"properties":{"nom":"ORIGNY EN T. - FACE ABRI MAIRIE","ag":["Réseau scolaire de l'Aisne (02)","Réseau interurbain - Aisne (02)"],"lt":0,"dept":"02"}},{"type":"Feature","geometry":{"type":"Point","coordinates":[3.97081,49.96574]},"properties":{"nom":"CLAIRFONTAINE - R. PARIS ANC.GARE","ag":["Réseau scolaire de l'Aisne (02)","Réseau interurbain - Aisne (02)"],"lt":0,"dept":"02"}},{"type":"Feature","geometry":{"type":"Point","coordinates":[3.92094,49.97481]},"properties":{"nom":"LA CAPELLE - COLLEGE","ag":["Réseau scolaire de l'Aisne (02)","Réseau interurbain - Aisne (02)"],"lt":0,"dept":"02"}},{"type":"Feature","geometry":{"type":"Point","coordinates":[3.77898,49.9822]},"properties":{"nom":"ESQUEHERIES - LE GRAND WEZ ABRI","ag":["Réseau scolaire de l'Aisne (02)","Réseau interurbain - Aisne (02)"],"lt":0,"dept":"02"}},{"type":"Feature","geometry":{"type":"Point","coordinates":[3.90531,49.944]},"properties":{"nom":"FROIDESTREES - FACE ABRI 32 RN2","ag":["Réseau scolaire de l'Aisne (02)"],"lt":0,"dept":"02"}},{"type":"Feature","geometry":{"type":"Point","coordinates":[3.66392,49.99691]},"properties":{"nom":"ETREUX - FACE ABRI C. DE GAULLE","ag":["Réseau scolaire de l'Aisne (02)","Réseau interurbain - Aisne (02)"],"lt":0,"dept":"02"}},{"type":"Feature","geometry":{"type":"Point","coordinates":[3.65416,49.99192]},"properties":{"nom":"ETREUX - FACE COOP AGRI.","ag":["Réseau scolaire de l'Aisne (02)","Réseau interurbain - Aisne (02)"],"lt":0,"dept":"02"}},{"type":"Feature","geometry":{"type":"Point","coordinates":[3.63862,49.98432]},"properties":{"nom":"VENEROLLES - ABRI","ag":["Réseau scolaire de l'Aisne (02)","Réseau interurbain - Aisne (02)"],"lt":0,"dept":"02"}},{"type":"Feature","geometry":{"type":"Point","coordinates":[3.62506,49.97338]},"properties":{"nom":"HANNAPES - ABRI X D27/D66","ag":["Réseau scolaire de l'Aisne (02)","Réseau interurbain - Aisne (02)"],"lt":0,"dept":"02"}},{"type":"Feature","geometry":{"type":"Point","coordinates":[3.45843,49.98579]},"properties":{"nom":"BOHAIN EN V. - PLACE THIERS","ag":["Réseau scolaire de l'Aisne (02)"],"lt":0,"dept":"02"}},{"type":"Feature","geometry":{"type":"Point","coordinates":[3.60666,49.95736]},"properties":{"nom":"TUPIGNY - CAFE","ag":["Réseau scolaire de l'Aisne (02)","Réseau interurbain - Aisne (02)"],"lt":0,"dept":"02"}},{"type":"Feature","geometry":{"type":"Point","coordinates":[3.55531,49.98383]},"properties":{"nom":"MENNEVRET - ABRI EGLISE","ag":["Réseau scolaire de l'Aisne (02)","Réseau interurbain - Aisne (02)"],"lt":0,"dept":"02"}},{"type":"Feature","geometry":{"type":"Point","coordinates":[3.47482,49.90533]},"properties":{"nom":"MONTIGNY EN A. - VILLAGE ABRI","ag":["Réseau scolaire de l'Aisne (02)","Réseau interurbain - Aisne (02)"],"lt":0,"dept":"02"}},{"type":"Feature","geometry":{"type":"Point","coordinates":[3.90091,49.40357]},"properties":{"nom":"BERRY AU B. - ABRI ECOLE","ag":["Réseau scolaire de l'Aisne (02)"],"lt":0,"dept":"02"}},{"type":"Feature","geometry":{"type":"Point","coordinates":[3.73971,49.3939]},"properties":{"nom":"BEAURIEUX - PL. FRANCOIS 1ER","ag":["Réseau scolaire de l'Aisne (02)","Réseau interurbain - Aisne (02)"],"lt":0,"dept":"02"}},{"type":"Feature","geometry":{"type":"Point","coordinates":[3.56464,49.91649]},"properties":{"nom":"VADENCOURT - LONGCHAMPS ABRI","ag":["Réseau scolaire de l'Aisne (02)","Réseau interurbain - Aisne (02)"],"lt":0,"dept":"02"}},{"type":"Feature","geometry":{"type":"Point","coordinates":[3.50358,49.07516]},"properties":{"nom":"CHARTEVES - FACE ABRI","ag":["Réseau scolaire de l'Aisne (02)","Réseau interurbain - Aisne (02)"],"lt":0,"dept":"02"}},{"type":"Feature","geometry":{"type":"Point","coordinates":[3.48865,49.07475]},"properties":{"nom":"MONT ST P. - ABRI DEMI LUNE","ag":["Réseau scolaire de l'Aisne (02)"],"lt":0,"dept":"02"}},{"type":"Feature","geometry":{"type":"Point","coordinates":[3.4512,49.04622]},"properties":{"nom":"GLAND - FRAICHE FONTAINE","ag":["Réseau scolaire de l'Aisne (02)","Réseau interurbain - Aisne (02)"],"lt":0,"dept":"02"}},{"type":"Feature","geometry":{"type":"Point","coordinates":[3.42663,49.04788]},"properties":{"nom":"BRASLES - MAIRIE","ag":["Réseau scolaire de l'Aisne (02)","Réseau interurbain - Aisne (02)"],"lt":0,"dept":"02"}},{"type":"Feature","geometry":{"type":"Point","coordinates":[3.55159,49.08685]},"properties":{"nom":"BARZY S/ M. - ABRI","ag":["Réseau scolaire de l'Aisne (02)","Réseau interurbain - Aisne (02)"],"lt":0,"dept":"02"}},{"type":"Feature","geometry":{"type":"Point","coordinates":[3.53576,49.08824]},"properties":{"nom":"JAULGONNE - ABRI PLACE DU PUITS","ag":["Réseau scolaire de l'Aisne (02)","Réseau interurbain - Aisne (02)"],"lt":0,"dept":"02"}},{"type":"Feature","geometry":{"type":"Point","coordinates":[3.40256,49.04274]},"properties":{"nom":"CHATEAU T. - PLACE VICTOR HUGO","ag":["Réseau scolaire de l'Aisne (02)","Réseau interurbain - Aisne (02)"],"lt":0,"dept":"02"}},{"type":"Feature","geometry":{"type":"Point","coordinates":[3.40469,49.04059]},"properties":{"nom":"CHATEAU T. - PLACE PAUL DOUMER","ag":["Réseau scolaire de l'Aisne (02)","Réseau interurbain - Aisne (02)"],"lt":0,"dept":"02"}},{"type":"Feature","geometry":{"type":"Point","coordinates":[3.48233,49.06944]},"properties":{"nom":"MONT ST P. - ECLUSE","ag":["Réseau scolaire de l'Aisne (02)","Réseau interurbain - Aisne (02)"],"lt":0,"dept":"02"}},{"type":"Feature","geometry":{"type":"Point","coordinates":[3.4649,49.3621]},"properties":{"nom":"CIRY SALSOGNE - ECOLES","ag":["Réseau scolaire de l'Aisne (02)","Réseau interurbain - Aisne (02)"],"lt":0,"dept":"02"}},{"type":"Feature","geometry":{"type":"Point","coordinates":[3.45184,49.37387]},"properties":{"nom":"SERMOISE - EGLISE","ag":["Réseau scolaire de l'Aisne (02)","Réseau interurbain - Aisne (02)"],"lt":0,"dept":"02"}},{"type":"Feature","geometry":{"type":"Point","coordinates":[3.51346,49.33826]},"properties":{"nom":"AUGY - VILLAGE ABRI","ag":["Réseau scolaire de l'Aisne (02)","Réseau interurbain - Aisne (02)"],"lt":0,"dept":"02"}},{"type":"Feature","geometry":{"type":"Point","coordinates":[3.61828,49.30666]},"properties":{"nom":"BAZOCHES S/ V. - PLACE","ag":["Réseau scolaire de l'Aisne (02)","Réseau interurbain - Aisne (02)"],"lt":0,"dept":"02"}},{"type":"Feature","geometry":{"type":"Point","coordinates":[4.19444,49.90353]},"properties":{"nom":"WATIGNY - PLACE ABRI","ag":["Réseau scolaire de l'Aisne (02)","Réseau interurbain - Aisne (02)"],"lt":0,"dept":"02"}},{"type":"Feature","geometry":{"type":"Point","coordinates":[4.12817,49.91764]},"properties":{"nom":"ST MICHEL - COQ HARDI ABRI","ag":["Réseau scolaire de l'Aisne (02)","Réseau interurbain - Aisne (02)"],"lt":0,"dept":"02"}},{"type":"Feature","geometry":{"type":"Point","coordinates":[4.1144,49.9148]},"properties":{"nom":"ST MICHEL - ALOUETTE ABRI","ag":["Réseau scolaire de l'Aisne (02)","Réseau interurbain - Aisne (02)"],"lt":0,"dept":"02"}},{"type":"Feature","geometry":{"type":"Point","coordinates":[4.21119,49.8278]},"properties":{"nom":"LOGNY LES A. - MAIRIE ABRI","ag":["Réseau scolaire de l'Aisne (02)"],"lt":0,"dept":"02"}},{"type":"Feature","geometry":{"type":"Point","coordinates":[4.16147,49.85173]},"properties":{"nom":"LEUZE - ECOLE","ag":["Réseau scolaire de l'Aisne (02)"],"lt":0,"dept":"02"}},{"type":"Feature","geometry":{"type":"Point","coordinates":[4.13766,49.85969]},"properties":{"nom":"MARTIGNY - PLACE DU GAL.DE GAULLE","ag":["Réseau scolaire de l'Aisne (02)"],"lt":0,"dept":"02"}},{"type":"Feature","geometry":{"type":"Point","coordinates":[3.99495,49.69893]},"properties":{"nom":"CHAOURSE - ABRI RUE DES CHENES","ag":["Réseau scolaire de l'Aisne (02)","Réseau interurbain - Aisne (02)"],"lt":0,"dept":"02"}},{"type":"Feature","geometry":{"type":"Point","coordinates":[3.95833,49.72371]},"properties":{"nom":"AGNICOURT ET S. - X RUE MORENZY","ag":["Réseau scolaire de l'Aisne (02)","Réseau interurbain - Aisne (02)"],"lt":0,"dept":"02"}},{"type":"Feature","geometry":{"type":"Point","coordinates":[3.88051,49.72359]},"properties":{"nom":"ST PIERREMONT - ABRI","ag":["Réseau scolaire de l'Aisne (02)","Réseau interurbain - Aisne (02)"],"lt":0,"dept":"02"}},{"type":"Feature","geometry":{"type":"Point","coordinates":[3.85823,49.73147]},"properties":{"nom":"BOSMONT S/ S. - PLACE","ag":["Réseau scolaire de l'Aisne (02)","Réseau interurbain - Aisne (02)"],"lt":0,"dept":"02"}},{"type":"Feature","geometry":{"type":"Point","coordinates":[3.79123,49.74777]},"properties":{"nom":"MONTIGNY /S M. -FACE ABRI PL VERD","ag":["Réseau scolaire de l'Aisne (02)","Réseau interurbain - Aisne (02)"],"lt":0,"dept":"02"}},{"type":"Feature","geometry":{"type":"Point","coordinates":[3.68446,49.75977]},"properties":{"nom":"CHATILLON LES S-ABRI 7 RUE EGLISE","ag":["Réseau scolaire de l'Aisne (02)","Réseau interurbain - Aisne (02)"],"lt":0,"dept":"02"}},{"type":"Feature","geometry":{"type":"Point","coordinates":[3.54297,49.78817]},"properties":{"nom":"PARPEVILLE - ABRI BAS HAUT","ag":["Réseau scolaire de l'Aisne (02)","Réseau interurbain - Aisne (02)"],"lt":0,"dept":"02"}},{"type":"Feature","geometry":{"type":"Point","coordinates":[3.52989,49.79268]},"properties":{"nom":"PLEINE SELVE - RUE DES BATISSEURS","ag":["Réseau scolaire de l'Aisne (02)","Réseau interurbain - Aisne (02)"],"lt":0,"dept":"02"}},{"type":"Feature","geometry":{"type":"Point","coordinates":[3.52544,49.79091]},"properties":{"nom":"PLEINE SELVE - ABRI GRAND COURT","ag":["Réseau scolaire de l'Aisne (02)","Réseau interurbain - Aisne (02)"],"lt":0,"dept":"02"}},{"type":"Feature","geometry":{"type":"Point","coordinates":[3.90802,49.61841]},"properties":{"nom":"STE PREUVE - FACE N°1 JARDINS","ag":["Réseau scolaire de l'Aisne (02)","Réseau interurbain - Aisne (02)"],"lt":0,"dept":"02"}},{"type":"Feature","geometry":{"type":"Point","coordinates":[3.48775,49.1394]},"properties":{"nom":"BEUVARDES - ABRI PLACE","ag":["Réseau scolaire de l'Aisne (02)","Réseau interurbain - Aisne (02)"],"lt":0,"dept":"02"}},{"type":"Feature","geometry":{"type":"Point","coordinates":[3.4853,49.13458]},"properties":{"nom":"BEUVARDES - LES TILLEULS","ag":["Réseau scolaire de l'Aisne (02)","Réseau interurbain - Aisne (02)"],"lt":0,"dept":"02"}},{"type":"Feature","geometry":{"type":"Point","coordinates":[3.41826,49.06714]},"properties":{"nom":"VERDILLY - AUX COUPETTES","ag":["Réseau scolaire de l'Aisne (02)","Réseau interurbain - Aisne (02)"],"lt":0,"dept":"02"}},{"type":"Feature","geometry":{"type":"Point","coordinates":[3.42192,49.05601]},"properties":{"nom":"BRASLES - BRIQUETTERIE","ag":["Réseau scolaire de l'Aisne (02)","Réseau interurbain - Aisne (02)"],"lt":0,"dept":"02"}},{"type":"Feature","geometry":{"type":"Point","coordinates":[3.44908,49.2836]},"properties":{"nom":"MAAST ET V. - MAAST ABRI","ag":["Réseau scolaire de l'Aisne (02)"],"lt":0,"dept":"02"}},{"type":"Feature","geometry":{"type":"Point","coordinates":[3.4239,49.07246]},"properties":{"nom":"VERDILLY - PL. DE LA MAIRIE","ag":["Réseau scolaire de l'Aisne (02)","Réseau interurbain - Aisne (02)"],"lt":0,"dept":"02"}},{"type":"Feature","geometry":{"type":"Point","coordinates":[3.3798,49.74641]},"properties":{"nom":"BRISSY H. - ABRI HAMEGICOURT","ag":["Réseau scolaire de l'Aisne (02)","Réseau interurbain - Aisne (02)"],"lt":0,"dept":"02"}},{"type":"Feature","geometry":{"type":"Point","coordinates":[3.37529,49.76554]},"properties":{"nom":"ALAINCOURT - PLACE ABRI","ag":["Réseau scolaire de l'Aisne (02)","Réseau interurbain - Aisne (02)"],"lt":0,"dept":"02"}},{"type":"Feature","geometry":{"type":"Point","coordinates":[3.38054,49.77249]},"properties":{"nom":"BERTHENICOURT - ABRI","ag":["Réseau scolaire de l'Aisne (02)","Réseau interurbain - Aisne (02)"],"lt":0,"dept":"02"}},{"type":"Feature","geometry":{"type":"Point","coordinates":[3.39017,49.77892]},"properties":{"nom":"MEZIERES S/ O. - GARE","ag":["Réseau scolaire de l'Aisne (02)","Réseau interurbain - Aisne (02)"],"lt":0,"dept":"02"}},{"type":"Feature","geometry":{"type":"Point","coordinates":[3.46136,49.19954]},"properties":{"nom":"BRUYERES S/ F. - TRUGNY","ag":["Réseau scolaire de l'Aisne (02)"],"lt":0,"dept":"02"}},{"type":"Feature","geometry":{"type":"Point","coordinates":[3.45295,49.22991]},"properties":{"nom":"CRAMAILLE - PLACE MAIRIE","ag":["Réseau scolaire de l'Aisne (02)","Réseau interurbain - Aisne (02)"],"lt":0,"dept":"02"}},{"type":"Feature","geometry":{"type":"Point","coordinates":[3.46374,49.25275]},"properties":{"nom":"ARCY STE R. - PLACE ABRI","ag":["Réseau scolaire de l'Aisne (02)","Réseau interurbain - Aisne (02)"],"lt":0,"dept":"02"}},{"type":"Feature","geometry":{"type":"Point","coordinates":[3.48061,49.24054]},"properties":{"nom":"ARCY STE R. - RUGNY ABRI","ag":["Réseau scolaire de l'Aisne (02)"],"lt":0,"dept":"02"}},{"type":"Feature","geometry":{"type":"Point","coordinates":[3.4797,49.21458]},"properties":{"nom":"SAPONAY - ABRI PLACE","ag":["Réseau scolaire de l'Aisne (02)"],"lt":0,"dept":"02"}},{"type":"Feature","geometry":{"type":"Point","coordinates":[3.55672,49.24029]},"properties":{"nom":"MAREUIL EN D. - ABRI","ag":["Réseau scolaire de l'Aisne (02)"],"lt":0,"dept":"02"}},{"type":"Feature","geometry":{"type":"Point","coordinates":[3.64054,49.2133]},"properties":{"nom":"COULONGES C. - COHAN ABRI","ag":["Réseau scolaire de l'Aisne (02)"],"lt":0,"dept":"02"}},{"type":"Feature","geometry":{"type":"Point","coordinates":[3.53393,49.18288]},"properties":{"nom":"VILLERS S/ F. - PLACE ABRI","ag":["Réseau scolaire de l'Aisne (02)","Réseau interurbain - Aisne (02)"],"lt":0,"dept":"02"}},{"type":"Feature","geometry":{"type":"Point","coordinates":[3.41188,49.02454]},"properties":{"nom":"NESLES LA M. - NESLES NOUVEAU","ag":["Réseau scolaire de l'Aisne (02)"],"lt":0,"dept":"02"}},{"type":"Feature","geometry":{"type":"Point","coordinates":[4.00929,49.46492]},"properties":{"nom":"PROVISEUX ET P. - MAIRIE","ag":["Réseau scolaire de l'Aisne (02)","Réseau interurbain - Aisne (02)"],"lt":0,"dept":"02"}},{"type":"Feature","geometry":{"type":"Point","coordinates":[3.97575,49.46335]},"properties":{"nom":"PROUVAIS - ABRI","ag":["Réseau scolaire de l'Aisne (02)","Réseau interurbain - Aisne (02)"],"lt":0,"dept":"02"}},{"type":"Feature","geometry":{"type":"Point","coordinates":[3.96181,49.43516]},"properties":{"nom":"VILLENEUVE S/A - GARE SNCF","ag":["Réseau scolaire de l'Aisne (02)","Réseau interurbain - Aisne (02)"],"lt":0,"dept":"02"}},{"type":"Feature","geometry":{"type":"Point","coordinates":[4.04143,49.44276]},"properties":{"nom":"EVERGNICOURT - ABRI MAIRIE","ag":["Réseau scolaire de l'Aisne (02)","Réseau interurbain - Aisne (02)"],"lt":0,"dept":"02"}},{"type":"Feature","geometry":{"type":"Point","coordinates":[3.9334,49.78575]},"properties":{"nom":"HARY - PLACE","ag":["Réseau scolaire de l'Aisne (02)"],"lt":0,"dept":"02"}},{"type":"Feature","geometry":{"type":"Point","coordinates":[3.77415,49.55581]},"properties":{"nom":"COUCY LES E. - ABRI GARE","ag":["Réseau scolaire de l'Aisne (02)","Réseau interurbain - Aisne (02)"],"lt":0,"dept":"02"}},{"type":"Feature","geometry":{"type":"Point","coordinates":[3.90807,49.83531]},"properties":{"nom":"VERVINS - PLACE SOHIER","ag":["Réseau scolaire de l'Aisne (02)","Réseau interurbain - Aisne (02)"],"lt":0,"dept":"02"}},{"type":"Feature","geometry":{"type":"Point","coordinates":[4.23659,49.88019]},"properties":{"nom":"ANY MARTIN R. - MARTIN RIEUX ABRI","ag":["Réseau scolaire de l'Aisne (02)","Réseau interurbain - Aisne (02)"],"lt":0,"dept":"02"}},{"type":"Feature","geometry":{"type":"Point","coordinates":[4.22088,49.88111]},"properties":{"nom":"ANY MARTIN R. - ANY ABRI","ag":["Réseau scolaire de l'Aisne (02)","Réseau interurbain - Aisne (02)"],"lt":0,"dept":"02"}},{"type":"Feature","geometry":{"type":"Point","coordinates":[3.98566,49.41682]},"properties":{"nom":"VARISCOURT - MAIRIE","ag":["Réseau scolaire de l'Aisne (02)","Réseau interurbain - Aisne (02)"],"lt":0,"dept":"02"}},{"type":"Feature","geometry":{"type":"Point","coordinates":[3.95085,49.41974]},"properties":{"nom":"CONDE S/ S. - PLACE MAIRIE","ag":["Réseau scolaire de l'Aisne (02)","Réseau interurbain - Aisne (02)"],"lt":0,"dept":"02"}},{"type":"Feature","geometry":{"type":"Point","coordinates":[3.95925,49.42601]},"properties":{"nom":"CONDE S/ S. - SUCRERIE","ag":["Réseau scolaire de l'Aisne (02)","Réseau interurbain - Aisne (02)"],"lt":0,"dept":"02"}},{"type":"Feature","geometry":{"type":"Point","coordinates":[4.00693,49.41929]},"properties":{"nom":"MENNEVILLE - ABRI","ag":["Réseau scolaire de l'Aisne (02)","Réseau interurbain - Aisne (02)"],"lt":0,"dept":"02"}},{"type":"Feature","geometry":{"type":"Point","coordinates":[3.96547,49.43775]},"properties":{"nom":"VILLENEUVE S/A - PLACE DU MARCHE","ag":["Réseau scolaire de l'Aisne (02)","Réseau interurbain - Aisne (02)"],"lt":0,"dept":"02"}},{"type":"Feature","geometry":{"type":"Point","coordinates":[3.28913,49.18763]},"properties":{"nom":"VICHEL N. - ABRI","ag":["Réseau scolaire de l'Aisne (02)","Réseau interurbain - Aisne (02)"],"lt":0,"dept":"02"}},{"type":"Feature","geometry":{"type":"Point","coordinates":[3.31309,49.18754]},"properties":{"nom":"VICHEL N. - NANTEUIL","ag":["Réseau scolaire de l'Aisne (02)","Réseau interurbain - Aisne (02)"],"lt":0,"dept":"02"}},{"type":"Feature","geometry":{"type":"Point","coordinates":[3.30194,49.21596]},"properties":{"nom":"BILLY S/ O. - RUE DU VIVIER","ag":["Réseau scolaire de l'Aisne (02)"],"lt":0,"dept":"02"}},{"type":"Feature","geometry":{"type":"Point","coordinates":[3.31003,49.24096]},"properties":{"nom":"ST REMY B. - FACE ABRI PLACE","ag":["Réseau scolaire de l'Aisne (02)","Réseau interurbain - Aisne (02)"],"lt":0,"dept":"02"}},{"type":"Feature","geometry":{"type":"Point","coordinates":[3.38406,49.23424]},"properties":{"nom":"GRAND ROZOY - MAIRIE","ag":["Réseau scolaire de l'Aisne (02)","Réseau interurbain - Aisne (02)"],"lt":0,"dept":"02"}},{"type":"Feature","geometry":{"type":"Point","coordinates":[3.53929,49.72361]},"properties":{"nom":"LA FERTE C. - CHEVRESIS LES D.","ag":["Réseau scolaire de l'Aisne (02)","Réseau interurbain - Aisne (02)"],"lt":0,"dept":"02"}},{"type":"Feature","geometry":{"type":"Point","coordinates":[3.37792,49.5695]},"properties":{"nom":"SEPTVAUX - MAIRIE","ag":["Réseau scolaire de l'Aisne (02)","Réseau interurbain - Aisne (02)"],"lt":0,"dept":"02"}},{"type":"Feature","geometry":{"type":"Point","coordinates":[3.48444,49.456]},"properties":{"nom":"VAUDESSON - VAURAINS ABRI","ag":["Réseau scolaire de l'Aisne (02)","Réseau interurbain - Aisne (02)"],"lt":0,"dept":"02"}},{"type":"Feature","geometry":{"type":"Point","coordinates":[3.69321,50.00658]},"properties":{"nom":"BOUE - RUE DE LA NATION","ag":["Réseau scolaire de l'Aisne (02)","Réseau interurbain - Aisne (02)"],"lt":0,"dept":"02"}},{"type":"Feature","geometry":{"type":"Point","coordinates":[3.51364,49.93072]},"properties":{"nom":"AISONVILLE ET B - BERNOVILLE ABRI","ag":["Réseau scolaire de l'Aisne (02)","Réseau interurbain - Aisne (02)"],"lt":0,"dept":"02"}},{"type":"Feature","geometry":{"type":"Point","coordinates":[3.51905,48.96745]},"properties":{"nom":"MONTLEVON - AUCLAINE","ag":["Réseau scolaire de l'Aisne (02)"],"lt":0,"dept":"02"}},{"type":"Feature","geometry":{"type":"Point","coordinates":[3.76891,49.91774]},"properties":{"nom":"CHIGNY - HAUT ABRI","ag":["Réseau scolaire de l'Aisne (02)","Réseau interurbain - Aisne (02)"],"lt":0,"dept":"02"}},{"type":"Feature","geometry":{"type":"Point","coordinates":[3.77532,49.91359]},"properties":{"nom":"CHIGNY - BAS ABRI","ag":["Réseau scolaire de l'Aisne (02)","Réseau interurbain - Aisne (02)"],"lt":0,"dept":"02"}},{"type":"Feature","geometry":{"type":"Point","coordinates":[3.77469,49.89919]},"properties":{"nom":"MARLY GOMONT - ABRI PLACE GOMONT","ag":["Réseau scolaire de l'Aisne (02)","Réseau interurbain - Aisne (02)"],"lt":0,"dept":"02"}},{"type":"Feature","geometry":{"type":"Point","coordinates":[3.71214,49.89322]},"properties":{"nom":"WIEGE FATY - FATY ABRI","ag":["Réseau scolaire de l'Aisne (02)","Réseau interurbain - Aisne (02)"],"lt":0,"dept":"02"}},{"type":"Feature","geometry":{"type":"Point","coordinates":[3.72582,49.46959]},"properties":{"nom":"CHERMIZY A. - ABRI MAIRIE","ag":["Réseau scolaire de l'Aisne (02)","Réseau interurbain - Aisne (02)"],"lt":0,"dept":"02"}},{"type":"Feature","geometry":{"type":"Point","coordinates":[3.72044,49.50508]},"properties":{"nom":"MONTCHALONS - BOIS DE LA TOMBE","ag":["Réseau scolaire de l'Aisne (02)","Réseau interurbain - Aisne (02)"],"lt":0,"dept":"02"}},{"type":"Feature","geometry":{"type":"Point","coordinates":[3.4609,49.11629]},"properties":{"nom":"EPIEDS - COURPOIL","ag":["Réseau scolaire de l'Aisne (02)","Réseau interurbain - Aisne (02)"],"lt":0,"dept":"02"}},{"type":"Feature","geometry":{"type":"Point","coordinates":[3.5026,49.17689]},"properties":{"nom":"FERE EN T. - VILLEMOYENNE","ag":["Réseau scolaire de l'Aisne (02)","Réseau interurbain - Aisne (02)"],"lt":0,"dept":"02"}},{"type":"Feature","geometry":{"type":"Point","coordinates":[3.8191,49.40742]},"properties":{"nom":"PONTAVERT - ABRI","ag":["Réseau scolaire de l'Aisne (02)","Réseau interurbain - Aisne (02)"],"lt":0,"dept":"02"}},{"type":"Feature","geometry":{"type":"Point","coordinates":[3.57608,49.14949]},