{"type":"FeatureCollection","features":[{"type":"Feature","geometry":{"type":"Point","coordinates":[5.97952,44.79226]},"properties":{"nom":"Le Motty","ag":["Agrégat des réseaux urbains et interurbains d'Auvergne-Rhône-Alpes","Réseau interurbain - Isère (38)"],"lt":0,"dept":"05"}},{"type":"Feature","geometry":{"type":"Point","coordinates":[5.97967,44.79231]},"properties":{"nom":"Le Motty","ag":["Agrégat des réseaux urbains et interurbains d'Auvergne-Rhône-Alpes","Réseau interurbain - Isère (38)"],"lt":0,"dept":"05"}},{"type":"Feature","geometry":{"type":"Point","coordinates":[5.97491,44.79872]},"properties":{"nom":"RN85","ag":["Agrégat des réseaux urbains et interurbains d'Auvergne-Rhône-Alpes","Réseau interurbain - Isère (38)"],"lt":0,"dept":"05"}},{"type":"Feature","geometry":{"type":"Point","coordinates":[5.97463,44.79862]},"properties":{"nom":"RN85","ag":["Agrégat des réseaux urbains et interurbains d'Auvergne-Rhône-Alpes","Réseau interurbain - Isère (38)"],"lt":0,"dept":"05"}},{"type":"Feature","geometry":{"type":"Point","coordinates":[5.73377,44.26258]},"properties":{"nom":"Village","ag":["Agrégat des réseaux urbains et interurbains d'Auvergne-Rhône-Alpes","Réseau interurbain et scolaire - Drôme (26)"],"lt":0,"dept":"05"}},{"type":"Feature","geometry":{"type":"Point","coordinates":[5.75766,44.26697]},"properties":{"nom":"Le Pont","ag":["Agrégat des réseaux urbains et interurbains d'Auvergne-Rhône-Alpes","Réseau interurbain et scolaire - Drôme (26)"],"lt":0,"dept":"05"}},{"type":"Feature","geometry":{"type":"Point","coordinates":[5.5417,44.45063]},"properties":{"nom":"Village","ag":["Agrégat des réseaux urbains et interurbains d'Auvergne-Rhône-Alpes","Réseau interurbain et scolaire - Drôme (26)"],"lt":0,"dept":"05"}},{"type":"Feature","geometry":{"type":"Point","coordinates":[5.51476,44.46751]},"properties":{"nom":"Village","ag":["Agrégat des réseaux urbains et interurbains d'Auvergne-Rhône-Alpes","Réseau interurbain et scolaire - Drôme (26)"],"lt":0,"dept":"05"}},{"type":"Feature","geometry":{"type":"Point","coordinates":[5.47573,44.46616]},"properties":{"nom":"Village","ag":["Agrégat des réseaux urbains et interurbains d'Auvergne-Rhône-Alpes","Réseau interurbain et scolaire - Drôme (26)"],"lt":0,"dept":"05"}},{"type":"Feature","geometry":{"type":"Point","coordinates":[6.0088,44.75237]},"properties":{"nom":"Chauffayer Village","ag":["Agrégat des réseaux urbains et interurbains d'Auvergne-Rhône-Alpes","Réseau interurbain - Isère (38)"],"lt":0,"dept":"05"}},{"type":"Feature","geometry":{"type":"Point","coordinates":[6.0087,44.75237]},"properties":{"nom":"Chauffayer Village","ag":["Agrégat des réseaux urbains et interurbains d'Auvergne-Rhône-Alpes","Réseau interurbain - Isère (38)"],"lt":0,"dept":"05"}},{"type":"Feature","geometry":{"type":"Point","coordinates":[6.07288,44.67432]},"properties":{"nom":"Les Barraques - Intermarché","ag":["Agrégat des réseaux urbains et interurbains d'Auvergne-Rhône-Alpes","Réseau interurbain - Isère (38)"],"lt":0,"dept":"05"}},{"type":"Feature","geometry":{"type":"Point","coordinates":[6.07313,44.67435]},"properties":{"nom":"Les Barraques - Intermarché","ag":["Agrégat des réseaux urbains et interurbains d'Auvergne-Rhône-Alpes","Réseau interurbain - Isère (38)"],"lt":0,"dept":"05"}},{"type":"Feature","geometry":{"type":"Point","coordinates":[5.74058,44.56702]},"properties":{"nom":"Village","ag":["Agrégat des réseaux urbains et interurbains d'Auvergne-Rhône-Alpes","Réseau interurbain et scolaire - Drôme (26)"],"lt":0,"dept":"05"}},{"type":"Feature","geometry":{"type":"Point","coordinates":[6.08569,44.5636]},"properties":{"nom":"Gare SNCF","ag":["Agrégat des réseaux urbains et interurbains d'Auvergne-Rhône-Alpes","Réseau interurbain - Isère (38)"],"lt":0,"dept":"05"}},{"type":"Feature","geometry":{"type":"Point","coordinates":[6.08564,44.56357]},"properties":{"nom":"Gare SNCF","ag":["Agrégat des réseaux urbains et interurbains d'Auvergne-Rhône-Alpes","Réseau interurbain - Isère (38)"],"lt":0,"dept":"05"}},{"type":"Feature","geometry":{"type":"Point","coordinates":[6.08334,44.56904]},"properties":{"nom":"Rochasson","ag":["Agrégat des réseaux urbains et interurbains d'Auvergne-Rhône-Alpes","Réseau interurbain - Isère (38)"],"lt":0,"dept":"05"}},{"type":"Feature","geometry":{"type":"Point","coordinates":[6.08321,44.56884]},"properties":{"nom":"Rochasson","ag":["Agrégat des réseaux urbains et interurbains d'Auvergne-Rhône-Alpes","Réseau interurbain - Isère (38)"],"lt":0,"dept":"05"}},{"type":"Feature","geometry":{"type":"Point","coordinates":[6.07709,44.56045]},"properties":{"nom":"Agglo","ag":["Agrégat des réseaux urbains et interurbains d'Auvergne-Rhône-Alpes","Réseau interurbain et scolaire - Drôme (26)"],"lt":0,"dept":"05"}},{"type":"Feature","geometry":{"type":"Point","coordinates":[6.09014,44.53844]},"properties":{"nom":"Emeyères","ag":["Agrégat des réseaux urbains et interurbains d'Auvergne-Rhône-Alpes","Réseau interurbain et scolaire - Drôme (26)"],"lt":0,"dept":"05"}},{"type":"Feature","geometry":{"type":"Point","coordinates":[6.08063,44.58126]},"properties":{"nom":"Camping Gap","ag":["Agrégat des réseaux urbains et interurbains d'Auvergne-Rhône-Alpes","Réseau interurbain - Isère (38)"],"lt":0,"dept":"05"}},{"type":"Feature","geometry":{"type":"Point","coordinates":[6.08113,44.58131]},"properties":{"nom":"Camping Gap","ag":["Agrégat des réseaux urbains et interurbains d'Auvergne-Rhône-Alpes","Réseau interurbain - Isère (38)"],"lt":0,"dept":"05"}},{"type":"Feature","geometry":{"type":"Point","coordinates":[6.08223,44.62112]},"properties":{"nom":"Col Bayard","ag":["Agrégat des réseaux urbains et interurbains d'Auvergne-Rhône-Alpes","Réseau interurbain - Isère (38)"],"lt":0,"dept":"05"}},{"type":"Feature","geometry":{"type":"Point","coordinates":[6.08234,44.62114]},"properties":{"nom":"Col Bayard","ag":["Agrégat des réseaux urbains et interurbains d'Auvergne-Rhône-Alpes","Réseau interurbain - Isère (38)"],"lt":0,"dept":"05"}},{"type":"Feature","geometry":{"type":"Point","coordinates":[5.82267,44.31371]},"properties":{"nom":"Place Fontaine","ag":["Agrégat des réseaux urbains et interurbains d'Auvergne-Rhône-Alpes","Réseau interurbain et scolaire - Drôme (26)"],"lt":0,"dept":"05"}},{"type":"Feature","geometry":{"type":"Point","coordinates":[5.8188,44.31637]},"properties":{"nom":"Halte Routière","ag":["Agrégat des réseaux urbains et interurbains d'Auvergne-Rhône-Alpes","Réseau interurbain et scolaire - Drôme (26)"],"lt":0,"dept":"05"}},{"type":"Feature","geometry":{"type":"Point","coordinates":[6.08477,44.65482]},"properties":{"nom":"Brutinel","ag":["Agrégat des réseaux urbains et interurbains d'Auvergne-Rhône-Alpes","Réseau interurbain - Isère (38)"],"lt":0,"dept":"05"}},{"type":"Feature","geometry":{"type":"Point","coordinates":[6.08488,44.65471]},"properties":{"nom":"Brutinel","ag":["Agrégat des réseaux urbains et interurbains d'Auvergne-Rhône-Alpes","Réseau interurbain - Isère (38)"],"lt":0,"dept":"05"}},{"type":"Feature","geometry":{"type":"Point","coordinates":[6.08518,44.63795]},"properties":{"nom":"Village","ag":["Agrégat des réseaux urbains et interurbains d'Auvergne-Rhône-Alpes","Réseau interurbain - Isère (38)"],"lt":0,"dept":"05"}},{"type":"Feature","geometry":{"type":"Point","coordinates":[6.08529,44.63787]},"properties":{"nom":"Village","ag":["Agrégat des réseaux urbains et interurbains d'Auvergne-Rhône-Alpes","Réseau interurbain - Isère (38)"],"lt":0,"dept":"05"}},{"type":"Feature","geometry":{"type":"Point","coordinates":[6.00382,44.73469]},"properties":{"nom":"Pont de la Guinguette","ag":["Agrégat des réseaux urbains et interurbains d'Auvergne-Rhône-Alpes","Réseau interurbain - Isère (38)"],"lt":0,"dept":"05"}},{"type":"Feature","geometry":{"type":"Point","coordinates":[6.00387,44.73419]},"properties":{"nom":"Pont de la Guinguette","ag":["Agrégat des réseaux urbains et interurbains d'Auvergne-Rhône-Alpes","Réseau interurbain - Isère (38)"],"lt":0,"dept":"05"}},{"type":"Feature","geometry":{"type":"Point","coordinates":[6.03178,44.71278]},"properties":{"nom":"Pont Valla","ag":["Agrégat des réseaux urbains et interurbains d'Auvergne-Rhône-Alpes","Réseau interurbain - Isère (38)"],"lt":0,"dept":"05"}},{"type":"Feature","geometry":{"type":"Point","coordinates":[6.00832,44.72865]},"properties":{"nom":"La Guinguette","ag":["Agrégat des réseaux urbains et interurbains d'Auvergne-Rhône-Alpes","Réseau interurbain - Isère (38)"],"lt":0,"dept":"05"}},{"type":"Feature","geometry":{"type":"Point","coordinates":[6.00839,44.72871]},"properties":{"nom":"La Guinguette","ag":["Agrégat des réseaux urbains et interurbains d'Auvergne-Rhône-Alpes","Réseau interurbain - Isère (38)"],"lt":0,"dept":"05"}},{"type":"Feature","geometry":{"type":"Point","coordinates":[6.03244,44.71227]},"properties":{"nom":"Pont Valla","ag":["Agrégat des réseaux urbains et interurbains d'Auvergne-Rhône-Alpes","Réseau interurbain - Isère (38)"],"lt":0,"dept":"05"}},{"type":"Feature","geometry":{"type":"Point","coordinates":[5.81,44.27]},"properties":{"nom":"Le Plan","ag":["Agrégat des réseaux urbains et interurbains d'Auvergne-Rhône-Alpes","Réseau interurbain et scolaire - Drôme (26)"],"lt":0,"dept":"05"}},{"type":"Feature","geometry":{"type":"Point","coordinates":[5.47136,44.39268]},"properties":{"nom":"Ecole","ag":["Agrégat des réseaux urbains et interurbains d'Auvergne-Rhône-Alpes","Réseau interurbain et scolaire - Drôme (26)"],"lt":0,"dept":"05"}},{"type":"Feature","geometry":{"type":"Point","coordinates":[6.0776,44.68266]},"properties":{"nom":"Champ de Foire","ag":["Agrégat des réseaux urbains et interurbains d'Auvergne-Rhône-Alpes","Réseau interurbain - Isère (38)"],"lt":0,"dept":"05"}},{"type":"Feature","geometry":{"type":"Point","coordinates":[6.01644,44.77558]},"properties":{"nom":"Pont des Richards RN85","ag":["Agrégat des réseaux urbains et interurbains d'Auvergne-Rhône-Alpes","Réseau interurbain - Isère (38)"],"lt":0,"dept":"05"}},{"type":"Feature","geometry":{"type":"Point","coordinates":[6.01602,44.77587]},"properties":{"nom":"Pont des Richards RN85","ag":["Agrégat des réseaux urbains et interurbains d'Auvergne-Rhône-Alpes","Réseau interurbain - Isère (38)"],"lt":0,"dept":"05"}},{"type":"Feature","geometry":{"type":"Point","coordinates":[5.70878,44.61644]},"properties":{"nom":"Village","ag":["Agrégat des réseaux urbains et interurbains d'Auvergne-Rhône-Alpes","Réseau interurbain et scolaire - Drôme (26)"],"lt":0,"dept":"05"}},{"type":"Feature","geometry":{"type":"Point","coordinates":[5.7037,44.24792]},"properties":{"nom":"Le Pont","ag":["Agrégat des réseaux urbains et interurbains d'Auvergne-Rhône-Alpes","Réseau interurbain et scolaire - Drôme (26)"],"lt":0,"dept":"05"}},{"type":"Feature","geometry":{"type":"Point","coordinates":[5.92274,44.36927]},"properties":{"nom":"Valenty","ag":["Agrégat des réseaux urbains et interurbains d'Auvergne-Rhône-Alpes","Réseau interurbain et scolaire - Drôme (26)"],"lt":0,"dept":"05"}},{"type":"Feature","geometry":{"type":"Point","coordinates":[5.82086,44.53317]},"properties":{"nom":"Gare","ag":["Agrégat des réseaux urbains et interurbains d'Auvergne-Rhône-Alpes","Réseau interurbain et scolaire - Drôme (26)"],"lt":0,"dept":"05"}},{"type":"Feature","geometry":{"type":"Point","coordinates":[5.70862,44.61652]},"properties":{"nom":"Hôtel Les Alpins","ag":["Réseau scolaire interurbain ZOU !","Réseaux urbains de la Métropole Aix-Marseille-Provence","Réseau interurbain Express ZOU !"],"lt":0,"dept":"05"}},{"type":"Feature","geometry":{"type":"Point","coordinates":[5.73715,44.56797]},"properties":{"nom":"Saint André","ag":["Réseau scolaire interurbain ZOU !","Réseau interurbain bus Proximité ZOU !","Réseaux urbains de la Métropole Aix-Marseille-Provence","Réseau interurbain Express ZOU !"],"lt":0,"dept":"05"}},{"type":"Feature","geometry":{"type":"Point","coordinates":[5.63661,44.55215]},"properties":{"nom":"La Beaume Village","ag":["Réseau scolaire interurbain ZOU !"],"lt":0,"dept":"05"}},{"type":"Feature","geometry":{"type":"Point","coordinates":[5.67173,44.55274]},"properties":{"nom":"Le Villard","ag":["Réseau scolaire interurbain ZOU !"],"lt":0,"dept":"05"}},{"type":"Feature","geometry":{"type":"Point","coordinates":[5.67725,44.53391]},"properties":{"nom":"La Bégüe","ag":["Réseau scolaire interurbain ZOU !"],"lt":0,"dept":"05"}},{"type":"Feature","geometry":{"type":"Point","coordinates":[5.69894,44.51986]},"properties":{"nom":"St-Pierre Arg. - Village","ag":["Réseau scolaire interurbain ZOU !"],"lt":0,"dept":"05"}},{"type":"Feature","geometry":{"type":"Point","coordinates":[5.82118,44.47556]},"properties":{"nom":"La Sousta","ag":["Réseau scolaire interurbain ZOU !"],"lt":0,"dept":"05"}},{"type":"Feature","geometry":{"type":"Point","coordinates":[5.7845,44.47642]},"properties":{"nom":"Chabestan - Village","ag":["Réseau scolaire interurbain ZOU !"],"lt":0,"dept":"05"}},{"type":"Feature","geometry":{"type":"Point","coordinates":[5.76368,44.48242]},"properties":{"nom":"Le Pont/RD994","ag":["Réseau scolaire interurbain ZOU !","Réseau interurbain bus Proximité ZOU !"],"lt":0,"dept":"05"}},{"type":"Feature","geometry":{"type":"Point","coordinates":[5.7817,44.48972]},"properties":{"nom":"Les Guiaux","ag":["Réseau scolaire interurbain ZOU !"],"lt":0,"dept":"05"}},{"type":"Feature","geometry":{"type":"Point","coordinates":[5.78655,44.49587]},"properties":{"nom":"Sivas","ag":["Réseau scolaire interurbain ZOU !"],"lt":0,"dept":"05"}},{"type":"Feature","geometry":{"type":"Point","coordinates":[5.80309,44.50435]},"properties":{"nom":"Fontaine Basse","ag":["Réseau scolaire interurbain ZOU !"],"lt":0,"dept":"05"}},{"type":"Feature","geometry":{"type":"Point","coordinates":[5.80825,44.51224]},"properties":{"nom":"Pont de la Bachassette","ag":["Réseau scolaire interurbain ZOU !"],"lt":0,"dept":"05"}},{"type":"Feature","geometry":{"type":"Point","coordinates":[5.84508,44.49505]},"properties":{"nom":"St Auban d'Oze - Village","ag":["Réseau scolaire interurbain ZOU !"],"lt":0,"dept":"05"}},{"type":"Feature","geometry":{"type":"Point","coordinates":[5.8535,44.53674]},"properties":{"nom":"Les Savoyons","ag":["Réseau scolaire interurbain ZOU !"],"lt":0,"dept":"05"}},{"type":"Feature","geometry":{"type":"Point","coordinates":[5.89533,44.73521]},"properties":{"nom":"St-Disdier La Ribière","ag":["Réseau scolaire interurbain ZOU !"],"lt":0,"dept":"05"}},{"type":"Feature","geometry":{"type":"Point","coordinates":[5.88805,44.71776]},"properties":{"nom":"La Combe de l'Eau","ag":["Réseau scolaire interurbain ZOU !"],"lt":0,"dept":"05"}},{"type":"Feature","geometry":{"type":"Point","coordinates":[5.88242,44.69415]},"properties":{"nom":"École d'Agnières","ag":["Réseau scolaire interurbain ZOU !"],"lt":0,"dept":"05"}},{"type":"Feature","geometry":{"type":"Point","coordinates":[5.95179,44.66799]},"properties":{"nom":"Les Piboulas","ag":["Réseau scolaire interurbain ZOU !"],"lt":0,"dept":"05"}},{"type":"Feature","geometry":{"type":"Point","coordinates":[5.95403,44.67529]},"properties":{"nom":"Base Militaire","ag":["Réseau scolaire interurbain ZOU !"],"lt":0,"dept":"05"}},{"type":"Feature","geometry":{"type":"Point","coordinates":[5.95301,44.67733]},"properties":{"nom":"Le Fourniel","ag":["Réseau scolaire interurbain ZOU !"],"lt":0,"dept":"05"}},{"type":"Feature","geometry":{"type":"Point","coordinates":[5.9413,44.69287]},"properties":{"nom":"Saint-Etienne Village","ag":["Réseau scolaire interurbain ZOU !","Réseau interurbain bus Proximité ZOU !"],"lt":0,"dept":"05"}},{"type":"Feature","geometry":{"type":"Point","coordinates":[5.93091,44.70027]},"properties":{"nom":"Pont de Giers","ag":["Réseau scolaire interurbain ZOU !","Réseau interurbain bus Proximité ZOU !"],"lt":0,"dept":"05"}},{"type":"Feature","geometry":{"type":"Point","coordinates":[5.9065,44.70552]},"properties":{"nom":"Rioupes","ag":["Réseau scolaire interurbain ZOU !"],"lt":0,"dept":"05"}},{"type":"Feature","geometry":{"type":"Point","coordinates":[5.87872,44.68517]},"properties":{"nom":"L'Ubac les Flauds","ag":["Réseau scolaire interurbain ZOU !"],"lt":0,"dept":"05"}},{"type":"Feature","geometry":{"type":"Point","coordinates":[5.87279,44.68183]},"properties":{"nom":"Le Forest","ag":["Réseau scolaire interurbain ZOU !"],"lt":0,"dept":"05"}},{"type":"Feature","geometry":{"type":"Point","coordinates":[5.85481,44.65968]},"properties":{"nom":"Les Garcins","ag":["Réseau scolaire interurbain ZOU !"],"lt":0,"dept":"05"}},{"type":"Feature","geometry":{"type":"Point","coordinates":[5.86943,44.68441]},"properties":{"nom":"L'Adroit","ag":["Réseau scolaire interurbain ZOU !"],"lt":0,"dept":"05"}},{"type":"Feature","geometry":{"type":"Point","coordinates":[5.86417,44.69203]},"properties":{"nom":"Lachaup","ag":["Réseau scolaire interurbain ZOU !"],"lt":0,"dept":"05"}},{"type":"Feature","geometry":{"type":"Point","coordinates":[5.9454,44.68821]},"properties":{"nom":"Centre de Secours","ag":["Réseau scolaire interurbain ZOU !","Réseau interurbain bus Proximité ZOU !"],"lt":0,"dept":"05"}},{"type":"Feature","geometry":{"type":"Point","coordinates":[5.88153,44.69359]},"properties":{"nom":"Agnières Village","ag":["Réseau scolaire interurbain ZOU !"],"lt":0,"dept":"05"}},{"type":"Feature","geometry":{"type":"Point","coordinates":[5.86971,44.67784]},"properties":{"nom":"Les Combettes","ag":["Réseau scolaire interurbain ZOU !","Réseau interurbain bus Proximité ZOU !"],"lt":0,"dept":"05"}},{"type":"Feature","geometry":{"type":"Point","coordinates":[5.85221,44.64236]},"properties":{"nom":"La Cluse L'Oche","ag":["Réseau scolaire interurbain ZOU !","Réseau interurbain bus Proximité ZOU !"],"lt":0,"dept":"05"}},{"type":"Feature","geometry":{"type":"Point","coordinates":[6.56016,44.80984]},"properties":{"nom":"La Bâtie - Le Canton","ag":["Réseau scolaire interurbain ZOU !","Réseau interurbain bus Proximité ZOU !"],"lt":0,"dept":"05"}},{"type":"Feature","geometry":{"type":"Point","coordinates":[6.55901,44.81209]},"properties":{"nom":"La Bâtie - La Fontaine","ag":["Réseau scolaire interurbain ZOU !","Réseau interurbain bus Proximité ZOU !"],"lt":0,"dept":"05"}},{"type":"Feature","geometry":{"type":"Point","coordinates":[6.47959,44.8763]},"properties":{"nom":"Tunnel des Claux","ag":["Réseau scolaire interurbain ZOU !","Réseau interurbain bus Proximité ZOU !"],"lt":0,"dept":"05"}},{"type":"Feature","geometry":{"type":"Point","coordinates":[6.48734,44.86823]},"properties":{"nom":"École Saint Antoine","ag":["Réseau scolaire interurbain ZOU !","Réseau interurbain bus Proximité ZOU !"],"lt":0,"dept":"05"}},{"type":"Feature","geometry":{"type":"Point","coordinates":[6.49261,44.85497]},"properties":{"nom":"Le Poët","ag":["Réseau scolaire interurbain ZOU !","Réseau interurbain bus Proximité ZOU !"],"lt":0,"dept":"05"}},{"type":"Feature","geometry":{"type":"Point","coordinates":[6.4908,44.8606]},"properties":{"nom":"Le Sarret","ag":["Réseau scolaire interurbain ZOU !","Réseau interurbain bus Proximité ZOU !"],"lt":0,"dept":"05"}},{"type":"Feature","geometry":{"type":"Point","coordinates":[6.50802,44.83291]},"properties":{"nom":"Les Parchers Olive","ag":["Réseau scolaire interurbain ZOU !","Réseau interurbain bus Proximité ZOU !"],"lt":0,"dept":"05"}},{"type":"Feature","geometry":{"type":"Point","coordinates":[6.51192,44.83228]},"properties":{"nom":"Le Grand Parcher","ag":["Réseau scolaire interurbain ZOU !"],"lt":0,"dept":"05"}},{"type":"Feature","geometry":{"type":"Point","coordinates":[6.50716,44.8356]},"properties":{"nom":"Le Petit Parcher","ag":["Réseau scolaire interurbain ZOU !"],"lt":0,"dept":"05"}},{"type":"Feature","geometry":{"type":"Point","coordinates":[6.49887,44.83925]},"properties":{"nom":"Lotissement bas la Casse","ag":["Réseau scolaire interurbain ZOU !"],"lt":0,"dept":"05"}},{"type":"Feature","geometry":{"type":"Point","coordinates":[6.49793,44.8423]},"properties":{"nom":"Les Dauphinelles","ag":["Réseau scolaire interurbain ZOU !"],"lt":0,"dept":"05"}},{"type":"Feature","geometry":{"type":"Point","coordinates":[6.49698,44.8389]},"properties":{"nom":"La Casse","ag":["Réseau scolaire interurbain ZOU !","Réseau interurbain bus Proximité ZOU !"],"lt":0,"dept":"05"}},{"type":"Feature","geometry":{"type":"Point","coordinates":[6.48945,44.84508]},"properties":{"nom":"École de Vallouise","ag":["Réseau scolaire interurbain ZOU !"],"lt":0,"dept":"05"}},{"type":"Feature","geometry":{"type":"Point","coordinates":[6.48607,44.83055]},"properties":{"nom":"Place du Puy","ag":["Réseau scolaire interurbain ZOU !","Réseau interurbain bus Proximité ZOU !"],"lt":0,"dept":"05"}},{"type":"Feature","geometry":{"type":"Point","coordinates":[6.49097,44.82939]},"properties":{"nom":"Eyssalerette École","ag":["Réseau scolaire interurbain ZOU !"],"lt":0,"dept":"05"}},{"type":"Feature","geometry":{"type":"Point","coordinates":[6.49773,44.82751]},"properties":{"nom":"Saint Roch 1400","ag":["Réseau scolaire interurbain ZOU !","Réseau interurbain bus Proximité ZOU !","Trains régionaux ZOU !"],"lt":0,"dept":"05"}},{"type":"Feature","geometry":{"type":"Point","coordinates":[6.50071,44.82492]},"properties":{"nom":"Les Prés","ag":["Réseau scolaire interurbain ZOU !"],"lt":0,"dept":"05"}},{"type":"Feature","geometry":{"type":"Point","coordinates":[6.53585,44.82251]},"properties":{"nom":"Le Rif","ag":["Réseau scolaire interurbain ZOU !","Réseau interurbain bus Proximité ZOU !"],"lt":0,"dept":"05"}},{"type":"Feature","geometry":{"type":"Point","coordinates":[6.48602,44.81937]},"properties":{"nom":"Clot Péouilloux 1600","ag":["Réseau scolaire interurbain ZOU !","Réseau interurbain bus Proximité ZOU !","Trains régionaux ZOU !","Réseaux urbains de la Métropole Aix-Marseille-Provence","Réseau interurbain Express ZOU !"],"lt":0,"dept":"05"}},{"type":"Feature","geometry":{"type":"Point","coordinates":[6.48227,44.83415]},"properties":{"nom":"Carrefour de L'Aiglière","ag":["Réseau scolaire interurbain ZOU !","Réseau interurbain bus Proximité ZOU !"],"lt":0,"dept":"05"}},{"type":"Feature","geometry":{"type":"Point","coordinates":[6.49504,44.82799]},"properties":{"nom":"Les Alberts Mairie","ag":["Réseau scolaire interurbain ZOU !"],"lt":0,"dept":"05"}},{"type":"Feature","geometry":{"type":"Point","coordinates":[6.57154,44.72396]},"properties":{"nom":"Ecole de Champcella","ag":["Réseau scolaire interurbain ZOU !"],"lt":0,"dept":"05"}},{"type":"Feature","geometry":{"type":"Point","coordinates":[6.56826,44.73035]},"properties":{"nom":"Le Chambon","ag":["Réseau scolaire interurbain ZOU !"],"lt":0,"dept":"05"}},{"type":"Feature","geometry":{"type":"Point","coordinates":[6.56432,44.73843]},"properties":{"nom":"Pont de Pallon","ag":["Réseau scolaire interurbain ZOU !"],"lt":0,"dept":"05"}},{"type":"Feature","geometry":{"type":"Point","coordinates":[6.53706,44.75415]},"properties":{"nom":"École de Freissinières","ag":["Réseau scolaire interurbain ZOU !"],"lt":0,"dept":"05"}},{"type":"Feature","geometry":{"type":"Point","coordinates":[6.53616,44.75213]},"properties":{"nom":"Les Ribes","ag":["Réseau scolaire interurbain ZOU !"],"lt":0,"dept":"05"}},{"type":"Feature","geometry":{"type":"Point","coordinates":[6.5398,44.75205]},"properties":{"nom":"Les Meyries","ag":["Réseau scolaire interurbain ZOU !"],"lt":0,"dept":"05"}},{"type":"Feature","geometry":{"type":"Point","coordinates":[6.54906,44.7497]},"properties":{"nom":"Le Plan","ag":["Réseau scolaire interurbain ZOU !"],"lt":0,"dept":"05"}},{"type":"Feature","geometry":{"type":"Point","coordinates":[6.56674,44.73788]},"properties":{"nom":"Hameau de Pallon","ag":["Réseau scolaire interurbain ZOU !"],"lt":0,"dept":"05"}},{"type":"Feature","geometry":{"type":"Point","coordinates":[5.70419,44.47546]},"properties":{"nom":"Le Forest","ag":["Réseau scolaire interurbain ZOU !"],"lt":0,"dept":"05"}},{"type":"Feature","geometry":{"type":"Point","coordinates":[5.6941,44.45954]},"properties":{"nom":"Le Fourrier","ag":["Réseau scolaire interurbain ZOU !"],"lt":0,"dept":"05"}},{"type":"Feature","geometry":{"type":"Point","coordinates":[5.65509,44.47506]},"properties":{"nom":"La Piarre Village","ag":["Réseau scolaire interurbain ZOU !"],"lt":0,"dept":"05"}},{"type":"Feature","geometry":{"type":"Point","coordinates":[5.69326,44.45481]},"properties":{"nom":"Sigottier Village","ag":["Réseau scolaire interurbain ZOU !"],"lt":0,"dept":"05"}},{"type":"Feature","geometry":{"type":"Point","coordinates":[5.61537,44.41672]},"properties":{"nom":"École de l'Epine","ag":["Réseau scolaire interurbain ZOU !"],"lt":0,"dept":"05"}},{"type":"Feature","geometry":{"type":"Point","coordinates":[5.55509,44.41348]},"properties":{"nom":"Ribeyret École","ag":["Réseau scolaire interurbain ZOU !"],"lt":0,"dept":"05"}},{"type":"Feature","geometry":{"type":"Point","coordinates":[5.5409,44.45087]},"properties":{"nom":"Montmorin Village","ag":["Réseau scolaire interurbain ZOU !"],"lt":0,"dept":"05"}},{"type":"Feature","geometry":{"type":"Point","coordinates":[5.5119,44.46798]},"properties":{"nom":"Bruis Mairie","ag":["Réseau scolaire interurbain ZOU !"],"lt":0,"dept":"05"}},{"type":"Feature","geometry":{"type":"Point","coordinates":[5.55166,44.44489]},"properties":{"nom":"Montmorin Serre Boyer","ag":["Réseau scolaire interurbain ZOU !"],"lt":0,"dept":"05"}},{"type":"Feature","geometry":{"type":"Point","coordinates":[5.47118,44.38957]},"properties":{"nom":"Sainte Catherine","ag":["Réseau scolaire interurbain ZOU !","Réseau interurbain bus Proximité ZOU !"],"lt":0,"dept":"05"}},{"type":"Feature","geometry":{"type":"Point","coordinates":[5.51311,44.40614]},"properties":{"nom":"Les Grès","ag":["Réseau scolaire interurbain ZOU !","Réseau interurbain bus Proximité ZOU !"],"lt":0,"dept":"05"}},{"type":"Feature","geometry":{"type":"Point","coordinates":[5.53839,44.41128]},"properties":{"nom":"L'Arboudeysse","ag":["Réseau scolaire interurbain ZOU !","Réseau interurbain bus Proximité ZOU !"],"lt":0,"dept":"05"}},{"type":"Feature","geometry":{"type":"Point","coordinates":[5.47119,44.39262]},"properties":{"nom":"École de Rosans","ag":["Réseau scolaire interurbain ZOU !"],"lt":0,"dept":"05"}},{"type":"Feature","geometry":{"type":"Point","coordinates":[5.60564,44.35982]},"properties":{"nom":"Montjay - Village","ag":["Réseau scolaire interurbain ZOU !"],"lt":0,"dept":"05"}},{"type":"Feature","geometry":{"type":"Point","coordinates":[5.70875,44.35411]},"properties":{"nom":"Trescléoux - Village","ag":["Réseau scolaire interurbain ZOU !"],"lt":0,"dept":"05"}},{"type":"Feature","geometry":{"type":"Point","coordinates":[5.72103,44.35591]},"properties":{"nom":"La Tuilière","ag":["Réseau scolaire interurbain ZOU !"],"lt":0,"dept":"05"}},{"type":"Feature","geometry":{"type":"Point","coordinates":[5.72411,44.36054]},"properties":{"nom":"Les Bellons","ag":["Réseau scolaire interurbain ZOU !"],"lt":0,"dept":"05"}},{"type":"Feature","geometry":{"type":"Point","coordinates":[5.72949,44.36568]},"properties":{"nom":"La Rochette","ag":["Réseau scolaire interurbain ZOU !"],"lt":0,"dept":"05"}},{"type":"Feature","geometry":{"type":"Point","coordinates":[5.73155,44.37264]},"properties":{"nom":"Le Plan","ag":["Réseau scolaire interurbain ZOU !"],"lt":0,"dept":"05"}},{"type":"Feature","geometry":{"type":"Point","coordinates":[5.73342,44.38478]},"properties":{"nom":"La Bégue","ag":["Réseau scolaire interurbain ZOU !"],"lt":0,"dept":"05"}},{"type":"Feature","geometry":{"type":"Point","coordinates":[5.73343,44.40525]},"properties":{"nom":"Serre Trompette","ag":["Réseau scolaire interurbain ZOU !"],"lt":0,"dept":"05"}},{"type":"Feature","geometry":{"type":"Point","coordinates":[5.73854,44.40532]},"properties":{"nom":"Guïre","ag":["Réseau scolaire interurbain ZOU !"],"lt":0,"dept":"05"}},{"type":"Feature","geometry":{"type":"Point","coordinates":[5.75028,44.41201]},"properties":{"nom":"Le Bersac Village","ag":["Réseau scolaire interurbain ZOU !"],"lt":0,"dept":"05"}},{"type":"Feature","geometry":{"type":"Point","coordinates":[5.76128,44.41419]},"properties":{"nom":"La Combe du Brusq","ag":["Réseau scolaire interurbain ZOU !"],"lt":0,"dept":"05"}},{"type":"Feature","geometry":{"type":"Point","coordinates":[5.77081,44.41845]},"properties":{"nom":"Les Claux","ag":["Réseau scolaire interurbain ZOU !"],"lt":0,"dept":"05"}},{"type":"Feature","geometry":{"type":"Point","coordinates":[5.78647,44.42042]},"properties":{"nom":"La Buissière","ag":["Réseau scolaire interurbain ZOU !"],"lt":0,"dept":"05"}},{"type":"Feature","geometry":{"type":"Point","coordinates":[5.79425,44.42161]},"properties":{"nom":"Savournon Village École","ag":["Réseau scolaire interurbain ZOU !"],"lt":0,"dept":"05"}},{"type":"Feature","geometry":{"type":"Point","coordinates":[5.77977,44.4202]},"properties":{"nom":"Les Eysserennes","ag":["Réseau scolaire interurbain ZOU !"],"lt":0,"dept":"05"}},{"type":"Feature","geometry":{"type":"Point","coordinates":[5.79385,44.4373]},"properties":{"nom":"Villelongue","ag":["Réseau scolaire interurbain ZOU !"],"lt":0,"dept":"05"}},{"type":"Feature","geometry":{"type":"Point","coordinates":[5.79191,44.44096]},"properties":{"nom":"Le Sarret","ag":["Réseau scolaire interurbain ZOU !"],"lt":0,"dept":"05"}},{"type":"Feature","geometry":{"type":"Point","coordinates":[5.9266,44.67773]},"properties":{"nom":"Superdévoluy - Les Issarts","ag":["Réseau scolaire interurbain ZOU !","Réseau interurbain bus Proximité ZOU !","Trains régionaux ZOU !","Réseaux urbains de la Métropole Aix-Marseille-Provence","Réseau interurbain Express ZOU !"],"lt":0,"dept":"05"}},{"type":"Feature","geometry":{"type":"Point","coordinates":[5.89327,44.68935]},"properties":{"nom":"La Joue du Loup - Station","ag":["Réseau scolaire interurbain ZOU !","Réseau interurbain bus Proximité ZOU !"],"lt":0,"dept":"05"}},{"type":"Feature","geometry":{"type":"Point","coordinates":[6.48204,44.87496]},"properties":{"nom":"La Chapelle","ag":["Réseau scolaire interurbain ZOU !","Réseau interurbain bus Proximité ZOU !"],"lt":0,"dept":"05"}},{"type":"Feature","geometry":{"type":"Point","coordinates":[6.48905,44.86554]},"properties":{"nom":"Le Fangeas","ag":["Réseau scolaire interurbain ZOU !","Réseau interurbain bus Proximité ZOU !"],"lt":0,"dept":"05"}},{"type":"Feature","geometry":{"type":"Point","coordinates":[6.4899,44.84532]},"properties":{"nom":"Vallouise Centre","ag":["Réseau scolaire interurbain ZOU !","Réseau interurbain bus Proximité ZOU !"],"lt":0,"dept":"05"}},{"type":"Feature","geometry":{"type":"Point","coordinates":[6.60152,44.86875]},"properties":{"nom":"Le Clos du Vas","ag":["Réseau scolaire interurbain ZOU !","Réseau interurbain bus Proximité ZOU !"],"lt":0,"dept":"05"}},{"type":"Feature","geometry":{"type":"Point","coordinates":[5.65547,44.35847]},"properties":{"nom":"Le Pont","ag":["Réseau scolaire interurbain ZOU !"],"lt":0,"dept":"05"}},{"type":"Feature","geometry":{"type":"Point","coordinates":[5.95176,44.54462]},"properties":{"nom":"Clot de Sagne","ag":["Réseau scolaire interurbain ZOU !"],"lt":0,"dept":"05"}},{"type":"Feature","geometry":{"type":"Point","coordinates":[5.95214,44.54169]},"properties":{"nom":"Carrefour Céüse Station","ag":["Réseau scolaire interurbain ZOU !"],"lt":0,"dept":"05"}},{"type":"Feature","geometry":{"type":"Point","coordinates":[5.95726,44.54127]},"properties":{"nom":"Les Gallices","ag":["Réseau scolaire interurbain ZOU !"],"lt":0,"dept":"05"}},{"type":"Feature","geometry":{"type":"Point","coordinates":[5.96356,44.53787]},"properties":{"nom":"L'Eglise","ag":["Réseau scolaire interurbain ZOU !"],"lt":0,"dept":"05"}},{"type":"Feature","geometry":{"type":"Point","coordinates":[5.9702,44.53604]},"properties":{"nom":"Le Serre","ag":["Réseau scolaire interurbain ZOU !"],"lt":0,"dept":"05"}},{"type":"Feature","geometry":{"type":"Point","coordinates":[5.97584,44.53876]},"properties":{"nom":"Le Forest (carf. D118/D318)","ag":["Réseau scolaire interurbain ZOU !"],"lt":0,"dept":"05"}},{"type":"Feature","geometry":{"type":"Point","coordinates":[5.51445,44.37696]},"properties":{"nom":"St-André de R - Village","ag":["Réseau scolaire interurbain ZOU !"],"lt":0,"dept":"05"}},{"type":"Feature","geometry":{"type":"Point","coordinates":[5.92538,44.36996]},"properties":{"nom":"Valenty","ag":["Réseau scolaire interurbain ZOU !","Réseau interurbain bus Proximité ZOU !","Réseaux urbains de la Métropole Aix-Marseille-Provence","Réseau interurbain Express ZOU !"],"lt":0,"dept":"05"}},{"type":"Feature","geometry":{"type":"Point","coordinates":[5.89105,44.31454]},"properties":{"nom":"Rourebeau Village","ag":["Réseau scolaire interurbain ZOU !","Réseau interurbain bus Proximité ZOU !","Réseaux urbains de la Métropole Aix-Marseille-Provence","Réseau interurbain Express ZOU !"],"lt":0,"dept":"05"}},{"type":"Feature","geometry":{"type":"Point","coordinates":[5.8973,44.292]},"properties":{"nom":"Le Poët - Village Mairie","ag":["Réseau scolaire interurbain ZOU !","Réseau interurbain bus Proximité ZOU !","Réseau interurbain Express ZOU !"],"lt":0,"dept":"05"}},{"type":"Feature","geometry":{"type":"Point","coordinates":[6.2306,44.465]},"properties":{"nom":"L'Hôtel","ag":["Réseau scolaire interurbain ZOU !","Réseau interurbain bus Proximité ZOU !"],"lt":0,"dept":"05"}},{"type":"Feature","geometry":{"type":"Point","coordinates":[6.2254,44.46658]},"properties":{"nom":"Salle Polyvalente","ag":["Réseau scolaire interurbain ZOU !"],"lt":0,"dept":"05"}},{"type":"Feature","geometry":{"type":"Point","coordinates":[6.22149,44.46793]},"properties":{"nom":"La Poste","ag":["Réseau scolaire interurbain ZOU !"],"lt":0,"dept":"05"}},{"type":"Feature","geometry":{"type":"Point","coordinates":[6.19941,44.46533]},"properties":{"nom":"La Plaine","ag":["Réseau scolaire interurbain ZOU !","Réseau interurbain bus Proximité ZOU !"],"lt":0,"dept":"05"}},{"type":"Feature","geometry":{"type":"Point","coordinates":[6.1908,44.46368]},"properties":{"nom":"Les Graves","ag":["Réseau scolaire interurbain ZOU !","Réseau interurbain bus Proximité ZOU !"],"lt":0,"dept":"05"}},{"type":"Feature","geometry":{"type":"Point","coordinates":[6.17011,44.46791]},"properties":{"nom":"Les Acacias","ag":["Réseau scolaire interurbain ZOU !","Réseau interurbain bus Proximité ZOU !"],"lt":0,"dept":"05"}},{"type":"Feature","geometry":{"type":"Point","coordinates":[6.16412,44.46769]},"properties":{"nom":"Remollon - Mairie","ag":["Réseau scolaire interurbain ZOU !","Réseau interurbain bus Proximité ZOU !"],"lt":0,"dept":"05"}},{"type":"Feature","geometry":{"type":"Point","coordinates":[6.08324,44.47911]},"properties":{"nom":"Café des Pêcheurs","ag":["Réseau scolaire interurbain ZOU !","Réseau interurbain bus Proximité ZOU !"],"lt":0,"dept":"05"}},{"type":"Feature","geometry":{"type":"Point","coordinates":[6.65147,44.65709]},"properties":{"nom":"Guillestre - Gare Routière","ag":["Réseau scolaire interurbain ZOU !","Réseau interurbain bus Proximité ZOU !","Trains régionaux ZOU !","Réseau interurbain Express ZOU !"],"lt":0,"dept":"05"}},{"type":"Feature","geometry":{"type":"Point","coordinates":[6.61723,44.67458]},"properties":{"nom":"Hôtel Lacour","ag":["Réseau scolaire interurbain ZOU !","Réseau interurbain bus Proximité ZOU !"],"lt":0,"dept":"05"}},{"type":"Feature","geometry":{"type":"Point","coordinates":[5.65355,44.29911]},"properties":{"nom":"Les Catoyes","ag":["Réseau scolaire interurbain ZOU !"],"lt":0,"dept":"05"}},{"type":"Feature","geometry":{"type":"Point","coordinates":[5.66414,44.30296]},"properties":{"nom":"Le Pouly","ag":["Réseau scolaire interurbain ZOU !"],"lt":0,"dept":"05"}},{"type":"Feature","geometry":{"type":"Point","coordinates":[5.68128,44.31401]},"properties":{"nom":"Sautins","ag":["Réseau scolaire interurbain ZOU !"],"lt":0,"dept":"05"}},{"type":"Feature","geometry":{"type":"Point","coordinates":[5.69572,44.3133]},"properties":{"nom":"Orpierre - Village Ecole","ag":["Réseau scolaire interurbain ZOU !"],"lt":0,"dept":"05"}},{"type":"Feature","geometry":{"type":"Point","coordinates":[5.70267,44.31421]},"properties":{"nom":"Paradis","ag":["Réseau scolaire interurbain ZOU !"],"lt":0,"dept":"05"}},{"type":"Feature","geometry":{"type":"Point","coordinates":[5.72644,44.31993]},"properties":{"nom":"Saint Avons","ag":["Réseau scolaire interurbain ZOU !"],"lt":0,"dept":"05"}},{"type":"Feature","geometry":{"type":"Point","coordinates":[5.73307,44.32083]},"properties":{"nom":"Les Parayes","ag":["Réseau scolaire interurbain ZOU !"],"lt":0,"dept":"05"}},{"type":"Feature","geometry":{"type":"Point","coordinates":[5.74577,44.32763]},"properties":{"nom":"Le Céans","ag":["Réseau scolaire interurbain ZOU !"],"lt":0,"dept":"05"}},{"type":"Feature","geometry":{"type":"Point","coordinates":[5.75104,44.33197]},"properties":{"nom":"Champ Lébrier","ag":["Réseau scolaire interurbain ZOU !"],"lt":0,"dept":"05"}},{"type":"Feature","geometry":{"type":"Point","coordinates":[5.75798,44.33836]},"properties":{"nom":"Guédin","ag":["Réseau scolaire interurbain ZOU !"],"lt":0,"dept":"05"}},{"type":"Feature","geometry":{"type":"Point","coordinates":[5.86071,44.22322]},"properties":{"nom":"Ribiers les 2 Colombes","ag":["Réseau scolaire interurbain ZOU !"],"lt":0,"dept":"05"}},{"type":"Feature","geometry":{"type":"Point","coordinates":[5.85743,44.22996]},"properties":{"nom":"Ribiers Mairie","ag":["Réseau scolaire interurbain ZOU !","Réseau interurbain bus Proximité ZOU !"],"lt":0,"dept":"05"}},{"type":"Feature","geometry":{"type":"Point","coordinates":[5.84511,44.24349]},"properties":{"nom":"Saint Aubert","ag":["Réseau scolaire interurbain ZOU !"],"lt":0,"dept":"05"}},{"type":"Feature","geometry":{"type":"Point","coordinates":[5.87564,44.21017]},"properties":{"nom":"Châtillon","ag":["Réseau scolaire interurbain ZOU !"],"lt":0,"dept":"05"}},{"type":"Feature","geometry":{"type":"Point","coordinates":[5.89466,44.20404]},"properties":{"nom":"Les Eymarrons","ag":["Réseau scolaire interurbain ZOU !"],"lt":0,"dept":"05"}},{"type":"Feature","geometry":{"type":"Point","coordinates":[5.9086,44.2831]},"properties":{"nom":"Les Donnets","ag":["Réseau scolaire interurbain ZOU !"],"lt":0,"dept":"05"}},{"type":"Feature","geometry":{"type":"Point","coordinates":[5.88712,44.31647]},"properties":{"nom":"Costebelle","ag":["Réseau scolaire interurbain ZOU !"],"lt":0,"dept":"05"}},{"type":"Feature","geometry":{"type":"Point","coordinates":[5.88182,44.32397]},"properties":{"nom":"Les Aguillons","ag":["Réseau scolaire interurbain ZOU !"],"lt":0,"dept":"05"}},{"type":"Feature","geometry":{"type":"Point","coordinates":[5.86183,44.32933]},"properties":{"nom":"Le Devès","ag":["Réseau scolaire interurbain ZOU !"],"lt":0,"dept":"05"}},{"type":"Feature","geometry":{"type":"Point","coordinates":[5.83248,44.3263]},"properties":{"nom":"Les Résolues","ag":["Réseau scolaire interurbain ZOU !"],"lt":0,"dept":"05"}},{"type":"Feature","geometry":{"type":"Point","coordinates":[5.93927,44.38513]},"properties":{"nom":"La Cantonnière","ag":["Réseau scolaire interurbain ZOU !","Réseau interurbain bus Proximité ZOU !"],"lt":0,"dept":"05"}},{"type":"Feature","geometry":{"type":"Point","coordinates":[6.0467,44.45569]},"properties":{"nom":"Collège Marie Marvingt","ag":["Réseau scolaire interurbain ZOU !"],"lt":0,"dept":"05"}},{"type":"Feature","geometry":{"type":"Point","coordinates":[6.63404,44.6234]},"properties":{"nom":"Risoul - Station","ag":["Réseau scolaire interurbain ZOU !","Réseau interurbain bus Proximité ZOU !","Trains régionaux ZOU !","Réseau interurbain Express ZOU !"],"lt":0,"dept":"05"}},{"type":"Feature","geometry":{"type":"Point","coordinates":[6.63171,44.64289]},"properties":{"nom":"Gaudissart Haut","ag":["Réseau scolaire interurbain ZOU !","Réseau interurbain bus Proximité ZOU !"],"lt":0,"dept":"05"}},{"type":"Feature","geometry":{"type":"Point","coordinates":[6.62956,44.64404]},"properties":{"nom":"Gaudissart Bas","ag":["Réseau scolaire interurbain ZOU !"],"lt":0,"dept":"05"}},{"type":"Feature","geometry":{"type":"Point","coordinates":[6.62426,44.64766]},"properties":{"nom":"Le Languieu","ag":["Réseau scolaire interurbain ZOU !"],"lt":0,"dept":"05"}},{"type":"Feature","geometry":{"type":"Point","coordinates":[6.62217,44.64869]},"properties":{"nom":"La Traverse","ag":["Réseau scolaire interurbain ZOU !"],"lt":0,"dept":"05"}},{"type":"Feature","geometry":{"type":"Point","coordinates":[6.63682,44.64864]},"properties":{"nom":"Risoul Mairie","ag":["Réseau scolaire interurbain ZOU !","Réseau interurbain bus Proximité ZOU !"],"lt":0,"dept":"05"}},{"type":"Feature","geometry":{"type":"Point","coordinates":[6.63319,44.65009]},"properties":{"nom":"La Gaudissarde","ag":["Réseau scolaire interurbain ZOU !"],"lt":0,"dept":"05"}},{"type":"Feature","geometry":{"type":"Point","coordinates":[6.63059,44.65129]},"properties":{"nom":"Les Bruns","ag":["Réseau scolaire interurbain ZOU !"],"lt":0,"dept":"05"}},{"type":"Feature","geometry":{"type":"Point","coordinates":[6.62664,44.65375]},"properties":{"nom":"Chauvet","ag":["Réseau scolaire interurbain ZOU !"],"lt":0,"dept":"05"}},{"type":"Feature","geometry":{"type":"Point","coordinates":[6.61754,44.65857]},"properties":{"nom":"Les Isclasses Haut","ag":["Réseau scolaire interurbain ZOU !"],"lt":0,"dept":"05"}},{"type":"Feature","geometry":{"type":"Point","coordinates":[6.61879,44.66155]},"properties":{"nom":"Zone Artisanale le Villard","ag":["Réseau scolaire interurbain ZOU !","Réseau interurbain bus Proximité ZOU !"],"lt":0,"dept":"05"}},{"type":"Feature","geometry":{"type":"Point","coordinates":[6.65549,44.66278]},"properties":{"nom":"Collège Hautes Vallées","ag":["Réseau scolaire interurbain ZOU !"],"lt":0,"dept":"05"}},{"type":"Feature","geometry":{"type":"Point","coordinates":[6.68506,44.56746]},"properties":{"nom":"Les Claux le Fournet","ag":["Réseau scolaire interurbain ZOU !","Réseau interurbain bus Proximité ZOU !"],"lt":0,"dept":"05"}},{"type":"Feature","geometry":{"type":"Point","coordinates":[6.68272,44.57018]},"properties":{"nom":"Les Claux Point Show","ag":["Réseau scolaire interurbain ZOU !","Réseau interurbain bus Proximité ZOU !"],"lt":0,"dept":"05"}},{"type":"Feature","geometry":{"type":"Point","coordinates":[6.68008,44.57253]},"properties":{"nom":"Vars - Office de Tourisme","ag":["Réseau scolaire interurbain ZOU !","Réseau interurbain bus Proximité ZOU !"],"lt":0,"dept":"05"}},{"type":"Feature","geometry":{"type":"Point","coordinates":[6.69314,44.60187]},"properties":{"nom":"Sainte Catherine","ag":["Réseau scolaire interurbain ZOU !"],"lt":0,"dept":"05"}},{"type":"Feature","geometry":{"type":"Point","coordinates":[6.68934,44.59321]},"properties":{"nom":"Vars - Ste Marie Monte Pente","ag":["Réseau scolaire interurbain ZOU !","Réseau interurbain bus Proximité ZOU !","Réseau interurbain Express ZOU !"],"lt":0,"dept":"05"}},{"type":"Feature","geometry":{"type":"Point","coordinates":[6.68842,44.60784]},"properties":{"nom":"Saint Marcellin","ag":["Réseau scolaire interurbain ZOU !","Réseau interurbain bus Proximité ZOU !"],"lt":0,"dept":"05"}},{"type":"Feature","geometry":{"type":"Point","coordinates":[6.66032,44.64361]},"properties":{"nom":"Peyre Haute","ag":["Réseau scolaire interurbain ZOU !"],"lt":0,"dept":"05"}},{"type":"Feature","geometry":{"type":"Point","coordinates":[6.77486,44.67118]},"properties":{"nom":"L'Ochette","ag":["Réseau scolaire interurbain ZOU !","Réseau interurbain bus Proximité ZOU !"],"lt":0,"dept":"05"}},{"type":"Feature","geometry":{"type":"Point","coordinates":[6.77806,44.66838]},"properties":{"nom":"Ceillac - Place de la Mairie","ag":["Réseau scolaire interurbain ZOU !","Réseau interurbain bus Proximité ZOU !"],"lt":0,"dept":"05"}},{"type":"Feature","geometry":{"type":"Point","coordinates":[6.69354,44.67659]},"properties":{"nom":"Maison du Roy","ag":["Réseau scolaire interurbain ZOU !"],"lt":0,"dept":"05"}},{"type":"Feature","geometry":{"type":"Point","coordinates":[6.87395,44.72625]},"properties":{"nom":"Le Coin","ag":["Réseau scolaire interurbain ZOU !"],"lt":0,"dept":"05"}},{"type":"Feature","geometry":{"type":"Point","coordinates":[6.86272,44.72509]},"properties":{"nom":"Pierre Grosse","ag":["Réseau scolaire interurbain ZOU !"],"lt":0,"dept":"05"}},{"type":"Feature","geometry":{"type":"Point","coordinates":[6.82085,44.76159]},"properties":{"nom":"Gare Routière","ag":["Réseau scolaire interurbain ZOU !","Réseau interurbain bus Proximité ZOU !","Trains régionaux ZOU !"],"lt":0,"dept":"05"}},{"type":"Feature","geometry":{"type":"Point","coordinates":[6.86079,44.70442]},"properties":{"nom":"La Madeleine","ag":["Réseau scolaire interurbain ZOU !"],"lt":0,"dept":"05"}},{"type":"Feature","geometry":{"type":"Point","coordinates":[6.86815,44.69896]},"properties":{"nom":"Boulangerie","ag":["Réseau scolaire interurbain ZOU !"],"lt":0,"dept":"05"}},{"type":"Feature","geometry":{"type":"Point","coordinates":[6.86595,44.69987]},"properties":{"nom":"Saint-Véran - Beauregard","ag":["Réseau scolaire interurbain ZOU !","Réseau interurbain bus Proximité ZOU !","Trains régionaux ZOU !"],"lt":0,"dept":"05"}},{"type":"Feature","geometry":{"type":"Point","coordinates":[6.86262,44.69924]},"properties":{"nom":"Le Raux","ag":["Réseau scolaire interurbain ZOU !","Réseau interurbain bus Proximité ZOU !"],"lt":0,"dept":"05"}},{"type":"Feature","geometry":{"type":"Point","coordinates":[6.85719,44.70292]},"properties":{"nom":"Saint Ouen","ag":["Réseau scolaire interurbain ZOU !","Réseau interurbain bus Proximité ZOU !"],"lt":0,"dept":"05"}},{"type":"Feature","geometry":{"type":"Point","coordinates":[6.84894,44.71165]},"properties":{"nom":"La Chalp","ag":["Réseau scolaire interurbain ZOU !","Réseau interurbain bus Proximité ZOU !"],"lt":0,"dept":"05"}},{"type":"Feature","geometry":{"type":"Point","coordinates":[6.84733,44.72348]},"properties":{"nom":"Molines Station","ag":["Réseau scolaire interurbain ZOU !","Réseau interurbain bus Proximité ZOU !"],"lt":0,"dept":"05"}},{"type":"Feature","geometry":{"type":"Point","coordinates":[6.84378,44.72876]},"properties":{"nom":"Route de Saint Véran","ag":["Réseau scolaire interurbain ZOU !","Réseau interurbain bus Proximité ZOU !"],"lt":0,"dept":"05"}},{"type":"Feature","geometry":{"type":"Point","coordinates":[6.83432,44.73616]},"properties":{"nom":"La Rua","ag":["Réseau scolaire interurbain ZOU !","Réseau interurbain bus Proximité ZOU !"],"lt":0,"dept":"05"}},{"type":"Feature","geometry":{"type":"Point","coordinates":[6.95706,44.77363]},"properties":{"nom":"Ristolas Cayre de l'Ours","ag":["Réseau scolaire interurbain ZOU !","Réseau interurbain bus Proximité ZOU !","Trains régionaux ZOU !","Réseaux urbains de la Métropole Aix-Marseille-Provence","Réseau interurbain Express ZOU !"],"lt":0,"dept":"05"}},{"type":"Feature","geometry":{"type":"Point","coordinates":[6.9278,44.7937]},"properties":{"nom":"Abriès OT/Place du Glacis","ag":["Réseau scolaire interurbain ZOU !","Réseau interurbain bus Proximité ZOU !"],"lt":0,"dept":"05"}},{"type":"Feature","geometry":{"type":"Point","coordinates":[6.86861,44.78044]},"properties":{"nom":"L'Hôpital Parking","ag":["Réseau scolaire interurbain ZOU !","Réseau interurbain bus Proximité ZOU !"],"lt":0,"dept":"05"}},{"type":"Feature","geometry":{"type":"Point","coordinates":[6.79841,44.75814]},"properties":{"nom":"Château Queyras Gendarmerie","ag":["Réseau scolaire interurbain ZOU !","Réseau interurbain bus Proximité ZOU !"],"lt":0,"dept":"05"}},{"type":"Feature","geometry":{"type":"Point","coordinates":[6.79011,44.75653]},"properties":{"nom":"Château Queyras le Collet","ag":["Réseau scolaire interurbain ZOU !","Réseau interurbain bus Proximité ZOU !"],"lt":0,"dept":"05"}},{"type":"Feature","geometry":{"type":"Point","coordinates":[6.77167,44.7476]},"properties":{"nom":"L'Estéyère","ag":["Réseau scolaire interurbain ZOU !","Réseau interurbain bus Proximité ZOU !"],"lt":0,"dept":"05"}},{"type":"Feature","geometry":{"type":"Point","coordinates":[6.72856,44.79417]},"properties":{"nom":"La Mueratière","ag":["Réseau scolaire interurbain ZOU !","Réseau interurbain bus Proximité ZOU !","Trains régionaux ZOU !"],"lt":0,"dept":"05"}},{"type":"Feature","geometry":{"type":"Point","coordinates":[6.73191,44.79198]},"properties":{"nom":"Brunissard","ag":["Réseau scolaire interurbain ZOU !","Réseau interurbain bus Proximité ZOU !"],"lt":0,"dept":"05"}},{"type":"Feature","geometry":{"type":"Point","coordinates":[6.73301,44.7874]},"properties":{"nom":"Les Espars","ag":["Réseau scolaire interurbain ZOU !","Réseau interurbain bus Proximité ZOU !"],"lt":0,"dept":"05"}},{"type":"Feature","geometry":{"type":"Point","coordinates":[6.73472,44.78332]},"properties":{"nom":"Pin Cembro Les Granges","ag":["Réseau scolaire interurbain ZOU !","Réseau interurbain bus Proximité ZOU !"],"lt":0,"dept":"05"}},{"type":"Feature","geometry":{"type":"Point","coordinates":[6.73531,44.78017]},"properties":{"nom":"La Chalp","ag":["Réseau scolaire interurbain ZOU !","Réseau interurbain bus Proximité ZOU !"],"lt":0,"dept":"05"}},{"type":"Feature","geometry":{"type":"Point","coordinates":[6.73627,44.77351]},"properties":{"nom":"Glourite","ag":["Réseau scolaire interurbain ZOU !","Réseau interurbain bus Proximité ZOU !"],"lt":0,"dept":"05"}},{"type":"Feature","geometry":{"type":"Point","coordinates":[6.73911,44.76659]},"properties":{"nom":"La Ville","ag":["Réseau scolaire interurbain ZOU !","Réseau interurbain bus Proximité ZOU !","Réseaux urbains de la Métropole Aix-Marseille-Provence"],"lt":0,"dept":"05"}},{"type":"Feature","geometry":{"type":"Point","coordinates":[6.74307,44.76291]},"properties":{"nom":"La Cassière","ag":["Réseau scolaire interurbain ZOU !","Réseau interurbain bus Proximité ZOU !"],"lt":0,"dept":"05"}},{"type":"Feature","geometry":{"type":"Point","coordinates":[6.76392,44.75112]},"properties":{"nom":"Villargaudin","ag":["Réseau scolaire interurbain ZOU !","Réseau interurbain bus Proximité ZOU !"],"lt":0,"dept":"05"}},{"type":"Feature","geometry":{"type":"Point","coordinates":[6.23848,44.55641]},"properties":{"nom":"Le Sarruchet Abri","ag":["Réseau scolaire interurbain ZOU !","Réseau interurbain bus Proximité ZOU !","Réseaux urbains de la Métropole Aix-Marseille-Provence","Réseau interurbain Express ZOU !"],"lt":0,"dept":"05"}},{"type":"Feature","geometry":{"type":"Point","coordinates":[6.22058,44.55923]},"properties":{"nom":"La Plaine","ag":["Réseau scolaire interurbain ZOU !","Réseau interurbain bus Proximité ZOU !","Réseaux urbains de la Métropole Aix-Marseille-Provence","Réseau interurbain Express ZOU !"],"lt":0,"dept":"05"}},{"type":"Feature","geometry":{"type":"Point","coordinates":[6.12457,44.57792]},"properties":{"nom":"Pont Sarrazin RN94","ag":["Réseau scolaire interurbain ZOU !","Réseau interurbain bus Proximité ZOU !","Réseaux urbains de la Métropole Aix-Marseille-Provence","Réseau interurbain Express ZOU !"],"lt":0,"dept":"05"}},{"type":"Feature","geometry":{"type":"Point","coordinates":[6.55697,44.49434]},"properties":{"nom":"Les Orres - Station 1650","ag":["Réseau scolaire interurbain ZOU !","Réseau interurbain bus Proximité ZOU !"],"lt":0,"dept":"05"}},{"type":"Feature","geometry":{"type":"Point","coordinates":[6.554,44.49149]},"properties":{"nom":"Parking de l'Estomac","ag":["Réseau scolaire interurbain ZOU !","Réseau interurbain bus Proximité ZOU !"],"lt":0,"dept":"05"}},{"type":"Feature","geometry":{"type":"Point","coordinates":[6.55412,44.49201]},"properties":{"nom":"Pralalègre","ag":["Réseau scolaire interurbain ZOU !"],"lt":0,"dept":"05"}},{"type":"Feature","geometry":{"type":"Point","coordinates":[6.555,44.49751]},"properties":{"nom":"Pramouton","ag":["Réseau scolaire interurbain ZOU !","Réseau interurbain bus Proximité ZOU !"],"lt":0,"dept":"05"}},{"type":"Feature","geometry":{"type":"Point","coordinates":[6.56744,44.51246]},"properties":{"nom":"Les Ribes","ag":["Réseau scolaire interurbain ZOU !","Réseau interurbain bus Proximité ZOU !","Navettes hivernales réseau Vaï"],"lt":0,"dept":"05"}},{"type":"Feature","geometry":{"type":"Point","coordinates":[6.5528,44.51293]},"properties":{"nom":"Chef Lieu","ag":["Réseau scolaire interurbain ZOU !","Réseau interurbain bus Proximité ZOU !"],"lt":0,"dept":"05"}},{"type":"Feature","geometry":{"type":"Point","coordinates":[6.53347,44.5165]},"properties":{"nom":"Les Sagnettes","ag":["Réseau scolaire interurbain ZOU !","Réseau interurbain bus Proximité ZOU !"],"lt":0,"dept":"05"}},{"type":"Feature","geometry":{"type":"Point","coordinates":[6.52649,44.52017]},"properties":{"nom":"Rabast","ag":["Réseau scolaire interurbain ZOU !"],"lt":0,"dept":"05"}},{"type":"Feature","geometry":{"type":"Point","coordinates":[6.521,44.52194]},"properties":{"nom":"Les Salettes","ag":["Réseau scolaire interurbain ZOU !","Réseau interurbain bus Proximité ZOU !"],"lt":0,"dept":"05"}},{"type":"Feature","geometry":{"type":"Point","coordinates":[6.51969,44.52629]},"properties":{"nom":"Garcins Terrenoire","ag":["Réseau scolaire interurbain ZOU !","Réseau interurbain bus Proximité ZOU !"],"lt":0,"dept":"05"}},{"type":"Feature","geometry":{"type":"Point","coordinates":[6.49208,44.54348]},"properties":{"nom":"La Mure Petit Liou","ag":["Réseau scolaire interurbain ZOU !","Réseau interurbain bus Proximité ZOU !","Navettes hivernales réseau Vaï"],"lt":0,"dept":"05"}},{"type":"Feature","geometry":{"type":"Point","coordinates":[6.48535,44.54778]},"properties":{"nom":"Aire de covoiturage","ag":["Réseau scolaire interurbain ZOU !","Réseau interurbain bus Proximité ZOU !","Navettes hivernales réseau Vaï","Réseau urbain Vaï Embrun"],"lt":0,"dept":"05"}},{"type":"Feature","geometry":{"type":"Point","coordinates":[6.20038,44.64443]},"properties":{"nom":"St Léger  Le Village","ag":["Réseau scolaire interurbain ZOU !","Réseau interurbain bus Proximité ZOU !"],"lt":0,"dept":"05"}},{"type":"Feature","geometry":{"type":"Point","coordinates":[6.20183,44.63382]},"properties":{"nom":"Les Faix sens Ancelle","ag":["Réseau scolaire interurbain ZOU !","Réseau interurbain bus Proximité ZOU !"],"lt":0,"dept":"05"}},{"type":"Feature","geometry":{"type":"Point","coordinates":[6.20538,44.62424]},"properties":{"nom":"Le village sens Gap","ag":["Réseau scolaire interurbain ZOU !","Réseau interurbain bus Proximité ZOU !"],"lt":0,"dept":"05"}},{"type":"Feature","geometry":{"type":"Point","coordinates":[6.20193,44.62066]},"properties":{"nom":"Ancelle - Pré Joubert Parking","ag":["Réseau scolaire interurbain ZOU !","Réseau interurbain bus Proximité ZOU !"],"lt":0,"dept":"05"}},{"type":"Feature","geometry":{"type":"Point","coordinates":[6.19249,44.61836]},"properties":{"nom":"Le Château abri","ag":["Réseau scolaire interurbain ZOU !","Réseau interurbain bus Proximité ZOU !"],"lt":0,"dept":"05"}},{"type":"Feature","geometry":{"type":"Point","coordinates":[6.13483,44.6203]},"properties":{"nom":"Les Sagnes","ag":["Réseau scolaire interurbain ZOU !","Réseau interurbain bus Proximité ZOU !"],"lt":0,"dept":"05"}},{"type":"Feature","geometry":{"type":"Point","coordinates":[6.13658,44.62573]},"properties":{"nom":"Gare des Bidons","ag":["Réseau scolaire interurbain ZOU !","Réseau interurbain bus Proximité ZOU !"],"lt":0,"dept":"05"}},{"type":"Feature","geometry":{"type":"Point","coordinates":[6.13631,44.63326]},"properties":{"nom":"Manse l'Eglise","ag":["Réseau scolaire interurbain ZOU !","Réseau interurbain bus Proximité ZOU !"],"lt":0,"dept":"05"}},{"type":"Feature","geometry":{"type":"Point","coordinates":[6.14443,44.63931]},"properties":{"nom":"Pont de Frappe","ag":["Réseau scolaire interurbain ZOU !","Réseau interurbain bus Proximité ZOU !"],"lt":0,"dept":"05"}},{"type":"Feature","geometry":{"type":"Point","coordinates":[6.15163,44.64174]},"properties":{"nom":"Basse Plaine Château","ag":["Réseau scolaire interurbain ZOU !","Réseau interurbain bus Proximité ZOU !"],"lt":0,"dept":"05"}},{"type":"Feature","geometry":{"type":"Point","coordinates":[6.17215,44.64352]},"properties":{"nom":"Haute Plaine Mairie","ag":["Réseau scolaire interurbain ZOU !","Réseau interurbain bus Proximité ZOU !"],"lt":0,"dept":"05"}},{"type":"Feature","geometry":{"type":"Point","coordinates":[6.22799,44.66824]},"properties":{"nom":"Pont du Fossé Musée","ag":["Réseau scolaire interurbain ZOU !","Réseau interurbain bus Proximité ZOU !"],"lt":0,"dept":"05"}},{"type":"Feature","geometry":{"type":"Point","coordinates":[6.15825,44.64222]},"properties":{"nom":"Les Estèves","ag":["Réseau scolaire interurbain ZOU !","Réseau interurbain bus Proximité ZOU !"],"lt":0,"dept":"05"}},{"type":"Feature","geometry":{"type":"Point","coordinates":[6.18154,44.64675]},"properties":{"nom":"Champ d'Or","ag":["Réseau scolaire interurbain ZOU !","Réseau interurbain bus Proximité ZOU !"],"lt":0,"dept":"05"}},{"type":"Feature","geometry":{"type":"Point","coordinates":[6.22501,44.66675]},"properties":{"nom":"Le Diamant","ag":["Réseau scolaire interurbain ZOU !","Réseau interurbain bus Proximité ZOU !"],"lt":0,"dept":"05"}},{"type":"Feature","geometry":{"type":"Point","coordinates":[6.32195,44.69627]},"properties":{"nom":"Orcières 1850 - Gare Routière","ag":["Réseau scolaire interurbain ZOU !","Réseau interurbain bus Proximité ZOU !","Trains régionaux ZOU !","Réseau interurbain Express ZOU !"],"lt":0,"dept":"05"}},{"type":"Feature","geometry":{"type":"Point","coordinates":[6.31365,44.69111]},"properties":{"nom":"Les Plautus","ag":["Réseau scolaire interurbain ZOU !","Réseau interurbain bus Proximité ZOU !"],"lt":0,"dept":"05"}},{"type":"Feature","geometry":{"type":"Point","coordinates":[6.32299,44.69158]},"properties":{"nom":"Les Veyers","ag":["Réseau scolaire interurbain ZOU !","Réseau interurbain bus Proximité ZOU !"],"lt":0,"dept":"05"}},{"type":"Feature","geometry":{"type":"Point","coordinates":[6.32226,44.68645]},"properties":{"nom":"Les Sources Haut","ag":["Réseau scolaire interurbain ZOU !","Réseau interurbain bus Proximité ZOU !"],"lt":0,"dept":"05"}},{"type":"Feature","geometry":{"type":"Point","coordinates":[6.32489,44.68421]},"properties":{"nom":"Orcières Village Mairie","ag":["Réseau scolaire interurbain ZOU !","Réseau interurbain bus Proximité ZOU !"],"lt":0,"dept":"05"}},{"type":"Feature","geometry":{"type":"Point","coordinates":[6.28811,44.68282]},"properties":{"nom":"Les Tourengs","ag":["Réseau scolaire interurbain ZOU !","Réseau interurbain bus Proximité ZOU !"],"lt":0,"dept":"05"}},{"type":"Feature","geometry":{"type":"Point","coordinates":[6.27123,44.68792]},"properties":{"nom":"Les Garnauds","ag":["Réseau scolaire interurbain ZOU !","Réseau interurbain bus Proximité ZOU !"],"lt":0,"dept":"05"}},{"type":"Feature","geometry":{"type":"Point","coordinates":[6.26432,44.68933]},"properties":{"nom":"Pont de Corbières","ag":["Réseau scolaire interurbain ZOU !","Réseau interurbain bus Proximité ZOU !"],"lt":0,"dept":"05"}},{"type":"Feature","geometry":{"type":"Point","coordinates":[6.25522,44.67929]},"properties":{"nom":"Pont des Ricous","ag":["Réseau scolaire interurbain ZOU !","Réseau interurbain bus Proximité ZOU !"],"lt":0,"dept":"05"}},{"type":"Feature","geometry":{"type":"Point","coordinates":[6.23166,44.66838]},"properties":{"nom":"École Pont du Fossé","ag":["Réseau scolaire interurbain ZOU !"],"lt":0,"dept":"05"}},{"type":"Feature","geometry":{"type":"Point","coordinates":[6.01813,44.77489]},"properties":{"nom":"Pont des Richards RD985A","ag":["Réseau scolaire interurbain ZOU !","Réseau interurbain bus Proximité ZOU !"],"lt":0,"dept":"05"}},{"type":"Feature","geometry":{"type":"Point","coordinates":[6.02506,44.77162]},"properties":{"nom":"L'Allée carrefour RD16/RN85","ag":["Réseau scolaire interurbain ZOU !"],"lt":0,"dept":"05"}},{"type":"Feature","geometry":{"type":"Point","coordinates":[6.00922,44.75503]},"properties":{"nom":"Chauffayer Scierie","ag":["Réseau scolaire interurbain ZOU !","Réseau interurbain bus Proximité ZOU !"],"lt":0,"dept":"05"}},{"type":"Feature","geometry":{"type":"Point","coordinates":[6.02402,44.74216]},"properties":{"nom":"Beaurepaire","ag":["Réseau scolaire interurbain ZOU !","Réseau interurbain bus Proximité ZOU !"],"lt":0,"dept":"05"}},{"type":"Feature","geometry":{"type":"Point","coordinates":[6.04508,44.73957]},"properties":{"nom":"Les Courts","ag":["Réseau scolaire interurbain ZOU !","Réseau interurbain bus Proximité ZOU !"],"lt":0,"dept":"05"}},{"type":"Feature","geometry":{"type":"Point","coordinates":[6.0292,44.72591]},"properties":{"nom":"Saint Eusèbe Village","ag":["Réseau scolaire interurbain ZOU !"],"lt":0,"dept":"05"}},{"type":"Feature","geometry":{"type":"Point","coordinates":[6.03948,44.72581]},"properties":{"nom":"Le Villardon","ag":["Réseau scolaire interurbain ZOU !"],"lt":0,"dept":"05"}},{"type":"Feature","geometry":{"type":"Point","coordinates":[6.04612,44.72769]},"properties":{"nom":"Les Lantelmes","ag":["Réseau scolaire interurbain ZOU !","Réseau interurbain bus Proximité ZOU !"],"lt":0,"dept":"05"}},{"type":"Feature","geometry":{"type":"Point","coordinates":[6.0669,44.73191]},"properties":{"nom":"Mairie de la Motte","ag":["Réseau scolaire interurbain ZOU !"],"lt":0,"dept":"05"}},{"type":"Feature","geometry":{"type":"Point","coordinates":[6.06239,44.71156]},"properties":{"nom":"Château Robert","ag":["Réseau scolaire interurbain ZOU !","Réseau interurbain bus Proximité ZOU !"],"lt":0,"dept":"05"}},{"type":"Feature","geometry":{"type":"Point","coordinates":[6.06775,44.70803]},"properties":{"nom":"Charbillac RD23","ag":["Réseau scolaire interurbain ZOU !","Réseau interurbain bus Proximité ZOU !"],"lt":0,"dept":"05"}},{"type":"Feature","geometry":{"type":"Point","coordinates":[6.06958,44.7029]},"properties":{"nom":"Pisançon RD23","ag":["Réseau scolaire interurbain ZOU !","Réseau interurbain bus Proximité ZOU !"],"lt":0,"dept":"05"}},{"type":"Feature","geometry":{"type":"Point","coordinates":[6.07207,44.69914]},"properties":{"nom":"Champ Clavel","ag":["Réseau scolaire interurbain ZOU !","Réseau interurbain bus Proximité ZOU !"],"lt":0,"dept":"05"}},{"type":"Feature","geometry":{"type":"Point","coordinates":[6.07366,44.69409]},"properties":{"nom":"La Peyre","ag":["Réseau scolaire interurbain ZOU !","Réseau interurbain bus Proximité ZOU !"],"lt":0,"dept":"05"}},{"type":"Feature","geometry":{"type":"Point","coordinates":[6.00864,44.75199]},"properties":{"nom":"Chauffayer Village","ag":["Réseau scolaire interurbain ZOU !","Réseau interurbain bus Proximité ZOU !"],"lt":0,"dept":"05"}},{"type":"Feature","geometry":{"type":"Point","coordinates":[6.00394,44.73411]},"properties":{"nom":"Pont de La Guinguette","ag":["Réseau scolaire interurbain ZOU !","Réseau interurbain bus Proximité ZOU !"],"lt":0,"dept":"05"}},{"type":"Feature","geometry":{"type":"Point","coordinates":[6.00841,44.72863]},"properties":{"nom":"La Guinguette Hameau","ag":["Réseau scolaire interurbain ZOU !","Réseau interurbain bus Proximité ZOU !"],"lt":0,"dept":"05"}},{"type":"Feature","geometry":{"type":"Point","coordinates":[6.04093,44.70681]},"properties":{"nom":"Les Basses Barraques","ag":["Réseau scolaire interurbain ZOU !","Réseau interurbain bus Proximité ZOU !"],"lt":0,"dept":"05"}},{"type":"Feature","geometry":{"type":"Point","coordinates":[6.07746,44.6828]},"properties":{"nom":"Champ de Foire","ag":["Réseau scolaire interurbain ZOU !","Réseau interurbain bus Proximité ZOU !"],"lt":0,"dept":"05"}},{"type":"Feature","geometry":{"type":"Point","coordinates":[6.07133,44.67616]},"properties":{"nom":"Les Barraques Hameau","ag":["Réseau scolaire interurbain ZOU !","Réseau interurbain bus Proximité ZOU !"],"lt":0,"dept":"05"}},{"type":"Feature","geometry":{"type":"Point","coordinates":[6.1005,44.64725]},"properties":{"nom":"Le Cros","ag":["Réseau scolaire interurbain ZOU !","Réseau interurbain bus Proximité ZOU !"],"lt":0,"dept":"05"}},{"type":"Feature","geometry":{"type":"Point","coordinates":[5.77553,44.33192]},"properties":{"nom":"Les Pelloux Mairie","ag":["Réseau scolaire interurbain ZOU !"],"lt":0,"dept":"05"}},{"type":"Feature","geometry":{"type":"Point","coordinates":[5.70872,44.35411]},"properties":{"nom":"Trescléoux - École Village","ag":["Réseau scolaire interurbain ZOU !"],"lt":0,"dept":"05"}},{"type":"Feature","geometry":{"type":"Point","coordinates":[5.6488,44.36198]},"properties":{"nom":"Les Courtilles","ag":["Réseau scolaire interurbain ZOU !"],"lt":0,"dept":"05"}},{"type":"Feature","geometry":{"type":"Point","coordinates":[5.6794,44.35295]},"properties":{"nom":"Le Moulin","ag":["Réseau scolaire interurbain ZOU !"],"lt":0,"dept":"05"}},{"type":"Feature","geometry":{"type":"Point","coordinates":[5.77133,44.34618]},"properties":{"nom":"École Primaire Eyguians","ag":["Réseau scolaire interurbain ZOU !"],"lt":0,"dept":"05"}},{"type":"Feature","geometry":{"type":"Point","coordinates":[5.6465,44.29647]},"properties":{"nom":"Les Bèguës","ag":["Réseau scolaire interurbain ZOU !"],"lt":0,"dept":"05"}},{"type":"Feature","geometry":{"type":"Point","coordinates":[5.73273,44.26208]},"properties":{"nom":"Barret - Village École","ag":["Réseau scolaire interurbain ZOU !"],"lt":0,"dept":"05"}},{"type":"Feature","geometry":{"type":"Point","coordinates":[5.69816,44.2129]},"properties":{"nom":"Eourres - Village","ag":["Réseau scolaire interurbain ZOU !"],"lt":0,"dept":"05"}},{"type":"Feature","geometry":{"type":"Point","coordinates":[5.69463,44.21585]},"properties":{"nom":"La Beylonne","ag":["Réseau scolaire interurbain ZOU !"],"lt":0,"dept":"05"}},{"type":"Feature","geometry":{"type":"Point","coordinates":[5.69322,44.21968]},"properties":{"nom":"Le Pont","ag":["Réseau scolaire interurbain ZOU !"],"lt":0,"dept":"05"}},{"type":"Feature","geometry":{"type":"Point","coordinates":[5.72229,44.25983]},"properties":{"nom":"Les Granges","ag":["Réseau scolaire interurbain ZOU !"],"lt":0,"dept":"05"}},{"type":"Feature","geometry":{"type":"Point","coordinates":[5.75671,44.26714]},"properties":{"nom":"Pont Saint Pierre Avez","ag":["Réseau scolaire interurbain ZOU !"],"lt":0,"dept":"05"}},{"type":"Feature","geometry":{"type":"Point","coordinates":[5.89521,44.28658]},"properties":{"nom":"Lot Pré Nozière","ag":["Réseau scolaire interurbain ZOU !"],"lt":0,"dept":"05"}},{"type":"Feature","geometry":{"type":"Point","coordinates":[5.90853,44.25228]},"properties":{"nom":"La Grande Ste Anne","ag":["Réseau scolaire interurbain ZOU !","Réseaux urbains de la Métropole Aix-Marseille-Provence","Réseau interurbain Express ZOU !"],"lt":0,"dept":"05"}},{"type":"Feature","geometry":{"type":"Point","coordinates":[5.94337,44.38638]},"properties":{"nom":"École de Monétier","ag":["Réseau scolaire interurbain ZOU !"],"lt":0,"dept":"05"}},{"type":"Feature","geometry":{"type":"Point","coordinates":[5.92137,44.36875]},"properties":{"nom":"Pont canal EDF","ag":["Réseau scolaire interurbain ZOU !"],"lt":0,"dept":"05"}},{"type":"Feature","geometry":{"type":"Point","coordinates":[5.90597,44.37251]},"properties":{"nom":"Bas du Village","ag":["Réseau scolaire interurbain ZOU !"],"lt":0,"dept":"05"}},{"type":"Feature","geometry":{"type":"Point","coordinates":[5.90597,44.37085]},"properties":{"nom":"Village École","ag":["Réseau scolaire interurbain ZOU !"],"lt":0,"dept":"05"}},{"type":"Feature","geometry":{"type":"Point","coordinates":[5.85081,44.35174]},"properties":{"nom":"Pradon","ag":["Réseau scolaire interurbain ZOU !"],"lt":0,"dept":"05"}},{"type":"Feature","geometry":{"type":"Point","coordinates":[5.84129,44.34568]},"properties":{"nom":"Lazer - Mairie","ag":["Réseau scolaire interurbain ZOU !"],"lt":0,"dept":"05"}},{"type":"Feature","geometry":{"type":"Point","coordinates":[5.94396,44.38574]},"properties":{"nom":"Monêtier Alt. - Place Village","ag":["Réseau scolaire interurbain ZOU !"],"lt":0,"dept":"05"}},{"type":"Feature","geometry":{"type":"Point","coordinates":[5.91655,44.38327]},"properties":{"nom":"Pibert","ag":["Réseau scolaire interurbain ZOU !"],"lt":0,"dept":"05"}},{"type":"Feature","geometry":{"type":"Point","coordinates":[5.90293,44.37439]},"properties":{"nom":"La Peyrouse","ag":["Réseau scolaire interurbain ZOU !"],"lt":0,"dept":"05"}},{"type":"Feature","geometry":{"type":"Point","coordinates":[5.89057,44.3645]},"properties":{"nom":"Le Trouquet","ag":["Réseau scolaire interurbain ZOU !"],"lt":0,"dept":"05"}},{"type":"Feature","geometry":{"type":"Point","coordinates":[6.62905,44.6778]},"properties":{"nom":"Les Ardoins","ag":["Réseau scolaire interurbain ZOU !"],"lt":0,"dept":"05"}},{"type":"Feature","geometry":{"type":"Point","coordinates":[6.63421,44.67642]},"properties":{"nom":"Village Eglise","ag":["Réseau scolaire interurbain ZOU !"],"lt":0,"dept":"05"}},{"type":"Feature","geometry":{"type":"Point","coordinates":[6.63396,44.6789]},"properties":{"nom":"La Rua d'Alay","ag":["Réseau scolaire interurbain ZOU !"],"lt":0,"dept":"05"}},{"type":"Feature","geometry":{"type":"Point","coordinates":[6.62898,44.68272]},"properties":{"nom":"La Frairie","ag":["Réseau scolaire interurbain ZOU !"],"lt":0,"dept":"05"}},{"type":"Feature","geometry":{"type":"Point","coordinates":[6.62375,44.68186]},"properties":{"nom":"Le Cros","ag":["Réseau scolaire interurbain ZOU !"],"lt":0,"dept":"05"}},{"type":"Feature","geometry":{"type":"Point","coordinates":[6.61828,44.67708]},"properties":{"nom":"École de la Gare","ag":["Réseau scolaire interurbain ZOU !"],"lt":0,"dept":"05"}},{"type":"Feature","geometry":{"type":"Point","coordinates":[6.58922,44.66293]},"properties":{"nom":"Cabine Téléphonique","ag":["Réseau scolaire interurbain ZOU !"],"lt":0,"dept":"05"}},{"type":"Feature","geometry":{"type":"Point","coordinates":[6.5842,44.65631]},"properties":{"nom":"École de la Fraxinelle","ag":["Réseau scolaire interurbain ZOU !"],"lt":0,"dept":"05"}},{"type":"Feature","geometry":{"type":"Point","coordinates":[6.60179,44.67078]},"properties":{"nom":"Le Cros Village","ag":["Réseau scolaire interurbain ZOU !"],"lt":0,"dept":"05"}},{"type":"Feature","geometry":{"type":"Point","coordinates":[6.61476,44.6712]},"properties":{"nom":"La Laiterie","ag":["Réseau scolaire interurbain ZOU !"],"lt":0,"dept":"05"}},{"type":"Feature","geometry":{"type":"Point","coordinates":[6.6386,44.6503]},"properties":{"nom":"École de Risoul","ag":["Réseau scolaire interurbain ZOU !"],"lt":0,"dept":"05"}},{"type":"Feature","geometry":{"type":"Point","coordinates":[6.68371,44.5788]},"properties":{"nom":"Les Claux Allée Viko","ag":["Réseau scolaire interurbain ZOU !"],"lt":0,"dept":"05"}},{"type":"Feature","geometry":{"type":"Point","coordinates":[6.69435,44.60239]},"properties":{"nom":"Sainte Catherine École","ag":["Réseau scolaire interurbain ZOU !"],"lt":0,"dept":"05"}},{"type":"Feature","geometry":{"type":"Point","coordinates":[6.87029,44.69874]},"properties":{"nom":"Chalet le Villard","ag":["Réseau scolaire interurbain ZOU !"],"lt":0,"dept":"05"}},{"type":"Feature","geometry":{"type":"Point","coordinates":[6.86798,44.7005]},"properties":{"nom":"École de Saint Véran","ag":["Réseau scolaire interurbain ZOU !"],"lt":0,"dept":"05"}},{"type":"Feature","geometry":{"type":"Point","coordinates":[6.84337,44.73054]},"properties":{"nom":"École de Molines","ag":["Réseau scolaire interurbain ZOU !"],"lt":0,"dept":"05"}},{"type":"Feature","geometry":{"type":"Point","coordinates":[6.79435,44.75734]},"properties":{"nom":"Autocars Audier","ag":["Réseau scolaire interurbain ZOU !"],"lt":0,"dept":"05"}},{"type":"Feature","geometry":{"type":"Point","coordinates":[6.80818,44.75913]},"properties":{"nom":"Zone Artisanale Le Brasq","ag":["Réseau scolaire interurbain ZOU !"],"lt":0,"dept":"05"}},{"type":"Feature","geometry":{"type":"Point","coordinates":[6.73786,44.76857]},"properties":{"nom":"Arvieux-Ecole Office de Tourisme","ag":["Réseau scolaire interurbain ZOU !"],"lt":0,"dept":"05"}},{"type":"Feature","geometry":{"type":"Point","coordinates":[6.19841,44.42849]},"properties":{"nom":"Bréziers Parking","ag":["Réseau scolaire interurbain ZOU !"],"lt":0,"dept":"05"}},{"type":"Feature","geometry":{"type":"Point","coordinates":[6.20237,44.43519]},"properties":{"nom":"Le Puy","ag":["Réseau scolaire interurbain ZOU !"],"lt":0,"dept":"05"}},{"type":"Feature","geometry":{"type":"Point","coordinates":[6.16526,44.46779]},"properties":{"nom":"École de Remollon","ag":["Réseau scolaire interurbain ZOU !"],"lt":0,"dept":"05"}},{"type":"Feature","geometry":{"type":"Point","coordinates":[6.17649,44.45647]},"properties":{"nom":"Mairie","ag":["Réseau scolaire interurbain ZOU !"],"lt":0,"dept":"05"}},{"type":"Feature","geometry":{"type":"Point","coordinates":[6.19065,44.46385]},"properties":{"nom":"École de Théus","ag":["Réseau scolaire interurbain ZOU !"],"lt":0,"dept":"05"}},{"type":"Feature","geometry":{"type":"Point","coordinates":[6.16145,44.50264]},"properties":{"nom":"École de St Etienne Le Laus","ag":["Réseau scolaire interurbain ZOU !"],"lt":0,"dept":"05"}},{"type":"Feature","geometry":{"type":"Point","coordinates":[6.12582,44.48696]},"properties":{"nom":"Ecole de Valserres","ag":["Réseau scolaire interurbain ZOU !"],"lt":0,"dept":"05"}},{"type":"Feature","geometry":{"type":"Point","coordinates":[6.16794,44.51948]},"properties":{"nom":"L'Hôpital","ag":["Réseau scolaire interurbain ZOU !"],"lt":0,"dept":"05"}},{"type":"Feature","geometry":{"type":"Point","coordinates":[6.18514,44.52532]},"properties":{"nom":"Avançon - Village","ag":["Réseau scolaire interurbain ZOU !"],"lt":0,"dept":"05"}},{"type":"Feature","geometry":{"type":"Point","coordinates":[6.17363,44.51587]},"properties":{"nom":"Chaussenoire Hameau","ag":["Réseau scolaire interurbain ZOU !"],"lt":0,"dept":"05"}},{"type":"Feature","geometry":{"type":"Point","coordinates":[6.1751,44.54191]},"properties":{"nom":"Les Santons","ag":["Réseau scolaire interurbain ZOU !"],"lt":0,"dept":"05"}},{"type":"Feature","geometry":{"type":"Point","coordinates":[6.16322,44.53903]},"properties":{"nom":"Les Guérins","ag":["Réseau scolaire interurbain ZOU !"],"lt":0,"dept":"05"}},{"type":"Feature","geometry":{"type":"Point","coordinates":[6.16245,44.55382]},"properties":{"nom":"La Bâtie-Vieille - Village","ag":["Réseau scolaire interurbain ZOU !"],"lt":0,"dept":"05"}},{"type":"Feature","geometry":{"type":"Point","coordinates":[6.16068,44.55664]},"properties":{"nom":"Thomasse","ag":["Réseau scolaire interurbain ZOU !"],"lt":0,"dept":"05"}},{"type":"Feature","geometry":{"type":"Point","coordinates":[6.13701,44.5554]},"properties":{"nom":"La Moutouse","ag":["Réseau scolaire interurbain ZOU !"],"lt":0,"dept":"05"}},{"type":"Feature","geometry":{"type":"Point","coordinates":[6.12813,44.54906]},"properties":{"nom":"Les Girons","ag":["Réseau scolaire interurbain ZOU !"],"lt":0,"dept":"05"}},{"type":"Feature","geometry":{"type":"Point","coordinates":[6.12141,44.55694]},"properties":{"nom":"Saint-Roch","ag":["Réseau scolaire interurbain ZOU !"],"lt":0,"dept":"05"}},{"type":"Feature","geometry":{"type":"Point","coordinates":[6.20004,44.55546]},"properties":{"nom":"Les Catinons","ag":["Réseau scolaire interurbain ZOU !"],"lt":0,"dept":"05"}},{"type":"Feature","geometry":{"type":"Point","coordinates":[6.12656,44.49138]},"properties":{"nom":"Coopérative Vinicole","ag":["Réseau scolaire interurbain ZOU !"],"lt":0,"dept":"05"}},{"type":"Feature","geometry":{"type":"Point","coordinates":[6.15961,44.50476]},"properties":{"nom":"Bas du Village","ag":["Réseau scolaire interurbain ZOU !"],"lt":0,"dept":"05"}},{"type":"Feature","geometry":{"type":"Point","coordinates":[6.17038,44.51705]},"properties":{"nom":"Chaussenoire RD942","ag":["Réseau scolaire interurbain ZOU !"],"lt":0,"dept":"05"}},{"type":"Feature","geometry":{"type":"Point","coordinates":[6.17461,44.52288]},"properties":{"nom":"Pré Remollon","ag":["Réseau scolaire interurbain ZOU !"],"lt":0,"dept":"05"}},{"type":"Feature","geometry":{"type":"Point","coordinates":[6.18879,44.53567]},"properties":{"nom":"La Plaine La Poterie","ag":["Réseau scolaire interurbain ZOU !"],"lt":0,"dept":"05"}},{"type":"Feature","geometry":{"type":"Point","coordinates":[6.19781,44.54488]},"properties":{"nom":"Les Guions F. Eyraud","ag":["Réseau scolaire interurbain ZOU !"],"lt":0,"dept":"05"}},{"type":"Feature","geometry":{"type":"Point","coordinates":[6.44415,44.55534]},"properties":{"nom":"Le Serre","ag":["Réseau scolaire interurbain ZOU !"],"lt":0,"dept":"05"}},{"type":"Feature","geometry":{"type":"Point","coordinates":[6.43689,44.55647]},"properties":{"nom":"Mairie les Truchets","ag":["Réseau scolaire interurbain ZOU !"],"lt":0,"dept":"05"}},{"type":"Feature","geometry":{"type":"Point","coordinates":[6.4309,44.55817]},"properties":{"nom":"Les Bouteils","ag":["Réseau scolaire interurbain ZOU !"],"lt":0,"dept":"05"}},{"type":"Feature","geometry":{"type":"Point","coordinates":[6.42394,44.54843]},"properties":{"nom":"Pibou Haut","ag":["Réseau scolaire interurbain ZOU !"],"lt":0,"dept":"05"}},{"type":"Feature","geometry":{"type":"Point","coordinates":[6.41925,44.54741]},"properties":{"nom":"Pibou Bas","ag":["Réseau scolaire interurbain ZOU !"],"lt":0,"dept":"05"}},{"type":"Feature","geometry":{"type":"Point","coordinates":[6.42102,44.5601]},"properties":{"nom":"Les Mourelons","ag":["Réseau scolaire interurbain ZOU !"],"lt":0,"dept":"05"}},{"type":"Feature","geometry":{"type":"Point","coordinates":[6.40126,44.56688]},"properties":{"nom":"École du Villard","ag":["Réseau scolaire interurbain ZOU !"],"lt":0,"dept":"05"}},{"type":"Feature","geometry":{"type":"Point","coordinates":[6.40467,44.56261]},"properties":{"nom":"Les Michels","ag":["Réseau scolaire interurbain ZOU !"],"lt":0,"dept":"05"}},{"type":"Feature","geometry":{"type":"Point","coordinates":[6.41136,44.5623]},"properties":{"nom":"Nouveau Village","ag":["Réseau scolaire interurbain ZOU !"],"lt":0,"dept":"05"}},{"type":"Feature","geometry":{"type":"Point","coordinates":[6.36354,44.59545]},"properties":{"nom":"Réallon Village","ag":["Réseau scolaire interurbain ZOU !"],"lt":0,"dept":"05"}},{"type":"Feature","geometry":{"type":"Point","coordinates":[6.38207,44.58534]},"properties":{"nom":"Les Méans","ag":["Réseau scolaire interurbain ZOU !"],"lt":0,"dept":"05"}},{"type":"Feature","geometry":{"type":"Point","coordinates":[6.37736,44.5779]},"properties":{"nom":"École des Rousses","ag":["Réseau scolaire interurbain ZOU !"],"lt":0,"dept":"05"}},{"type":"Feature","geometry":{"type":"Point","coordinates":[6.61593,44.67467]},"properties":{"nom":"Mont-Dauphin - Gare SNCF","ag":["Réseau scolaire interurbain ZOU !","Trains régionaux ZOU !","Réseaux urbains de la Métropole Aix-Marseille-Provence","Réseau interurbain Express ZOU !"],"lt":0,"dept":"05"}},{"type":"Feature","geometry":{"type":"Point","coordinates":[6.37974,44.57225]},"properties":{"nom":"Giratoire Station","ag":["Réseau scolaire interurbain ZOU !"],"lt":0,"dept":"05"}},{"type":"Feature","geometry":{"type":"Point","coordinates":[6.36201,44.55532]},"properties":{"nom":"St-Apollinaire Village","ag":["Réseau scolaire interurbain ZOU !"],"lt":0,"dept":"05"}},{"type":"Feature","geometry":{"type":"Point","coordinates":[6.36587,44.57721]},"properties":{"nom":"Pra Prunier","ag":["Réseau scolaire interurbain ZOU !"],"lt":0,"dept":"05"}},{"type":"Feature","geometry":{"type":"Point","coordinates":[6.31494,44.47948]},"properties":{"nom":"La Sauze du Lac - Village","ag":["Réseau scolaire interurbain ZOU !"],"lt":0,"dept":"05"}},{"type":"Feature","geometry":{"type":"Point","coordinates":[6.34163,44.49431]},"properties":{"nom":"Demoiselles Coiffées","ag":["Réseau scolaire interurbain ZOU !"],"lt":0,"dept":"05"}},{"type":"Feature","geometry":{"type":"Point","coordinates":[6.34544,44.49923]},"properties":{"nom":"La Palatrière","ag":["Réseau scolaire interurbain ZOU !"],"lt":0,"dept":"05"}},{"type":"Feature","geometry":{"type":"Point","coordinates":[6.47864,44.54229]},"properties":{"nom":"Les Bartavelles","ag":["Réseau scolaire interurbain ZOU !"],"lt":0,"dept":"05"}},{"type":"Feature","geometry":{"type":"Point","coordinates":[6.44563,44.53183]},"properties":{"nom":"Boscodon","ag":["Réseau scolaire interurbain ZOU !"],"lt":0,"dept":"05"}},{"type":"Feature","geometry":{"type":"Point","coordinates":[6.46918,44.53357]},"properties":{"nom":"Crots Village Ecole","ag":["Réseau scolaire interurbain ZOU !"],"lt":0,"dept":"05"}},{"type":"Feature","geometry":{"type":"Point","coordinates":[6.45812,44.52153]},"properties":{"nom":"Beauvillard Chapelle","ag":["Réseau scolaire interurbain ZOU !"],"lt":0,"dept":"05"}},{"type":"Feature","geometry":{"type":"Point","coordinates":[6.45648,44.51877]},"properties":{"nom":"Les Chabriers","ag":["Réseau scolaire interurbain ZOU !"],"lt":0,"dept":"05"}},{"type":"Feature","geometry":{"type":"Point","coordinates":[6.46137,44.51545]},"properties":{"nom":"Chaulières Bas","ag":["Réseau scolaire interurbain ZOU !"],"lt":0,"dept":"05"}},{"type":"Feature","geometry":{"type":"Point","coordinates":[6.46865,44.51125]},"properties":{"nom":"Saint Jean","ag":["Réseau scolaire interurbain ZOU !"],"lt":0,"dept":"05"}},{"type":"Feature","geometry":{"type":"Point","coordinates":[6.47158,44.51609]},"properties":{"nom":"Le Drouvet","ag":["Réseau scolaire interurbain ZOU !"],"lt":0,"dept":"05"}},{"type":"Feature","geometry":{"type":"Point","coordinates":[6.46763,44.52168]},"properties":{"nom":"Le Forest Haut","ag":["Réseau scolaire interurbain ZOU !"],"lt":0,"dept":"05"}},{"type":"Feature","geometry":{"type":"Point","coordinates":[6.45134,44.53077]},"properties":{"nom":"Les Moulins","ag":["Réseau scolaire interurbain ZOU !"],"lt":0,"dept":"05"}},{"type":"Feature","geometry":{"type":"Point","coordinates":[6.55293,44.50541]},"properties":{"nom":"École du Mélezet","ag":["Réseau scolaire interurbain ZOU !"],"lt":0,"dept":"05"}},{"type":"Feature","geometry":{"type":"Point","coordinates":[6.51992,44.54106]},"properties":{"nom":"Eglise de Saint-Sauveur","ag":["Réseau scolaire interurbain ZOU !"],"lt":0,"dept":"05"}},{"type":"Feature","geometry":{"type":"Point","coordinates":[6.5189,44.53759]},"properties":{"nom":"Dessous de L'Eglise","ag":["Réseau scolaire interurbain ZOU !"],"lt":0,"dept":"05"}},{"type":"Feature","geometry":{"type":"Point","coordinates":[6.5199,44.52957]},"properties":{"nom":"Les Garcins Hameau","ag":["Réseau scolaire interurbain ZOU !"],"lt":0,"dept":"05"}},{"type":"Feature","geometry":{"type":"Point","coordinates":[6.49363,44.53836]},"properties":{"nom":"École de Baratier","ag":["Réseau scolaire interurbain ZOU !"],"lt":0,"dept":"05"}},{"type":"Feature","geometry":{"type":"Point","coordinates":[6.62325,44.54789]},"properties":{"nom":"La Chalp","ag":["Réseau scolaire interurbain ZOU !","Navettes hivernales réseau Vaï"],"lt":0,"dept":"05"}},{"type":"Feature","geometry":{"type":"Point","coordinates":[6.60772,44.54794]},"properties":{"nom":"Crévoux - Mairie","ag":["Réseau scolaire interurbain ZOU !"],"lt":0,"dept":"05"}},{"type":"Feature","geometry":{"type":"Point","coordinates":[6.59584,44.54934]},"properties":{"nom":"Praveyral","ag":["Réseau scolaire interurbain ZOU !","Navettes hivernales réseau Vaï"],"lt":0,"dept":"05"}},{"type":"Feature","geometry":{"type":"Point","coordinates":[6.56004,44.55739]},"properties":{"nom":"Champ Rond","ag":["Réseau scolaire interurbain ZOU !"],"lt":0,"dept":"05"}},{"type":"Feature","geometry":{"type":"Point","coordinates":[6.54666,44.56482]},"properties":{"nom":"Le Villard","ag":["Réseau scolaire interurbain ZOU !"],"lt":0,"dept":"05"}},{"type":"Feature","geometry":{"type":"Point","coordinates":[6.5211,44.5672]},"properties":{"nom":"Serre Bellon","ag":["Réseau scolaire interurbain ZOU !"],"lt":0,"dept":"05"}},{"type":"Feature","geometry":{"type":"Point","coordinates":[6.53681,44.56757]},"properties":{"nom":"La Gardiole","ag":["Réseau scolaire interurbain ZOU !"],"lt":0,"dept":"05"}},{"type":"Feature","geometry":{"type":"Point","coordinates":[6.53458,44.57267]},"properties":{"nom":"Les Rencureaux","ag":["Réseau scolaire interurbain ZOU !"],"lt":0,"dept":"05"}},{"type":"Feature","geometry":{"type":"Point","coordinates":[6.5324,44.58041]},"properties":{"nom":"Jaumare Rauffes","ag":["Réseau scolaire interurbain ZOU !"],"lt":0,"dept":"05"}},{"type":"Feature","geometry":{"type":"Point","coordinates":[6.52873,44.58247]},"properties":{"nom":"La Pinée","ag":["Réseau scolaire interurbain ZOU !"],"lt":0,"dept":"05"}},{"type":"Feature","geometry":{"type":"Point","coordinates":[6.5345,44.58666]},"properties":{"nom":"École de Saint André","ag":["Réseau scolaire interurbain ZOU !"],"lt":0,"dept":"05"}},{"type":"Feature","geometry":{"type":"Point","coordinates":[6.55078,44.6089]},"properties":{"nom":"Siguret","ag":["Réseau scolaire interurbain ZOU !"],"lt":0,"dept":"05"}},{"type":"Feature","geometry":{"type":"Point","coordinates":[6.54758,44.60358]},"properties":{"nom":"Chabret le Serre","ag":["Réseau scolaire interurbain ZOU !"],"lt":0,"dept":"05"}},{"type":"Feature","geometry":{"type":"Point","coordinates":[6.52443,44.57478]},"properties":{"nom":"Les Clozards","ag":["Réseau scolaire interurbain ZOU !"],"lt":0,"dept":"05"}},{"type":"Feature","geometry":{"type":"Point","coordinates":[6.5173,44.56274]},"properties":{"nom":"Moulin Céard","ag":["Réseau scolaire interurbain ZOU !"],"lt":0,"dept":"05"}},{"type":"Feature","geometry":{"type":"Point","coordinates":[6.50075,44.54865]},"properties":{"nom":"Parc de Beauregard","ag":["Réseau scolaire interurbain ZOU !"],"lt":0,"dept":"05"}},{"type":"Feature","geometry":{"type":"Point","coordinates":[6.54231,44.6003]},"properties":{"nom":"La Place","ag":["Réseau scolaire interurbain ZOU !"],"lt":0,"dept":"05"}},{"type":"Feature","geometry":{"type":"Point","coordinates":[6.53554,44.59185]},"properties":{"nom":"Le Milieu","ag":["Réseau scolaire interurbain ZOU !"],"lt":0,"dept":"05"}},{"type":"Feature","geometry":{"type":"Point","coordinates":[6.02594,44.78121]},"properties":{"nom":"Ecole de St Firmin","ag":["Réseau scolaire interurbain ZOU !"],"lt":0,"dept":"05"}},{"type":"Feature","geometry":{"type":"Point","coordinates":[6.19405,44.81712]},"properties":{"nom":"La Chapelle - Village","ag":["Réseau scolaire interurbain ZOU !"],"lt":0,"dept":"05"}},{"type":"Feature","geometry":{"type":"Point","coordinates":[6.166,44.8206]},"properties":{"nom":"Les Andrieux","ag":["Réseau scolaire interurbain ZOU !"],"lt":0,"dept":"05"}},{"type":"Feature","geometry":{"type":"Point","coordinates":[6.1447,44.82571]},"properties":{"nom":"Villar-Loubière Village","ag":["Réseau scolaire interurbain ZOU !"],"lt":0,"dept":"05"}},{"type":"Feature","geometry":{"type":"Point","coordinates":[6.12905,44.82095]},"properties":{"nom":"La Loubière","ag":["Réseau scolaire interurbain ZOU !"],"lt":0,"dept":"05"}},{"type":"Feature","geometry":{"type":"Point","coordinates":[6.12184,44.81878]},"properties":{"nom":"Colombeugne","ag":["Réseau scolaire interurbain ZOU !"],"lt":0,"dept":"05"}},{"type":"Feature","geometry":{"type":"Point","coordinates":[6.11261,44.81194]},"properties":{"nom":"Le Roux","ag":["Réseau scolaire interurbain ZOU !"],"lt":0,"dept":"05"}},{"type":"Feature","geometry":{"type":"Point","coordinates":[6.096,44.80404]},"properties":{"nom":"St-Maurice - Village","ag":["Réseau scolaire interurbain ZOU !"],"lt":0,"dept":"05"}},{"type":"Feature","geometry":{"type":"Point","coordinates":[6.10962,44.80631]},"properties":{"nom":"Lubac Foyer","ag":["Réseau scolaire interurbain ZOU !"],"lt":0,"dept":"05"}},{"type":"Feature","geometry":{"type":"Point","coordinates":[6.03584,44.77452]},"properties":{"nom":"L'Allée","ag":["Réseau scolaire interurbain ZOU !"],"lt":0,"dept":"05"}},{"type":"Feature","geometry":{"type":"Point","coordinates":[6.07825,44.68017]},"properties":{"nom":"Collège Saint Bonnet","ag":["Réseau scolaire interurbain ZOU !","Réseau interurbain bus Proximité ZOU !"],"lt":0,"dept":"05"}},{"type":"Feature","geometry":{"type":"Point","coordinates":[6.03387,44.74553]},"properties":{"nom":"Les Costes Village","ag":["Réseau scolaire interurbain ZOU !","Réseau interurbain bus Proximité ZOU !"],"lt":0,"dept":"05"}},{"type":"Feature","geometry":{"type":"Point","coordinates":[6.00817,44.75575]},"properties":{"nom":"Ecole de Chauffayer","ag":["Réseau scolaire interurbain ZOU !"],"lt":0,"dept":"05"}},{"type":"Feature","geometry":{"type":"Point","coordinates":[5.99241,44.73993]},"properties":{"nom":"Pouillardencq","ag":["Réseau scolaire interurbain ZOU !"],"lt":0,"dept":"05"}},{"type":"Feature","geometry":{"type":"Point","coordinates":[5.98441,44.75265]},"properties":{"nom":"Le Glaizil - Village","ag":["Réseau scolaire interurbain ZOU !"],"lt":0,"dept":"05"}},{"type":"Feature","geometry":{"type":"Point","coordinates":[6.00433,44.72647]},"properties":{"nom":"Lacou","ag":["Réseau scolaire interurbain ZOU !"],"lt":0,"dept":"05"}},{"type":"Feature","geometry":{"type":"Point","coordinates":[6.01372,44.71325]},"properties":{"nom":"Les Evarras","ag":["Réseau scolaire interurbain ZOU !"],"lt":0,"dept":"05"}},{"type":"Feature","geometry":{"type":"Point","coordinates":[6.01632,44.70266]},"properties":{"nom":"Le Serre","ag":["Réseau scolaire interurbain ZOU !"],"lt":0,"dept":"05"}},{"type":"Feature","geometry":{"type":"Point","coordinates":[6.01552,44.6984]},"properties":{"nom":"Le Marthouret","ag":["Réseau scolaire interurbain ZOU !"],"lt":0,"dept":"05"}},{"type":"Feature","geometry":{"type":"Point","coordinates":[6.01435,44.69456]},"properties":{"nom":"Le Villard","ag":["Réseau scolaire interurbain ZOU !"],"lt":0,"dept":"05"}},{"type":"Feature","geometry":{"type":"Point","coordinates":[6.01032,44.69035]},"properties":{"nom":"Claret","ag":["Réseau scolaire interurbain ZOU !"],"lt":0,"dept":"05"}},{"type":"Feature","geometry":{"type":"Point","coordinates":[6.02916,44.68963]},"properties":{"nom":"Les Forestons","ag":["Réseau scolaire interurbain ZOU !"],"lt":0,"dept":"05"}},{"type":"Feature","geometry":{"type":"Point","coordinates":[6.03707,44.70072]},"properties":{"nom":"Villeneuve","ag":["Réseau scolaire interurbain ZOU !"],"lt":0,"dept":"05"}},{"type":"Feature","geometry":{"type":"Point","coordinates":[6.04799,44.69176]},"properties":{"nom":"Poligny - Village","ag":["Réseau scolaire interurbain ZOU !"],"lt":0,"dept":"05"}},{"type":"Feature","geometry":{"type":"Point","coordinates":[6.01193,44.69766]},"properties":{"nom":"La Ville","ag":["Réseau scolaire interurbain ZOU !"],"lt":0,"dept":"05"}},{"type":"Feature","geometry":{"type":"Point","coordinates":[6.07321,44.643]},"properties":{"nom":"Station de Laye","ag":["Réseau scolaire interurbain ZOU !"],"lt":0,"dept":"05"}},{"type":"Feature","geometry":{"type":"Point","coordinates":[6.08101,44.63655]},"properties":{"nom":"Les Boissets","ag":["Réseau scolaire interurbain ZOU !"],"lt":0,"dept":"05"}},{"type":"Feature","geometry":{"type":"Point","coordinates":[6.11298,44.64375]},"properties":{"nom":"École","ag":["Réseau scolaire interurbain ZOU !"],"lt":0,"dept":"05"}},{"type":"Feature","geometry":{"type":"Point","coordinates":[6.13072,44.64509]},"properties":{"nom":"Place Village","ag":["Réseau scolaire interurbain ZOU !"],"lt":0,"dept":"05"}},{"type":"Feature","geometry":{"type":"Point","coordinates":[6.17535,44.65613]},"properties":{"nom":"Chabottes - Village","ag":["Réseau scolaire interurbain ZOU !","Réseau interurbain bus Proximité ZOU !"],"lt":0,"dept":"05"}},{"type":"Feature","geometry":{"type":"Point","coordinates":[6.17107,44.64403]},"properties":{"nom":"École de Chabottes","ag":["Réseau scolaire interurbain ZOU !"],"lt":0,"dept":"05"}},{"type":"Feature","geometry":{"type":"Point","coordinates":[6.19756,44.64239]},"properties":{"nom":"Parking Station","ag":["Réseau scolaire interurbain ZOU !"],"lt":0,"dept":"05"}},{"type":"Feature","geometry":{"type":"Point","coordinates":[6.21223,44.65251]},"properties":{"nom":"Les Forests","ag":["Réseau scolaire interurbain ZOU !"],"lt":0,"dept":"05"}},{"type":"Feature","geometry":{"type":"Point","coordinates":[6.2174,44.66917]},"properties":{"nom":"Saint Jean","ag":["Réseau scolaire interurbain ZOU !","Réseau interurbain bus Proximité ZOU !"],"lt":0,"dept":"05"}},{"type":"Feature","geometry":{"type":"Point","coordinates":[6.19281,44.66071]},"properties":{"nom":"Chabottonnes","ag":["Réseau scolaire interurbain ZOU !"],"lt":0,"dept":"05"}},{"type":"Feature","geometry":{"type":"Point","coordinates":[6.14436,44.65453]},"properties":{"nom":"Les Bedoux","ag":["Réseau scolaire interurbain ZOU !"],"lt":0,"dept":"05"}},{"type":"Feature","geometry":{"type":"Point","coordinates":[6.14004,44.65816]},"properties":{"nom":"Les Rissents","ag":["Réseau scolaire interurbain ZOU !"],"lt":0,"dept":"05"}},{"type":"Feature","geometry":{"type":"Point","coordinates":[6.12723,44.65867]},"properties":{"nom":"St-Julien - Village","ag":["Réseau scolaire interurbain ZOU !"],"lt":0,"dept":"05"}},{"type":"Feature","geometry":{"type":"Point","coordinates":[6.1022,44.66422]},"properties":{"nom":"Les Gourias","ag":["Réseau scolaire interurbain ZOU !"],"lt":0,"dept":"05"}},{"type":"Feature","geometry":{"type":"Point","coordinates":[6.20971,44.66704]},"properties":{"nom":"Plein Soleil","ag":["Réseau scolaire interurbain ZOU !"],"lt":0,"dept":"05"}},{"type":"Feature","geometry":{"type":"Point","coordinates":[6.21678,44.67626]},"properties":{"nom":"Les Bonnets","ag":["Réseau scolaire interurbain ZOU !"],"lt":0,"dept":"05"}},{"type":"Feature","geometry":{"type":"Point","coordinates":[6.24854,44.72785]},"properties":{"nom":"Les Fermonds","ag":["Réseau scolaire interurbain ZOU !"],"lt":0,"dept":"05"}},{"type":"Feature","geometry":{"type":"Point","coordinates":[6.2592,44.72057]},"properties":{"nom":"Les Borels","ag":["Réseau scolaire interurbain ZOU !"],"lt":0,"dept":"05"}},{"type":"Feature","geometry":{"type":"Point","coordinates":[6.26535,44.70879]},"properties":{"nom":"Les Martins","ag":["Réseau scolaire interurbain ZOU !"],"lt":0,"dept":"05"}},{"type":"Feature","geometry":{"type":"Point","coordinates":[6.10011,44.66454]},"properties":{"nom":"Coste Joffre","ag":["Réseau scolaire interurbain ZOU !"],"lt":0,"dept":"05"}},{"type":"Feature","geometry":{"type":"Point","coordinates":[6.08427,44.67317]},"properties":{"nom":"Chanalettes Bas","ag":["Réseau scolaire interurbain ZOU !"],"lt":0,"dept":"05"}},{"type":"Feature","geometry":{"type":"Point","coordinates":[6.15417,44.68535]},"properties":{"nom":"Chaillolet","ag":["Réseau scolaire interurbain ZOU !","Réseau interurbain bus Proximité ZOU !"],"lt":0,"dept":"05"}},{"type":"Feature","geometry":{"type":"Point","coordinates":[6.1662,44.68879]},"properties":{"nom":"Station 1600","ag":["Réseau scolaire interurbain ZOU !","Réseau interurbain bus Proximité ZOU !"],"lt":0,"dept":"05"}},{"type":"Feature","geometry":{"type":"Point","coordinates":[6.16727,44.68173]},"properties":{"nom":"École Mairie","ag":["Réseau scolaire interurbain ZOU !"],"lt":0,"dept":"05"}},{"type":"Feature","geometry":{"type":"Point","coordinates":[6.17068,44.67881]},"properties":{"nom":"École des Marrons","ag":["Réseau scolaire interurbain ZOU !"],"lt":0,"dept":"05"}},{"type":"Feature","geometry":{"type":"Point","coordinates":[6.16289,44.67614]},"properties":{"nom":"La Villette Abri","ag":["Réseau scolaire interurbain ZOU !","Réseau interurbain bus Proximité ZOU !"],"lt":0,"dept":"05"}},{"type":"Feature","geometry":{"type":"Point","coordinates":[6.14581,44.66864]},"properties":{"nom":"Les Combettes","ag":["Réseau scolaire interurbain ZOU !"],"lt":0,"dept":"05"}},{"type":"Feature","geometry":{"type":"Point","coordinates":[6.14052,44.67117]},"properties":{"nom":"Chantaussel N°2","ag":["Réseau scolaire interurbain ZOU !"],"lt":0,"dept":"05"}},{"type":"Feature","geometry":{"type":"Point","coordinates":[6.12889,44.65991]},"properties":{"nom":"École de Saint Julien","ag":["Réseau scolaire interurbain ZOU !"],"lt":0,"dept":"05"}},{"type":"Feature","geometry":{"type":"Point","coordinates":[6.11775,44.66886]},"properties":{"nom":"Le Chanet N°1","ag":["Réseau scolaire interurbain ZOU !"],"lt":0,"dept":"05"}},{"type":"Feature","geometry":{"type":"Point","coordinates":[6.11106,44.68331]},"properties":{"nom":"Les Combes","ag":["Réseau scolaire interurbain ZOU !"],"lt":0,"dept":"05"}},{"type":"Feature","geometry":{"type":"Point","coordinates":[6.10129,44.68865]},"properties":{"nom":"Les Richards Bas","ag":["Réseau scolaire interurbain ZOU !"],"lt":0,"dept":"05"}},{"type":"Feature","geometry":{"type":"Point","coordinates":[6.10201,44.68433]},"properties":{"nom":"Villard Trottier","ag":["Réseau scolaire interurbain ZOU !"],"lt":0,"dept":"05"}},{"type":"Feature","geometry":{"type":"Point","coordinates":[6.09802,44.6785]},"properties":{"nom":"L'Aulagnier","ag":["Réseau scolaire interurbain ZOU !"],"lt":0,"dept":"05"}},{"type":"Feature","geometry":{"type":"Point","coordinates":[6.09128,44.68791]},"properties":{"nom":"Les Aliberts","ag":["Réseau scolaire interurbain ZOU !"],"lt":0,"dept":"05"}},{"type":"Feature","geometry":{"type":"Point","coordinates":[6.0858,44.68407]},"properties":{"nom":"Champ Magnane","ag":["Réseau scolaire interurbain ZOU !"],"lt":0,"dept":"05"}},{"type":"Feature","geometry":{"type":"Point","coordinates":[6.07825,44.68017]},"properties":{"nom":"Ecole de St Bonnet","ag":["Réseau scolaire interurbain ZOU !"],"lt":0,"dept":"05"}},{"type":"Feature","geometry":{"type":"Point","coordinates":[6.10561,44.69496]},"properties":{"nom":"Les Payas","ag":["Réseau scolaire interurbain ZOU !"],"lt":0,"dept":"05"}},{"type":"Feature","geometry":{"type":"Point","coordinates":[6.10436,44.69149]},"properties":{"nom":"Les Richards Hauts","ag":["Réseau scolaire interurbain ZOU !"],"lt":0,"dept":"05"}},{"type":"Feature","geometry":{"type":"Point","coordinates":[6.10366,44.69358]},"properties":{"nom":"Les Pelloux","ag":["Réseau scolaire interurbain ZOU !"],"lt":0,"dept":"05"}},{"type":"Feature","geometry":{"type":"Point","coordinates":[6.09134,44.6981]},"properties":{"nom":"Les Astiers","ag":["Réseau scolaire interurbain ZOU !"],"lt":0,"dept":"05"}},{"type":"Feature","geometry":{"type":"Point","coordinates":[6.08643,44.69761]},"properties":{"nom":"Les Gentillons","ag":["Réseau scolaire interurbain ZOU !"],"lt":0,"dept":"05"}},{"type":"Feature","geometry":{"type":"Point","coordinates":[6.07668,44.69219]},"properties":{"nom":"Peyre Vire","ag":["Réseau scolaire interurbain ZOU !"],"lt":0,"dept":"05"}},{"type":"Feature","geometry":{"type":"Point","coordinates":[6.067,44.71504]},"properties":{"nom":"Charbillac Hameau","ag":["Réseau scolaire interurbain ZOU !"],"lt":0,"dept":"05"}},{"type":"Feature","geometry":{"type":"Point","coordinates":[6.06824,44.70275]},"properties":{"nom":"Pisançon Hameau","ag":["Réseau scolaire interurbain ZOU !"],"lt":0,"dept":"05"}},{"type":"Feature","geometry":{"type":"Point","coordinates":[6.48578,44.55597]},"properties":{"nom":"Lycee Professionnel Alpes Durance","ag":["Réseau scolaire interurbain ZOU !"],"lt":0,"dept":"05"}},{"type":"Feature","geometry":{"type":"Point","coordinates":[6.61593,44.67467]},"properties":{"nom":"Gare SNCF Mont-Dauphin Guillestre","ag":["Réseau scolaire interurbain ZOU !","Réseau interurbain bus Proximité ZOU !"],"lt":0,"dept":"05"}},{"type":"Feature","geometry":{"type":"Point","coordinates":[6.11779,44.64193]},"properties":{"nom":"Serre Richard","ag":["Réseau scolaire interurbain ZOU !"],"lt":0,"dept":"05"}},{"type":"Feature","geometry":{"type":"Point","coordinates":[6.08345,44.66232]},"properties":{"nom":"Brutinel","ag":["Réseau scolaire interurbain ZOU !","Réseau interurbain bus Proximité ZOU !"],"lt":0,"dept":"05"}},{"type":"Feature","geometry":{"type":"Point","coordinates":[6.0663,44.78258]},"properties":{"nom":"Le Séchier Le Four","ag":["Réseau scolaire interurbain ZOU !"],"lt":0,"dept":"05"}},{"type":"Feature","geometry":{"type":"Point","coordinates":[6.11039,44.64401]},"properties":{"nom":"Village Mairie","ag":["Réseau scolaire interurbain ZOU !","Réseau interurbain bus Proximité ZOU !"],"lt":0,"dept":"05"}},{"type":"Feature","geometry":{"type":"Point","coordinates":[5.83418,44.33959]},"properties":{"nom":"Château Bon","ag":["Réseau scolaire interurbain ZOU !"],"lt":0,"dept":"05"}},{"type":"Feature","geometry":{"type":"Point","coordinates":[6.84751,44.72069]},"properties":{"nom":"La Crèche","ag":["Réseau scolaire interurbain ZOU !"],"lt":0,"dept":"05"}},{"type":"Feature","geometry":{"type":"Point","coordinates":[5.75414,44.4078]},"properties":{"nom":"Le Moularet","ag":["Réseau scolaire interurbain ZOU !"],"lt":0,"dept":"05"}},{"type":"Feature","geometry":{"type":"Point","coordinates":[6.49428,44.84093]},"properties":{"nom":"Saint Genest","ag":["Réseau scolaire interurbain ZOU !"],"lt":0,"dept":"05"}},{"type":"Feature","geometry":{"type":"Point","coordinates":[5.9324,44.67534]},