{"type":"FeatureCollection","features":[{"type":"Feature","geometry":{"type":"Point","coordinates":[2.57048,44.35509]},"properties":{"nom":"RUE DU 11 NOVEMBRE","ag":["Réseau urbain et scolaire Agglobus"],"lt":0,"dept":"12"}},{"type":"Feature","geometry":{"type":"Point","coordinates":[2.56799,44.35454]},"properties":{"nom":"122 EME RI","ag":["Réseau urbain et scolaire Agglobus"],"lt":0,"dept":"12"}},{"type":"Feature","geometry":{"type":"Point","coordinates":[2.56737,44.3547]},"properties":{"nom":"122 EME RI","ag":["Réseau urbain et scolaire Agglobus"],"lt":0,"dept":"12"}},{"type":"Feature","geometry":{"type":"Point","coordinates":[2.57735,44.3613]},"properties":{"nom":"18 JUIN","ag":["Réseau urbain et scolaire Agglobus"],"lt":0,"dept":"12"}},{"type":"Feature","geometry":{"type":"Point","coordinates":[2.57736,44.36158]},"properties":{"nom":"18 JUIN","ag":["Réseau urbain et scolaire Agglobus"],"lt":0,"dept":"12"}},{"type":"Feature","geometry":{"type":"Point","coordinates":[2.58115,44.34418]},"properties":{"nom":"LES QUATRE RIVES","ag":["Réseau urbain et scolaire Agglobus"],"lt":0,"dept":"12"}},{"type":"Feature","geometry":{"type":"Point","coordinates":[2.58103,44.34416]},"properties":{"nom":"LES QUATRE RIVES","ag":["Réseau urbain et scolaire Agglobus"],"lt":0,"dept":"12"}},{"type":"Feature","geometry":{"type":"Point","coordinates":[2.64601,44.3215]},"properties":{"nom":"LES QUATRES ROUTES","ag":["Réseau urbain et scolaire Agglobus"],"lt":0,"dept":"12"}},{"type":"Feature","geometry":{"type":"Point","coordinates":[2.5541,44.28579]},"properties":{"nom":"LES ACACIAS","ag":["Réseau urbain et scolaire Agglobus"],"lt":0,"dept":"12"}},{"type":"Feature","geometry":{"type":"Point","coordinates":[2.55396,44.2856]},"properties":{"nom":"LES ACACIAS","ag":["Réseau urbain et scolaire Agglobus"],"lt":0,"dept":"12"}},{"type":"Feature","geometry":{"type":"Point","coordinates":[2.51871,44.34414]},"properties":{"nom":"AGNAC","ag":["Réseau urbain et scolaire Agglobus"],"lt":0,"dept":"12"}},{"type":"Feature","geometry":{"type":"Point","coordinates":[2.57086,44.37943]},"properties":{"nom":"LES ALBATROS","ag":["Réseau urbain et scolaire Agglobus"],"lt":0,"dept":"12"}},{"type":"Feature","geometry":{"type":"Point","coordinates":[2.5619,44.31651]},"properties":{"nom":"LES AMOURALS","ag":["Réseau urbain et scolaire Agglobus"],"lt":0,"dept":"12"}},{"type":"Feature","geometry":{"type":"Point","coordinates":[2.56183,44.31677]},"properties":{"nom":"LES AMOURALS","ag":["Réseau urbain et scolaire Agglobus"],"lt":0,"dept":"12"}},{"type":"Feature","geometry":{"type":"Point","coordinates":[2.56877,44.35293]},"properties":{"nom":"L'AMPHITHEATRE","ag":["Réseau urbain et scolaire Agglobus"],"lt":0,"dept":"12"}},{"type":"Feature","geometry":{"type":"Point","coordinates":[2.56857,44.35302]},"properties":{"nom":"L'AMPHITHEATRE","ag":["Réseau urbain et scolaire Agglobus"],"lt":0,"dept":"12"}},{"type":"Feature","geometry":{"type":"Point","coordinates":[2.57932,44.34494]},"properties":{"nom":"LES ARCADES","ag":["Réseau urbain et scolaire Agglobus"],"lt":0,"dept":"12"}},{"type":"Feature","geometry":{"type":"Point","coordinates":[2.57943,44.34501]},"properties":{"nom":"LES ARCADES","ag":["Réseau urbain et scolaire Agglobus"],"lt":0,"dept":"12"}},{"type":"Feature","geometry":{"type":"Point","coordinates":[2.56817,44.34999]},"properties":{"nom":"AMANS RODAT","ag":["Réseau urbain et scolaire Agglobus"],"lt":0,"dept":"12"}},{"type":"Feature","geometry":{"type":"Point","coordinates":[2.56837,44.34966]},"properties":{"nom":"AMANS RODAT","ag":["Réseau urbain et scolaire Agglobus"],"lt":0,"dept":"12"}},{"type":"Feature","geometry":{"type":"Point","coordinates":[2.58185,44.36073]},"properties":{"nom":"AUBRAC","ag":["Réseau urbain et scolaire Agglobus"],"lt":0,"dept":"12"}},{"type":"Feature","geometry":{"type":"Point","coordinates":[2.58266,44.36076]},"properties":{"nom":"AUBRAC","ag":["Réseau urbain et scolaire Agglobus"],"lt":0,"dept":"12"}},{"type":"Feature","geometry":{"type":"Point","coordinates":[2.56423,44.36509]},"properties":{"nom":"L'AUVERGNE","ag":["Réseau urbain et scolaire Agglobus"],"lt":0,"dept":"12"}},{"type":"Feature","geometry":{"type":"Point","coordinates":[2.56325,44.36555]},"properties":{"nom":"L'AUVERGNE","ag":["Réseau urbain et scolaire Agglobus"],"lt":0,"dept":"12"}},{"type":"Feature","geometry":{"type":"Point","coordinates":[2.54961,44.37479]},"properties":{"nom":"AVENUE DU CAUSSE","ag":["Réseau urbain et scolaire Agglobus"],"lt":0,"dept":"12"}},{"type":"Feature","geometry":{"type":"Point","coordinates":[2.55011,44.3742]},"properties":{"nom":"AVENUE DU CAUSSE","ag":["Réseau urbain et scolaire Agglobus"],"lt":0,"dept":"12"}},{"type":"Feature","geometry":{"type":"Point","coordinates":[2.54661,44.37388]},"properties":{"nom":"AVENUE DES EBENISTES","ag":["Réseau urbain et scolaire Agglobus"],"lt":0,"dept":"12"}},{"type":"Feature","geometry":{"type":"Point","coordinates":[2.54699,44.37403]},"properties":{"nom":"AVENUE DES EBENISTES","ag":["Réseau urbain et scolaire Agglobus"],"lt":0,"dept":"12"}},{"type":"Feature","geometry":{"type":"Point","coordinates":[2.56751,44.34295]},"properties":{"nom":"L'AVEYRON","ag":["Réseau urbain et scolaire Agglobus"],"lt":0,"dept":"12"}},{"type":"Feature","geometry":{"type":"Point","coordinates":[2.56725,44.3429]},"properties":{"nom":"L'AVEYRON","ag":["Réseau urbain et scolaire Agglobus"],"lt":0,"dept":"12"}},{"type":"Feature","geometry":{"type":"Point","coordinates":[2.58189,44.35673]},"properties":{"nom":"AVENUE DES FUSILLES","ag":["Réseau urbain et scolaire Agglobus"],"lt":0,"dept":"12"}},{"type":"Feature","geometry":{"type":"Point","coordinates":[2.56619,44.34477]},"properties":{"nom":"AVENUE DE TOULOUSE","ag":["Réseau urbain et scolaire Agglobus"],"lt":0,"dept":"12"}},{"type":"Feature","geometry":{"type":"Point","coordinates":[2.56672,44.34493]},"properties":{"nom":"AVENUE DE TOULOUSE","ag":["Réseau urbain et scolaire Agglobus"],"lt":0,"dept":"12"}},{"type":"Feature","geometry":{"type":"Point","coordinates":[2.57463,44.37369]},"properties":{"nom":"LES BALQUIERES","ag":["Réseau urbain et scolaire Agglobus"],"lt":0,"dept":"12"}},{"type":"Feature","geometry":{"type":"Point","coordinates":[2.57433,44.37365]},"properties":{"nom":"LES BALQUIERES","ag":["Réseau urbain et scolaire Agglobus"],"lt":0,"dept":"12"}},{"type":"Feature","geometry":{"type":"Point","coordinates":[2.58935,44.36084]},"properties":{"nom":"BAMBERG","ag":["Réseau urbain et scolaire Agglobus"],"lt":0,"dept":"12"}},{"type":"Feature","geometry":{"type":"Point","coordinates":[2.58948,44.36087]},"properties":{"nom":"BAMBERG","ag":["Réseau urbain et scolaire Agglobus"],"lt":0,"dept":"12"}},{"type":"Feature","geometry":{"type":"Point","coordinates":[2.55774,44.29762]},"properties":{"nom":"LE BARACOU","ag":["Réseau urbain et scolaire Agglobus"],"lt":0,"dept":"12"}},{"type":"Feature","geometry":{"type":"Point","coordinates":[2.55748,44.29775]},"properties":{"nom":"LE BARACOU","ag":["Réseau urbain et scolaire Agglobus"],"lt":0,"dept":"12"}},{"type":"Feature","geometry":{"type":"Point","coordinates":[2.51619,44.36724]},"properties":{"nom":"LES BASTIDES","ag":["Réseau urbain et scolaire Agglobus"],"lt":0,"dept":"12"}},{"type":"Feature","geometry":{"type":"Point","coordinates":[2.51567,44.36697]},"properties":{"nom":"LES BASTIDES","ag":["Réseau urbain et scolaire Agglobus"],"lt":0,"dept":"12"}},{"type":"Feature","geometry":{"type":"Point","coordinates":[2.56417,44.33977]},"properties":{"nom":"BAS DE LA MOULINE","ag":["Réseau urbain et scolaire Agglobus"],"lt":0,"dept":"12"}},{"type":"Feature","geometry":{"type":"Point","coordinates":[2.56414,44.33999]},"properties":{"nom":"BAS DE LA MOULINE","ag":["Réseau urbain et scolaire Agglobus"],"lt":0,"dept":"12"}},{"type":"Feature","geometry":{"type":"Point","coordinates":[2.54873,44.36908]},"properties":{"nom":"BEL AIR","ag":["Réseau urbain et scolaire Agglobus"],"lt":0,"dept":"12"}},{"type":"Feature","geometry":{"type":"Point","coordinates":[2.5489,44.36922]},"properties":{"nom":"BEL AIR","ag":["Réseau urbain et scolaire Agglobus"],"lt":0,"dept":"12"}},{"type":"Feature","geometry":{"type":"Point","coordinates":[2.55372,44.37128]},"properties":{"nom":"BEL AIR SAINT JEAN","ag":["Réseau urbain et scolaire Agglobus"],"lt":0,"dept":"12"}},{"type":"Feature","geometry":{"type":"Point","coordinates":[2.55376,44.37119]},"properties":{"nom":"BEL AIR SAINT JEAN","ag":["Réseau urbain et scolaire Agglobus"],"lt":0,"dept":"12"}},{"type":"Feature","geometry":{"type":"Point","coordinates":[2.53472,44.30007]},"properties":{"nom":"BELLEVUE","ag":["Réseau urbain et scolaire Agglobus"],"lt":0,"dept":"12"}},{"type":"Feature","geometry":{"type":"Point","coordinates":[2.53479,44.30003]},"properties":{"nom":"BELLEVUE","ag":["Réseau urbain et scolaire Agglobus"],"lt":0,"dept":"12"}},{"type":"Feature","geometry":{"type":"Point","coordinates":[2.57295,44.35326]},"properties":{"nom":"BETEILLE","ag":["Réseau urbain et scolaire Agglobus"],"lt":0,"dept":"12"}},{"type":"Feature","geometry":{"type":"Point","coordinates":[2.55577,44.33023]},"properties":{"nom":"BOIS VERT","ag":["Réseau urbain et scolaire Agglobus"],"lt":0,"dept":"12"}},{"type":"Feature","geometry":{"type":"Point","coordinates":[2.55556,44.33046]},"properties":{"nom":"BOIS VERT","ag":["Réseau urbain et scolaire Agglobus"],"lt":0,"dept":"12"}},{"type":"Feature","geometry":{"type":"Point","coordinates":[2.55926,44.34972]},"properties":{"nom":"BORIETTE","ag":["Réseau urbain et scolaire Agglobus"],"lt":0,"dept":"12"}},{"type":"Feature","geometry":{"type":"Point","coordinates":[2.56086,44.36082]},"properties":{"nom":"BOSCARY MONSSERVIN","ag":["Réseau urbain et scolaire Agglobus"],"lt":0,"dept":"12"}},{"type":"Feature","geometry":{"type":"Point","coordinates":[2.56104,44.36083]},"properties":{"nom":"BOSCARY MONSSERVIN","ag":["Réseau urbain et scolaire Agglobus"],"lt":0,"dept":"12"}},{"type":"Feature","geometry":{"type":"Point","coordinates":[2.60116,44.35859]},"properties":{"nom":"USINE BOSCH","ag":["Réseau urbain et scolaire Agglobus"],"lt":0,"dept":"12"}},{"type":"Feature","geometry":{"type":"Point","coordinates":[2.60105,44.35865]},"properties":{"nom":"USINE BOSCH","ag":["Réseau urbain et scolaire Agglobus"],"lt":0,"dept":"12"}},{"type":"Feature","geometry":{"type":"Point","coordinates":[2.57425,44.34666]},"properties":{"nom":"BOULE D'OR","ag":["Réseau urbain et scolaire Agglobus"],"lt":0,"dept":"12"}},{"type":"Feature","geometry":{"type":"Point","coordinates":[2.57553,44.34654]},"properties":{"nom":"BOULE D'OR","ag":["Réseau urbain et scolaire Agglobus"],"lt":0,"dept":"12"}},{"type":"Feature","geometry":{"type":"Point","coordinates":[2.51694,44.36957]},"properties":{"nom":"LE BOULDOU","ag":["Réseau urbain et scolaire Agglobus"],"lt":0,"dept":"12"}},{"type":"Feature","geometry":{"type":"Point","coordinates":[2.55689,44.35938]},"properties":{"nom":"BOURRAN","ag":["Réseau urbain et scolaire Agglobus"],"lt":0,"dept":"12"}},{"type":"Feature","geometry":{"type":"Point","coordinates":[2.55691,44.35936]},"properties":{"nom":"BOURRAN","ag":["Réseau urbain et scolaire Agglobus"],"lt":0,"dept":"12"}},{"type":"Feature","geometry":{"type":"Point","coordinates":[2.52789,44.31505]},"properties":{"nom":"BOUSCAILLOU","ag":["Réseau urbain et scolaire Agglobus"],"lt":0,"dept":"12"}},{"type":"Feature","geometry":{"type":"Point","coordinates":[2.55967,44.32527]},"properties":{"nom":"LA BROUSSINE","ag":["Réseau urbain et scolaire Agglobus"],"lt":0,"dept":"12"}},{"type":"Feature","geometry":{"type":"Point","coordinates":[2.55957,44.32534]},"properties":{"nom":"LA BROUSSINE","ag":["Réseau urbain et scolaire Agglobus"],"lt":0,"dept":"12"}},{"type":"Feature","geometry":{"type":"Point","coordinates":[2.5937,44.36421]},"properties":{"nom":"LES BRUYERES","ag":["Réseau urbain et scolaire Agglobus"],"lt":0,"dept":"12"}},{"type":"Feature","geometry":{"type":"Point","coordinates":[2.59317,44.36415]},"properties":{"nom":"LES BRUYERES","ag":["Réseau urbain et scolaire Agglobus"],"lt":0,"dept":"12"}},{"type":"Feature","geometry":{"type":"Point","coordinates":[2.58043,44.35977]},"properties":{"nom":"BUANTON","ag":["Réseau urbain et scolaire Agglobus"],"lt":0,"dept":"12"}},{"type":"Feature","geometry":{"type":"Point","coordinates":[2.58033,44.35977]},"properties":{"nom":"BUANTON","ag":["Réseau urbain et scolaire Agglobus"],"lt":0,"dept":"12"}},{"type":"Feature","geometry":{"type":"Point","coordinates":[2.56332,44.3544]},"properties":{"nom":"BURLOUP","ag":["Réseau urbain et scolaire Agglobus"],"lt":0,"dept":"12"}},{"type":"Feature","geometry":{"type":"Point","coordinates":[2.56325,44.35431]},"properties":{"nom":"BURLOUP","ag":["Réseau urbain et scolaire Agglobus"],"lt":0,"dept":"12"}},{"type":"Feature","geometry":{"type":"Point","coordinates":[2.62509,44.34287]},"properties":{"nom":"LES CAMMAS","ag":["Réseau urbain et scolaire Agglobus"],"lt":0,"dept":"12"}},{"type":"Feature","geometry":{"type":"Point","coordinates":[2.62462,44.34278]},"properties":{"nom":"LES CAMMAS","ag":["Réseau urbain et scolaire Agglobus"],"lt":0,"dept":"12"}},{"type":"Feature","geometry":{"type":"Point","coordinates":[2.57185,44.35753]},"properties":{"nom":"RUE DE CAMONIL","ag":["Réseau urbain et scolaire Agglobus"],"lt":0,"dept":"12"}},{"type":"Feature","geometry":{"type":"Point","coordinates":[2.57545,44.36271]},"properties":{"nom":"CANAC","ag":["Réseau urbain et scolaire Agglobus"],"lt":0,"dept":"12"}},{"type":"Feature","geometry":{"type":"Point","coordinates":[2.57541,44.36234]},"properties":{"nom":"CANAC","ag":["Réseau urbain et scolaire Agglobus"],"lt":0,"dept":"12"}},{"type":"Feature","geometry":{"type":"Point","coordinates":[2.56896,44.37063]},"properties":{"nom":"CANAGUET","ag":["Réseau urbain et scolaire Agglobus"],"lt":0,"dept":"12"}},{"type":"Feature","geometry":{"type":"Point","coordinates":[2.56923,44.37]},"properties":{"nom":"CANAGUET","ag":["Réseau urbain et scolaire Agglobus"],"lt":0,"dept":"12"}},{"type":"Feature","geometry":{"type":"Point","coordinates":[2.56925,44.28492]},"properties":{"nom":"LA CAPELLE ST MARTIN","ag":["Réseau urbain et scolaire Agglobus"],"lt":0,"dept":"12"}},{"type":"Feature","geometry":{"type":"Point","coordinates":[2.59169,44.36852]},"properties":{"nom":"LES CAPUCINES","ag":["Réseau urbain et scolaire Agglobus"],"lt":0,"dept":"12"}},{"type":"Feature","geometry":{"type":"Point","coordinates":[2.59171,44.36866]},"properties":{"nom":"LES CAPUCINES","ag":["Réseau urbain et scolaire Agglobus"],"lt":0,"dept":"12"}},{"type":"Feature","geometry":{"type":"Point","coordinates":[2.47046,44.36924]},"properties":{"nom":"CARREFOUR DE LA BURGUES","ag":["Réseau urbain et scolaire Agglobus"],"lt":0,"dept":"12"}},{"type":"Feature","geometry":{"type":"Point","coordinates":[2.47064,44.36928]},"properties":{"nom":"CARREFOUR DE LA BURGUES","ag":["Réseau urbain et scolaire Agglobus"],"lt":0,"dept":"12"}},{"type":"Feature","geometry":{"type":"Point","coordinates":[2.56732,44.35831]},"properties":{"nom":"CARNUS","ag":["Réseau urbain et scolaire Agglobus"],"lt":0,"dept":"12"}},{"type":"Feature","geometry":{"type":"Point","coordinates":[2.56746,44.35783]},"properties":{"nom":"CARNUS","ag":["Réseau urbain et scolaire Agglobus"],"lt":0,"dept":"12"}},{"type":"Feature","geometry":{"type":"Point","coordinates":[2.55236,44.33491]},"properties":{"nom":"CASSAGNETTES","ag":["Réseau urbain et scolaire Agglobus"],"lt":0,"dept":"12"}},{"type":"Feature","geometry":{"type":"Point","coordinates":[2.5969,44.40721]},"properties":{"nom":"LES CAYRES","ag":["Réseau urbain et scolaire Agglobus"],"lt":0,"dept":"12"}},{"type":"Feature","geometry":{"type":"Point","coordinates":[2.5967,44.40721]},"properties":{"nom":"LES CAYRES","ag":["Réseau urbain et scolaire Agglobus"],"lt":0,"dept":"12"}},{"type":"Feature","geometry":{"type":"Point","coordinates":[2.58172,44.36226]},"properties":{"nom":"CAYSSIOLET","ag":["Réseau urbain et scolaire Agglobus"],"lt":0,"dept":"12"}},{"type":"Feature","geometry":{"type":"Point","coordinates":[2.56218,44.31991]},"properties":{"nom":"LES CAZALS","ag":["Réseau urbain et scolaire Agglobus"],"lt":0,"dept":"12"}},{"type":"Feature","geometry":{"type":"Point","coordinates":[2.56213,44.31996]},"properties":{"nom":"LES  CAZALS","ag":["Réseau urbain et scolaire Agglobus"],"lt":0,"dept":"12"}},{"type":"Feature","geometry":{"type":"Point","coordinates":[2.56242,44.32348]},"properties":{"nom":"CAZALS NORD","ag":["Réseau urbain et scolaire Agglobus"],"lt":0,"dept":"12"}},{"type":"Feature","geometry":{"type":"Point","coordinates":[2.56232,44.32367]},"properties":{"nom":"CAZALS NORD","ag":["Réseau urbain et scolaire Agglobus"],"lt":0,"dept":"12"}},{"type":"Feature","geometry":{"type":"Point","coordinates":[2.57808,44.34645]},"properties":{"nom":"COMTESSE CECILE","ag":["Réseau urbain et scolaire Agglobus"],"lt":0,"dept":"12"}},{"type":"Feature","geometry":{"type":"Point","coordinates":[2.57808,44.34635]},"properties":{"nom":"COMTESSE CECILE","ag":["Réseau urbain et scolaire Agglobus"],"lt":0,"dept":"12"}},{"type":"Feature","geometry":{"type":"Point","coordinates":[2.56958,44.32189]},"properties":{"nom":"CHATEAU DE MALAN","ag":["Réseau urbain et scolaire Agglobus"],"lt":0,"dept":"12"}},{"type":"Feature","geometry":{"type":"Point","coordinates":[2.62569,44.3386]},"properties":{"nom":"CHAMP DU MOULIN","ag":["Réseau urbain et scolaire Agglobus"],"lt":0,"dept":"12"}},{"type":"Feature","geometry":{"type":"Point","coordinates":[2.53979,44.39063]},"properties":{"nom":"CHATEAU D'ONET LE CHATEAU","ag":["Réseau urbain et scolaire Agglobus"],"lt":0,"dept":"12"}},{"type":"Feature","geometry":{"type":"Point","coordinates":[2.57861,44.35547]},"properties":{"nom":"COTE DE LAYOULE","ag":["Réseau urbain et scolaire Agglobus"],"lt":0,"dept":"12"}},{"type":"Feature","geometry":{"type":"Point","coordinates":[2.60655,44.37678]},"properties":{"nom":"LE COLOMBIER","ag":["Réseau urbain et scolaire Agglobus"],"lt":0,"dept":"12"}},{"type":"Feature","geometry":{"type":"Point","coordinates":[2.57019,44.35051]},"properties":{"nom":"COMBAREL","ag":["Réseau urbain et scolaire Agglobus"],"lt":0,"dept":"12"}},{"type":"Feature","geometry":{"type":"Point","coordinates":[2.60684,44.38068]},"properties":{"nom":"LA COMBE","ag":["Réseau urbain et scolaire Agglobus"],"lt":0,"dept":"12"}},{"type":"Feature","geometry":{"type":"Point","coordinates":[2.64736,44.31568]},"properties":{"nom":"COMPS","ag":["Réseau urbain et scolaire Agglobus"],"lt":0,"dept":"12"}},{"type":"Feature","geometry":{"type":"Point","coordinates":[2.64758,44.31553]},"properties":{"nom":"COMPS","ag":["Réseau urbain et scolaire Agglobus"],"lt":0,"dept":"12"}},{"type":"Feature","geometry":{"type":"Point","coordinates":[2.60451,44.39588]},"properties":{"nom":"COMTAL","ag":["Réseau urbain et scolaire Agglobus"],"lt":0,"dept":"12"}},{"type":"Feature","geometry":{"type":"Point","coordinates":[2.6045,44.39599]},"properties":{"nom":"COMTAL","ag":["Réseau urbain et scolaire Agglobus"],"lt":0,"dept":"12"}},{"type":"Feature","geometry":{"type":"Point","coordinates":[2.59646,44.40735]},"properties":{"nom":"LES COSTES","ag":["Réseau urbain et scolaire Agglobus"],"lt":0,"dept":"12"}},{"type":"Feature","geometry":{"type":"Point","coordinates":[2.59912,44.4014]},"properties":{"nom":"CAMPS SARRATS","ag":["Réseau urbain et scolaire Agglobus"],"lt":0,"dept":"12"}},{"type":"Feature","geometry":{"type":"Point","coordinates":[2.59887,44.40079]},"properties":{"nom":"CAMPS SARRATS","ag":["Réseau urbain et scolaire Agglobus"],"lt":0,"dept":"12"}},{"type":"Feature","geometry":{"type":"Point","coordinates":[2.45168,44.38006]},"properties":{"nom":"CROIX DU SAUVAGE","ag":["Réseau urbain et scolaire Agglobus"],"lt":0,"dept":"12"}},{"type":"Feature","geometry":{"type":"Point","coordinates":[2.45202,44.37997]},"properties":{"nom":"CROIX DU SAUVAGE","ag":["Réseau urbain et scolaire Agglobus"],"lt":0,"dept":"12"}},{"type":"Feature","geometry":{"type":"Point","coordinates":[2.57277,44.36009]},"properties":{"nom":"CENTRE DE SECOURS","ag":["Réseau urbain et scolaire Agglobus"],"lt":0,"dept":"12"}},{"type":"Feature","geometry":{"type":"Point","coordinates":[2.57227,44.35991]},"properties":{"nom":"CENTRE DE SECOURS","ag":["Réseau urbain et scolaire Agglobus"],"lt":0,"dept":"12"}},{"type":"Feature","geometry":{"type":"Point","coordinates":[2.58005,44.35655]},"properties":{"nom":"CROIX GRANDE","ag":["Réseau urbain et scolaire Agglobus"],"lt":0,"dept":"12"}},{"type":"Feature","geometry":{"type":"Point","coordinates":[2.58101,44.3569]},"properties":{"nom":"CROIX GRANDE","ag":["Réseau urbain et scolaire Agglobus"],"lt":0,"dept":"12"}},{"type":"Feature","geometry":{"type":"Point","coordinates":[2.57626,44.33777]},"properties":{"nom":"CROIX HAUTE","ag":["Réseau urbain et scolaire Agglobus"],"lt":0,"dept":"12"}},{"type":"Feature","geometry":{"type":"Point","coordinates":[2.62306,44.33659]},"properties":{"nom":"CROIX DE PIERRE","ag":["Réseau urbain et scolaire Agglobus"],"lt":0,"dept":"12"}},{"type":"Feature","geometry":{"type":"Point","coordinates":[2.62315,44.33662]},"properties":{"nom":"CROIX DE PIERRE","ag":["Réseau urbain et scolaire Agglobus"],"lt":0,"dept":"12"}},{"type":"Feature","geometry":{"type":"Point","coordinates":[2.56736,44.37698]},"properties":{"nom":"LES CYGNES","ag":["Réseau urbain et scolaire Agglobus"],"lt":0,"dept":"12"}},{"type":"Feature","geometry":{"type":"Point","coordinates":[2.56716,44.37696]},"properties":{"nom":"LES CYGNES","ag":["Réseau urbain et scolaire Agglobus"],"lt":0,"dept":"12"}},{"type":"Feature","geometry":{"type":"Point","coordinates":[2.50554,44.35999]},"properties":{"nom":"DRUELLE BOURG","ag":["Réseau urbain et scolaire Agglobus"],"lt":0,"dept":"12"}},{"type":"Feature","geometry":{"type":"Point","coordinates":[2.64995,44.4451]},"properties":{"nom":"ECOLE DE CONCOURES","ag":["Réseau urbain et scolaire Agglobus"],"lt":0,"dept":"12"}},{"type":"Feature","geometry":{"type":"Point","coordinates":[2.64987,44.4451]},"properties":{"nom":"ECOLE DE CONCOURES","ag":["Réseau urbain et scolaire Agglobus"],"lt":0,"dept":"12"}},{"type":"Feature","geometry":{"type":"Point","coordinates":[2.54979,44.33695]},"properties":{"nom":"ECOLE DES GRILLONS","ag":["Réseau urbain et scolaire Agglobus"],"lt":0,"dept":"12"}},{"type":"Feature","geometry":{"type":"Point","coordinates":[2.55366,44.34111]},"properties":{"nom":"ECOLE DE OLEMPS","ag":["Réseau urbain et scolaire Agglobus"],"lt":0,"dept":"12"}},{"type":"Feature","geometry":{"type":"Point","coordinates":[2.57559,44.35749]},"properties":{"nom":"EDF","ag":["Réseau urbain et scolaire Agglobus"],"lt":0,"dept":"12"}},{"type":"Feature","geometry":{"type":"Point","coordinates":[2.5758,44.3576]},"properties":{"nom":"EDF","ag":["Réseau urbain et scolaire Agglobus"],"lt":0,"dept":"12"}},{"type":"Feature","geometry":{"type":"Point","coordinates":[2.57803,44.34261]},"properties":{"nom":"EGLISE","ag":["Réseau urbain et scolaire Agglobus"],"lt":0,"dept":"12"}},{"type":"Feature","geometry":{"type":"Point","coordinates":[2.57806,44.34254]},"properties":{"nom":"EGLISE","ag":["Réseau urbain et scolaire Agglobus"],"lt":0,"dept":"12"}},{"type":"Feature","geometry":{"type":"Point","coordinates":[2.47766,44.3558]},"properties":{"nom":"EMBRANCHEMENT LE BAGUET","ag":["Réseau urbain et scolaire Agglobus"],"lt":0,"dept":"12"}},{"type":"Feature","geometry":{"type":"Point","coordinates":[2.47758,44.35577]},"properties":{"nom":"EMBRANCHEMENT LE BAGUET","ag":["Réseau urbain et scolaire Agglobus"],"lt":0,"dept":"12"}},{"type":"Feature","geometry":{"type":"Point","coordinates":[2.61029,44.33568]},"properties":{"nom":"EMBRANCHEMENT D'ISTOURNET","ag":["Réseau urbain et scolaire Agglobus"],"lt":0,"dept":"12"}},{"type":"Feature","geometry":{"type":"Point","coordinates":[2.61043,44.33569]},"properties":{"nom":"EMBRANCHEMENT D'ISTOURNET","ag":["Réseau urbain et scolaire Agglobus"],"lt":0,"dept":"12"}},{"type":"Feature","geometry":{"type":"Point","coordinates":[2.59671,44.3921]},"properties":{"nom":"ESTRENIOL","ag":["Réseau urbain et scolaire Agglobus"],"lt":0,"dept":"12"}},{"type":"Feature","geometry":{"type":"Point","coordinates":[2.5965,44.39181]},"properties":{"nom":"ESTRENIOL","ag":["Réseau urbain et scolaire Agglobus"],"lt":0,"dept":"12"}},{"type":"Feature","geometry":{"type":"Point","coordinates":[2.56352,44.37891]},"properties":{"nom":"ETANG DE FONTANGES","ag":["Réseau urbain et scolaire Agglobus"],"lt":0,"dept":"12"}},{"type":"Feature","geometry":{"type":"Point","coordinates":[2.56049,44.29326]},"properties":{"nom":"L'ETOILE","ag":["Réseau urbain et scolaire Agglobus"],"lt":0,"dept":"12"}},{"type":"Feature","geometry":{"type":"Point","coordinates":[2.57382,44.35163]},"properties":{"nom":"CATHEDRALE","ag":["Réseau urbain et scolaire Agglobus"],"lt":0,"dept":"12"}},{"type":"Feature","geometry":{"type":"Point","coordinates":[2.48733,44.35185]},"properties":{"nom":"LES FABRES","ag":["Réseau urbain et scolaire Agglobus"],"lt":0,"dept":"12"}},{"type":"Feature","geometry":{"type":"Point","coordinates":[2.48741,44.35182]},"properties":{"nom":"LES FABRES","ag":["Réseau urbain et scolaire Agglobus"],"lt":0,"dept":"12"}},{"type":"Feature","geometry":{"type":"Point","coordinates":[2.57615,44.35344]},"properties":{"nom":"COLLEGE FABRE","ag":["Réseau urbain et scolaire Agglobus"],"lt":0,"dept":"12"}},{"type":"Feature","geometry":{"type":"Point","coordinates":[2.56261,44.34839]},"properties":{"nom":"FAUVETTE","ag":["Réseau urbain et scolaire Agglobus"],"lt":0,"dept":"12"}},{"type":"Feature","geometry":{"type":"Point","coordinates":[2.5643,44.34865]},"properties":{"nom":"FAUVETTE","ag":["Réseau urbain et scolaire Agglobus"],"lt":0,"dept":"12"}},{"type":"Feature","geometry":{"type":"Point","coordinates":[2.60655,44.35168]},"properties":{"nom":"LE FAYET","ag":["Réseau urbain et scolaire Agglobus"],"lt":0,"dept":"12"}},{"type":"Feature","geometry":{"type":"Point","coordinates":[2.60638,44.35169]},"properties":{"nom":"LE FAYET","ag":["Réseau urbain et scolaire Agglobus"],"lt":0,"dept":"12"}},{"type":"Feature","geometry":{"type":"Point","coordinates":[2.56255,44.36338]},"properties":{"nom":"SAINT FELIX CITE","ag":["Réseau urbain et scolaire Agglobus"],"lt":0,"dept":"12"}},{"type":"Feature","geometry":{"type":"Point","coordinates":[2.55938,44.33259]},"properties":{"nom":"LES FERMETTES","ag":["Réseau urbain et scolaire Agglobus"],"lt":0,"dept":"12"}},{"type":"Feature","geometry":{"type":"Point","coordinates":[2.56005,44.33164]},"properties":{"nom":"LES FERMETTES","ag":["Réseau urbain et scolaire Agglobus"],"lt":0,"dept":"12"}},{"type":"Feature","geometry":{"type":"Point","coordinates":[2.54452,44.37263]},"properties":{"nom":"RUE DE LA FERRONNERIE","ag":["Réseau urbain et scolaire Agglobus"],"lt":0,"dept":"12"}},{"type":"Feature","geometry":{"type":"Point","coordinates":[2.54486,44.37277]},"properties":{"nom":"RUE DE LA FERRONNERIE","ag":["Réseau urbain et scolaire Agglobus"],"lt":0,"dept":"12"}},{"type":"Feature","geometry":{"type":"Point","coordinates":[2.56551,44.348]},"properties":{"nom":"LES FLEURS","ag":["Réseau urbain et scolaire Agglobus"],"lt":0,"dept":"12"}},{"type":"Feature","geometry":{"type":"Point","coordinates":[2.56667,44.3484]},"properties":{"nom":"LES FLEURS","ag":["Réseau urbain et scolaire Agglobus"],"lt":0,"dept":"12"}},{"type":"Feature","geometry":{"type":"Point","coordinates":[2.50601,44.3044]},"properties":{"nom":"LES FLOTTES","ag":["Réseau urbain et scolaire Agglobus"],"lt":0,"dept":"12"}},{"type":"Feature","geometry":{"type":"Point","coordinates":[2.63841,44.32306]},"properties":{"nom":"FONFRECHE","ag":["Réseau urbain et scolaire Agglobus"],"lt":0,"dept":"12"}},{"type":"Feature","geometry":{"type":"Point","coordinates":[2.63843,44.3231]},"properties":{"nom":"FONFRECHE","ag":["Réseau urbain et scolaire Agglobus"],"lt":0,"dept":"12"}},{"type":"Feature","geometry":{"type":"Point","coordinates":[2.54016,44.38537]},"properties":{"nom":"LA FUMADE","ag":["Réseau urbain et scolaire Agglobus"],"lt":0,"dept":"12"}},{"type":"Feature","geometry":{"type":"Point","coordinates":[2.58028,44.41252]},"properties":{"nom":"GAJAC","ag":["Réseau urbain et scolaire Agglobus"],"lt":0,"dept":"12"}},{"type":"Feature","geometry":{"type":"Point","coordinates":[2.58009,44.41248]},"properties":{"nom":"GAJAC","ag":["Réseau urbain et scolaire Agglobus"],"lt":0,"dept":"12"}},{"type":"Feature","geometry":{"type":"Point","coordinates":[2.65348,44.44778]},"properties":{"nom":"ARRET LES GARDAS CONCOURES","ag":["Réseau urbain et scolaire Agglobus"],"lt":0,"dept":"12"}},{"type":"Feature","geometry":{"type":"Point","coordinates":[2.65343,44.44788]},"properties":{"nom":"ARRET LES GARDAS","ag":["Réseau urbain et scolaire Agglobus"],"lt":0,"dept":"12"}},{"type":"Feature","geometry":{"type":"Point","coordinates":[2.48492,44.35149]},"properties":{"nom":"LES GARDES","ag":["Réseau urbain et scolaire Agglobus"],"lt":0,"dept":"12"}},{"type":"Feature","geometry":{"type":"Point","coordinates":[2.48485,44.35148]},"properties":{"nom":"LES GARDES","ag":["Réseau urbain et scolaire Agglobus"],"lt":0,"dept":"12"}},{"type":"Feature","geometry":{"type":"Point","coordinates":[2.58039,44.36239]},"properties":{"nom":"GARE SNCF","ag":["Réseau urbain et scolaire Agglobus"],"lt":0,"dept":"12"}},{"type":"Feature","geometry":{"type":"Point","coordinates":[2.58072,44.36208]},"properties":{"nom":"GARE SNCF","ag":["Réseau urbain et scolaire Agglobus"],"lt":0,"dept":"12"}},{"type":"Feature","geometry":{"type":"Point","coordinates":[2.61742,44.36298]},"properties":{"nom":"LES GARRICS","ag":["Réseau urbain et scolaire Agglobus"],"lt":0,"dept":"12"}},{"type":"Feature","geometry":{"type":"Point","coordinates":[2.61772,44.36307]},"properties":{"nom":"LES GARRICS","ag":["Réseau urbain et scolaire Agglobus"],"lt":0,"dept":"12"}},{"type":"Feature","geometry":{"type":"Point","coordinates":[2.56921,44.33253]},"properties":{"nom":"GAZET","ag":["Réseau urbain et scolaire Agglobus"],"lt":0,"dept":"12"}},{"type":"Feature","geometry":{"type":"Point","coordinates":[2.5692,44.33258]},"properties":{"nom":"GAZET","ag":["Réseau urbain et scolaire Agglobus"],"lt":0,"dept":"12"}},{"type":"Feature","geometry":{"type":"Point","coordinates":[2.59856,44.39835]},"properties":{"nom":"GENEVRIER","ag":["Réseau urbain et scolaire Agglobus"],"lt":0,"dept":"12"}},{"type":"Feature","geometry":{"type":"Point","coordinates":[2.59843,44.39835]},"properties":{"nom":"GENEVRIER","ag":["Réseau urbain et scolaire Agglobus"],"lt":0,"dept":"12"}},{"type":"Feature","geometry":{"type":"Point","coordinates":[2.56509,44.34349]},"properties":{"nom":"GIRATOIRE DE LA MOULINE","ag":["Réseau urbain et scolaire Agglobus"],"lt":0,"dept":"12"}},{"type":"Feature","geometry":{"type":"Point","coordinates":[2.5648,44.34366]},"properties":{"nom":"GIRATOIRE DE LA MOULINE","ag":["Réseau urbain et scolaire Agglobus"],"lt":0,"dept":"12"}},{"type":"Feature","geometry":{"type":"Point","coordinates":[2.56314,44.36097]},"properties":{"nom":"LA GINESTE","ag":["Réseau urbain et scolaire Agglobus"],"lt":0,"dept":"12"}},{"type":"Feature","geometry":{"type":"Point","coordinates":[2.56341,44.36096]},"properties":{"nom":"LA GINESTE","ag":["Réseau urbain et scolaire Agglobus"],"lt":0,"dept":"12"}},{"type":"Feature","geometry":{"type":"Point","coordinates":[2.5578,44.31259]},"properties":{"nom":"GIRATOIRE DE LA BOISSONNADE","ag":["Réseau urbain et scolaire Agglobus"],"lt":0,"dept":"12"}},{"type":"Feature","geometry":{"type":"Point","coordinates":[2.55778,44.31259]},"properties":{"nom":"GIRATOIRE LA BOISSONNADE","ag":["Réseau urbain et scolaire Agglobus"],"lt":0,"dept":"12"}},{"type":"Feature","geometry":{"type":"Point","coordinates":[2.55256,44.36372]},"properties":{"nom":"GIRATOIRE DE CALCOMIER","ag":["Réseau urbain et scolaire Agglobus"],"lt":0,"dept":"12"}},{"type":"Feature","geometry":{"type":"Point","coordinates":[2.55782,44.32556]},"properties":{"nom":"GIRATOIRE  LACHET","ag":["Réseau urbain et scolaire Agglobus"],"lt":0,"dept":"12"}},{"type":"Feature","geometry":{"type":"Point","coordinates":[2.55789,44.32547]},"properties":{"nom":"GIRATOIRE  LACHET","ag":["Réseau urbain et scolaire Agglobus"],"lt":0,"dept":"12"}},{"type":"Feature","geometry":{"type":"Point","coordinates":[2.59299,44.38156]},"properties":{"nom":"GIRATOIRE ROUTE DE LA ROQUE","ag":["Réseau urbain et scolaire Agglobus"],"lt":0,"dept":"12"}},{"type":"Feature","geometry":{"type":"Point","coordinates":[2.59249,44.38183]},"properties":{"nom":"GIRATOIRE ROUTE DE LA ROQUE","ag":["Réseau urbain et scolaire Agglobus"],"lt":0,"dept":"12"}},{"type":"Feature","geometry":{"type":"Point","coordinates":[2.59374,44.38093]},"properties":{"nom":"GIRATOIRE LA ROQUE ESPALION","ag":["Réseau urbain et scolaire Agglobus"],"lt":0,"dept":"12"}},{"type":"Feature","geometry":{"type":"Point","coordinates":[2.5935,44.381]},"properties":{"nom":"GIRATOIRE LA ROQUE ESPALION","ag":["Réseau urbain et scolaire Agglobus"],"lt":0,"dept":"12"}},{"type":"Feature","geometry":{"type":"Point","coordinates":[2.52972,44.3687]},"properties":{"nom":"GIRATOIRE ST JOSEPH","ag":["Réseau urbain et scolaire Agglobus"],"lt":0,"dept":"12"}},{"type":"Feature","geometry":{"type":"Point","coordinates":[2.53054,44.36875]},"properties":{"nom":"GIRATOIRE  ST JOSEPH","ag":["Réseau urbain et scolaire Agglobus"],"lt":0,"dept":"12"}},{"type":"Feature","geometry":{"type":"Point","coordinates":[2.56386,44.34783]},"properties":{"nom":"GOURGAN","ag":["Réseau urbain et scolaire Agglobus"],"lt":0,"dept":"12"}},{"type":"Feature","geometry":{"type":"Point","coordinates":[2.56485,44.34767]},"properties":{"nom":"GOURGAN","ag":["Réseau urbain et scolaire Agglobus"],"lt":0,"dept":"12"}},{"type":"Feature","geometry":{"type":"Point","coordinates":[2.57438,44.33849]},"properties":{"nom":"LA GRANGE","ag":["Réseau urbain et scolaire Agglobus"],"lt":0,"dept":"12"}},{"type":"Feature","geometry":{"type":"Point","coordinates":[2.57458,44.33865]},"properties":{"nom":"LA GRANGE","ag":["Réseau urbain et scolaire Agglobus"],"lt":0,"dept":"12"}},{"type":"Feature","geometry":{"type":"Point","coordinates":[2.58766,44.35425]},"properties":{"nom":"GIRATOIRE DE CARDAILLAC","ag":["Réseau urbain et scolaire Agglobus"],"lt":0,"dept":"12"}},{"type":"Feature","geometry":{"type":"Point","coordinates":[2.58814,44.3539]},"properties":{"nom":"GIRATOIRE DE CARDAILLAC","ag":["Réseau urbain et scolaire Agglobus"],"lt":0,"dept":"12"}},{"type":"Feature","geometry":{"type":"Point","coordinates":[2.61985,44.33686]},"properties":{"nom":"LES GRANDS CHAMPS","ag":["Réseau urbain et scolaire Agglobus"],"lt":0,"dept":"12"}},{"type":"Feature","geometry":{"type":"Point","coordinates":[2.61991,44.33693]},"properties":{"nom":"LES GRANDS CHAMPS","ag":["Réseau urbain et scolaire Agglobus"],"lt":0,"dept":"12"}},{"type":"Feature","geometry":{"type":"Point","coordinates":[2.57491,44.34559]},"properties":{"nom":"GRANDET","ag":["Réseau urbain et scolaire Agglobus"],"lt":0,"dept":"12"}},{"type":"Feature","geometry":{"type":"Point","coordinates":[2.56018,44.36768]},"properties":{"nom":"GRES ROUGES","ag":["Réseau urbain et scolaire Agglobus"],"lt":0,"dept":"12"}},{"type":"Feature","geometry":{"type":"Point","coordinates":[2.56025,44.36756]},"properties":{"nom":"GRES ROUGES","ag":["Réseau urbain et scolaire Agglobus"],"lt":0,"dept":"12"}},{"type":"Feature","geometry":{"type":"Point","coordinates":[2.56603,44.36315]},"properties":{"nom":"GIRATOIRE DE LA GINESTE","ag":["Réseau urbain et scolaire Agglobus"],"lt":0,"dept":"12"}},{"type":"Feature","geometry":{"type":"Point","coordinates":[2.56537,44.36237]},"properties":{"nom":"GIRATOIRE DE LA GINESTE","ag":["Réseau urbain et scolaire Agglobus"],"lt":0,"dept":"12"}},{"type":"Feature","geometry":{"type":"Point","coordinates":[2.5627,44.32402]},"properties":{"nom":"GARAGE IVECO","ag":["Réseau urbain et scolaire Agglobus"],"lt":0,"dept":"12"}},{"type":"Feature","geometry":{"type":"Point","coordinates":[2.5095,44.30693]},"properties":{"nom":"GRAND MAS","ag":["Réseau urbain et scolaire Agglobus"],"lt":0,"dept":"12"}},{"type":"Feature","geometry":{"type":"Point","coordinates":[2.57952,44.35039]},"properties":{"nom":"HENRI DUNANT","ag":["Réseau urbain et scolaire Agglobus"],"lt":0,"dept":"12"}},{"type":"Feature","geometry":{"type":"Point","coordinates":[2.57954,44.35047]},"properties":{"nom":"HENRI DUNANT","ag":["Réseau urbain et scolaire Agglobus"],"lt":0,"dept":"12"}},{"type":"Feature","geometry":{"type":"Point","coordinates":[2.59053,44.35348]},"properties":{"nom":"HENRI JAUDON","ag":["Réseau urbain et scolaire Agglobus"],"lt":0,"dept":"12"}},{"type":"Feature","geometry":{"type":"Point","coordinates":[2.55183,44.36017]},"properties":{"nom":"HOPITAL","ag":["Réseau urbain et scolaire Agglobus"],"lt":0,"dept":"12"}},{"type":"Feature","geometry":{"type":"Point","coordinates":[2.54865,44.3884]},"properties":{"nom":"LES HAUTS DE FLOYRAC","ag":["Réseau urbain et scolaire Agglobus"],"lt":0,"dept":"12"}},{"type":"Feature","geometry":{"type":"Point","coordinates":[2.54685,44.377]},"properties":{"nom":"I.M.E LES CARDABELLES","ag":["Réseau urbain et scolaire Agglobus"],"lt":0,"dept":"12"}},{"type":"Feature","geometry":{"type":"Point","coordinates":[2.65489,44.30696]},"properties":{"nom":"INIERES","ag":["Réseau urbain et scolaire Agglobus"],"lt":0,"dept":"12"}},{"type":"Feature","geometry":{"type":"Point","coordinates":[2.65499,44.30706]},"properties":{"nom":"INIERES","ag":["Réseau urbain et scolaire Agglobus"],"lt":0,"dept":"12"}},{"type":"Feature","geometry":{"type":"Point","coordinates":[2.61985,44.33686]},"properties":{"nom":"ISTOURNET","ag":["Réseau urbain et scolaire Agglobus"],"lt":0,"dept":"12"}},{"type":"Feature","geometry":{"type":"Point","coordinates":[2.61229,44.33679]},"properties":{"nom":"ISTOURNET","ag":["Réseau urbain et scolaire Agglobus"],"lt":0,"dept":"12"}},{"type":"Feature","geometry":{"type":"Point","coordinates":[2.57358,44.34275]},"properties":{"nom":"JARDINS DE L'ABBAYE","ag":["Réseau urbain et scolaire Agglobus"],"lt":0,"dept":"12"}},{"type":"Feature","geometry":{"type":"Point","coordinates":[2.57397,44.34297]},"properties":{"nom":"JARDINS DE L'ABBAYE","ag":["Réseau urbain et scolaire Agglobus"],"lt":0,"dept":"12"}},{"type":"Feature","geometry":{"type":"Point","coordinates":[2.55822,44.35781]},"properties":{"nom":"JEAN MONNET","ag":["Réseau urbain et scolaire Agglobus"],"lt":0,"dept":"12"}},{"type":"Feature","geometry":{"type":"Point","coordinates":[2.55843,44.35754]},"properties":{"nom":"JEAN MONNET","ag":["Réseau urbain et scolaire Agglobus"],"lt":0,"dept":"12"}},{"type":"Feature","geometry":{"type":"Point","coordinates":[2.58513,44.35802]},"properties":{"nom":"JEAN MOULIN","ag":["Réseau urbain et scolaire Agglobus"],"lt":0,"dept":"12"}},{"type":"Feature","geometry":{"type":"Point","coordinates":[2.55777,44.31371]},"properties":{"nom":"LA BOISSONNADE","ag":["Réseau urbain et scolaire Agglobus"],"lt":0,"dept":"12"}},{"type":"Feature","geometry":{"type":"Point","coordinates":[2.55604,44.3275]},"properties":{"nom":"LE LACHET","ag":["Réseau urbain et scolaire Agglobus"],"lt":0,"dept":"12"}},{"type":"Feature","geometry":{"type":"Point","coordinates":[2.55044,44.32859]},"properties":{"nom":"LA GARRIGUE","ag":["Réseau urbain et scolaire Agglobus"],"lt":0,"dept":"12"}},{"type":"Feature","geometry":{"type":"Point","coordinates":[2.62305,44.3454]},"properties":{"nom":"LES LANDES","ag":["Réseau urbain et scolaire Agglobus"],"lt":0,"dept":"12"}},{"type":"Feature","geometry":{"type":"Point","coordinates":[2.62298,44.34542]},"properties":{"nom":"LES LANDES","ag":["Réseau urbain et scolaire Agglobus"],"lt":0,"dept":"12"}},{"type":"Feature","geometry":{"type":"Point","coordinates":[2.65716,44.3287]},"properties":{"nom":"LANDREVIER","ag":["Réseau urbain et scolaire Agglobus"],"lt":0,"dept":"12"}},{"type":"Feature","geometry":{"type":"Point","coordinates":[2.6571,44.32872]},"properties":{"nom":"LANDREVIER","ag":["Réseau urbain et scolaire Agglobus"],"lt":0,"dept":"12"}},{"type":"Feature","geometry":{"type":"Point","coordinates":[2.54557,44.29699]},"properties":{"nom":"LAC DE PLANEZES","ag":["Réseau urbain et scolaire Agglobus"],"lt":0,"dept":"12"}},{"type":"Feature","geometry":{"type":"Point","coordinates":[2.54528,44.29719]},"properties":{"nom":"LAC DE PLANEZES","ag":["Réseau urbain et scolaire Agglobus"],"lt":0,"dept":"12"}},{"type":"Feature","geometry":{"type":"Point","coordinates":[2.60455,44.33653]},"properties":{"nom":"LA PLANQUE","ag":["Réseau urbain et scolaire Agglobus"],"lt":0,"dept":"12"}},{"type":"Feature","geometry":{"type":"Point","coordinates":[2.60458,44.33659]},"properties":{"nom":"LA PLANQUE","ag":["Réseau urbain et scolaire Agglobus"],"lt":0,"dept":"12"}},{"type":"Feature","geometry":{"type":"Point","coordinates":[2.5804,44.37246]},"properties":{"nom":"L'AUTERNE","ag":["Réseau urbain et scolaire Agglobus"],"lt":0,"dept":"12"}},{"type":"Feature","geometry":{"type":"Point","coordinates":[2.58076,44.37246]},"properties":{"nom":"L'AUTERNE","ag":["Réseau urbain et scolaire Agglobus"],"lt":0,"dept":"12"}},{"type":"Feature","geometry":{"type":"Point","coordinates":[2.47531,44.34613]},"properties":{"nom":"LAVERNHE  DE DRUELLE","ag":["Réseau urbain et scolaire Agglobus"],"lt":0,"dept":"12"}},{"type":"Feature","geometry":{"type":"Point","coordinates":[2.49236,44.31592]},"properties":{"nom":"LAX","ag":["Réseau urbain et scolaire Agglobus"],"lt":0,"dept":"12"}},{"type":"Feature","geometry":{"type":"Point","coordinates":[2.4452,44.37692]},"properties":{"nom":"LE PAS","ag":["Réseau urbain et scolaire Agglobus"],"lt":0,"dept":"12"}},{"type":"Feature","geometry":{"type":"Point","coordinates":[2.56552,44.35209]},"properties":{"nom":"LYCEE FOCH","ag":["Réseau urbain et scolaire Agglobus"],"lt":0,"dept":"12"}},{"type":"Feature","geometry":{"type":"Point","coordinates":[2.63288,44.33825]},"properties":{"nom":"LOTISSEMENT LA PENDARIE","ag":["Réseau urbain et scolaire Agglobus"],"lt":0,"dept":"12"}},{"type":"Feature","geometry":{"type":"Point","coordinates":[2.63271,44.33823]},"properties":{"nom":"LOTISSEMENT LA PENDARIE","ag":["Réseau urbain et scolaire Agglobus"],"lt":0,"dept":"12"}},{"type":"Feature","geometry":{"type":"Point","coordinates":[2.53165,44.36852]},"properties":{"nom":"LOT ST JOSEPH EMBRANCHEMENT PARC ST JO","ag":["Réseau urbain et scolaire Agglobus"],"lt":0,"dept":"12"}},{"type":"Feature","geometry":{"type":"Point","coordinates":[2.53223,44.36839]},"properties":{"nom":"LOT ST JOSEPH EMBRANCHEMENT PARC ST JO","ag":["Réseau urbain et scolaire Agglobus"],"lt":0,"dept":"12"}},{"type":"Feature","geometry":{"type":"Point","coordinates":[2.57631,44.33276]},"properties":{"nom":"LE PUECH","ag":["Réseau urbain et scolaire Agglobus"],"lt":0,"dept":"12"}},{"type":"Feature","geometry":{"type":"Point","coordinates":[2.54079,44.31485]},"properties":{"nom":"LUC FONTAINE","ag":["Réseau urbain et scolaire Agglobus"],"lt":0,"dept":"12"}},{"type":"Feature","geometry":{"type":"Point","coordinates":[2.54064,44.3147]},"properties":{"nom":"LUC FONTAINE","ag":["Réseau urbain et scolaire Agglobus"],"lt":0,"dept":"12"}},{"type":"Feature","geometry":{"type":"Point","coordinates":[2.53988,44.3145]},"properties":{"nom":"LUC FONTAINE 3","ag":["Réseau urbain et scolaire Agglobus"],"lt":0,"dept":"12"}},{"type":"Feature","geometry":{"type":"Point","coordinates":[2.53512,44.31444]},"properties":{"nom":"LUC MAIRIE","ag":["Réseau urbain et scolaire Agglobus"],"lt":0,"dept":"12"}},{"type":"Feature","geometry":{"type":"Point","coordinates":[2.53509,44.3145]},"properties":{"nom":"LUC MAIRIE","ag":["Réseau urbain et scolaire Agglobus"],"lt":0,"dept":"12"}},{"type":"Feature","geometry":{"type":"Point","coordinates":[2.53646,44.31401]},"properties":{"nom":"LUC MAIRIE","ag":["Réseau urbain et scolaire Agglobus"],"lt":0,"dept":"12"}},{"type":"Feature","geometry":{"type":"Point","coordinates":[2.53639,44.31398]},"properties":{"nom":"LUC MAIRIE","ag":["Réseau urbain et scolaire Agglobus"],"lt":0,"dept":"12"}},{"type":"Feature","geometry":{"type":"Point","coordinates":[2.58575,44.38294]},"properties":{"nom":"LYCEE LA ROQUE","ag":["Réseau urbain et scolaire Agglobus"],"lt":0,"dept":"12"}},{"type":"Feature","geometry":{"type":"Point","coordinates":[2.55619,44.36007]},"properties":{"nom":"LE MAIL","ag":["Réseau urbain et scolaire Agglobus"],"lt":0,"dept":"12"}},{"type":"Feature","geometry":{"type":"Point","coordinates":[2.60431,44.40302]},"properties":{"nom":"MANHAREZ","ag":["Réseau urbain et scolaire Agglobus"],"lt":0,"dept":"12"}},{"type":"Feature","geometry":{"type":"Point","coordinates":[2.60424,44.40307]},"properties":{"nom":"MANHAREZ","ag":["Réseau urbain et scolaire Agglobus"],"lt":0,"dept":"12"}},{"type":"Feature","geometry":{"type":"Point","coordinates":[2.55467,44.28741]},"properties":{"nom":"MARRONNIERS","ag":["Réseau urbain et scolaire Agglobus"],"lt":0,"dept":"12"}},{"type":"Feature","geometry":{"type":"Point","coordinates":[2.55454,44.28729]},"properties":{"nom":"MARRONNIERS","ag":["Réseau urbain et scolaire Agglobus"],"lt":0,"dept":"12"}},{"type":"Feature","geometry":{"type":"Point","coordinates":[2.57929,44.34008]},"properties":{"nom":"MARQUISE","ag":["Réseau urbain et scolaire Agglobus"],"lt":0,"dept":"12"}},{"type":"Feature","geometry":{"type":"Point","coordinates":[2.5792,44.34003]},"properties":{"nom":"MARQUISE","ag":["Réseau urbain et scolaire Agglobus"],"lt":0,"dept":"12"}},{"type":"Feature","geometry":{"type":"Point","coordinates":[2.60679,44.36053]},"properties":{"nom":"LES METIERS","ag":["Réseau urbain et scolaire Agglobus"],"lt":0,"dept":"12"}},{"type":"Feature","geometry":{"type":"Point","coordinates":[2.60671,44.36043]},"properties":{"nom":"LES METIERS","ag":["Réseau urbain et scolaire Agglobus"],"lt":0,"dept":"12"}},{"type":"Feature","geometry":{"type":"Point","coordinates":[2.58118,44.34197]},"properties":{"nom":"LES MEUNIERS","ag":["Réseau urbain et scolaire Agglobus"],"lt":0,"dept":"12"}},{"type":"Feature","geometry":{"type":"Point","coordinates":[2.58079,44.34175]},"properties":{"nom":"LES MEUNIERS","ag":["Réseau urbain et scolaire Agglobus"],"lt":0,"dept":"12"}},{"type":"Feature","geometry":{"type":"Point","coordinates":[2.57727,44.35339]},"properties":{"nom":"MJC","ag":["Réseau urbain et scolaire Agglobus"],"lt":0,"dept":"12"}},{"type":"Feature","geometry":{"type":"Point","coordinates":[2.57641,44.3618]},"properties":{"nom":"MARECHAL JOFFRE","ag":["Réseau urbain et scolaire Agglobus"],"lt":0,"dept":"12"}},{"type":"Feature","geometry":{"type":"Point","coordinates":[2.57656,44.36198]},"properties":{"nom":"MARECHAL JOFFRE","ag":["Réseau urbain et scolaire Agglobus"],"lt":0,"dept":"12"}},{"type":"Feature","geometry":{"type":"Point","coordinates":[2.62049,44.34927]},"properties":{"nom":"MONUMENT DE LA RESISTANCE","ag":["Réseau urbain et scolaire Agglobus"],"lt":0,"dept":"12"}},{"type":"Feature","geometry":{"type":"Point","coordinates":[2.62092,44.34898]},"properties":{"nom":"MONUMENT DE LA RESISTANCE","ag":["Réseau urbain et scolaire Agglobus"],"lt":0,"dept":"12"}},{"type":"Feature","geometry":{"type":"Point","coordinates":[2.56887,44.35662]},"properties":{"nom":"MONTCALM","ag":["Réseau urbain et scolaire Agglobus"],"lt":0,"dept":"12"}},{"type":"Feature","geometry":{"type":"Point","coordinates":[2.56803,44.35628]},"properties":{"nom":"MONTCALM","ag":["Réseau urbain et scolaire Agglobus"],"lt":0,"dept":"12"}},{"type":"Feature","geometry":{"type":"Point","coordinates":[2.57116,44.37534]},"properties":{"nom":"LES MOUETTES","ag":["Réseau urbain et scolaire Agglobus"],"lt":0,"dept":"12"}},{"type":"Feature","geometry":{"type":"Point","coordinates":[2.52827,44.31126]},"properties":{"nom":"MOUSSENS","ag":["Réseau urbain et scolaire Agglobus"],"lt":0,"dept":"12"}},{"type":"Feature","geometry":{"type":"Point","coordinates":[2.57409,44.36541]},"properties":{"nom":"LES MOUTIERS","ag":["Réseau urbain et scolaire Agglobus"],"lt":0,"dept":"12"}},{"type":"Feature","geometry":{"type":"Point","coordinates":[2.57443,44.36484]},"properties":{"nom":"LES MOUTIERS","ag":["Réseau urbain et scolaire Agglobus"],"lt":0,"dept":"12"}},{"type":"Feature","geometry":{"type":"Point","coordinates":[2.59827,44.36494]},"properties":{"nom":"MAISON DE SANTE","ag":["Réseau urbain et scolaire Agglobus"],"lt":0,"dept":"12"}},{"type":"Feature","geometry":{"type":"Point","coordinates":[2.59836,44.36486]},"properties":{"nom":"MAISON DE SANTE","ag":["Réseau urbain et scolaire Agglobus"],"lt":0,"dept":"12"}},{"type":"Feature","geometry":{"type":"Point","coordinates":[2.5896,44.37068]},"properties":{"nom":"MAISON NEUVE","ag":["Réseau urbain et scolaire Agglobus"],"lt":0,"dept":"12"}},{"type":"Feature","geometry":{"type":"Point","coordinates":[2.58942,44.3706]},"properties":{"nom":"MAISON NEUVE","ag":["Réseau urbain et scolaire Agglobus"],"lt":0,"dept":"12"}},{"type":"Feature","geometry":{"type":"Point","coordinates":[2.58304,44.36195]},"properties":{"nom":"MONT D'AUVERGNE","ag":["Réseau urbain et scolaire Agglobus"],"lt":0,"dept":"12"}},{"type":"Feature","geometry":{"type":"Point","coordinates":[2.58413,44.36178]},"properties":{"nom":"MONT D'AUVERGNE","ag":["Réseau urbain et scolaire Agglobus"],"lt":0,"dept":"12"}},{"type":"Feature","geometry":{"type":"Point","coordinates":[2.51805,44.3041]},"properties":{"nom":"MONTPLAISIR","ag":["Réseau urbain et scolaire Agglobus"],"lt":0,"dept":"12"}},{"type":"Feature","geometry":{"type":"Point","coordinates":[2.51791,44.30409]},"properties":{"nom":"MONTPLAISIR","ag":["Réseau urbain et scolaire Agglobus"],"lt":0,"dept":"12"}},{"type":"Feature","geometry":{"type":"Point","coordinates":[2.57772,44.34833]},"properties":{"nom":"MUSEE","ag":["Réseau urbain et scolaire Agglobus"],"lt":0,"dept":"12"}},{"type":"Feature","geometry":{"type":"Point","coordinates":[2.59566,44.3666]},"properties":{"nom":"LES NARCISSES","ag":["Réseau urbain et scolaire Agglobus"],"lt":0,"dept":"12"}},{"type":"Feature","geometry":{"type":"Point","coordinates":[2.59561,44.36656]},"properties":{"nom":"LES NARCISSES","ag":["Réseau urbain et scolaire Agglobus"],"lt":0,"dept":"12"}},{"type":"Feature","geometry":{"type":"Point","coordinates":[2.55684,44.30275]},"properties":{"nom":"NAUJAC","ag":["Réseau urbain et scolaire Agglobus"],"lt":0,"dept":"12"}},{"type":"Feature","geometry":{"type":"Point","coordinates":[2.56899,44.35897]},"properties":{"nom":"L'OCCITANIE","ag":["Réseau urbain et scolaire Agglobus"],"lt":0,"dept":"12"}},{"type":"Feature","geometry":{"type":"Point","coordinates":[2.56984,44.35916]},"properties":{"nom":"L'OCCITANIE","ag":["Réseau urbain et scolaire Agglobus"],"lt":0,"dept":"12"}},{"type":"Feature","geometry":{"type":"Point","coordinates":[2.58171,44.34727]},"properties":{"nom":"OCTROI","ag":["Réseau urbain et scolaire Agglobus"],"lt":0,"dept":"12"}},{"type":"Feature","geometry":{"type":"Point","coordinates":[2.58161,44.34731]},"properties":{"nom":"OCTROI","ag":["Réseau urbain et scolaire Agglobus"],"lt":0,"dept":"12"}},{"type":"Feature","geometry":{"type":"Point","coordinates":[2.55319,44.34622]},"properties":{"nom":"OLEMPS LA CROIX","ag":["Réseau urbain et scolaire Agglobus"],"lt":0,"dept":"12"}},{"type":"Feature","geometry":{"type":"Point","coordinates":[2.55494,44.33766]},"properties":{"nom":"OLEMPS MAIRIE","ag":["Réseau urbain et scolaire Agglobus"],"lt":0,"dept":"12"}},{"type":"Feature","geometry":{"type":"Point","coordinates":[2.55508,44.3378]},"properties":{"nom":"OLEMPS MAIRIE","ag":["Réseau urbain et scolaire Agglobus"],"lt":0,"dept":"12"}},{"type":"Feature","geometry":{"type":"Point","coordinates":[2.56411,44.4195]},"properties":{"nom":"ONET L'EGLISE","ag":["Réseau urbain et scolaire Agglobus"],"lt":0,"dept":"12"}},{"type":"Feature","geometry":{"type":"Point","coordinates":[2.59001,44.36927]},"properties":{"nom":"L'OUSTAL NAU","ag":["Réseau urbain et scolaire Agglobus"],"lt":0,"dept":"12"}},{"type":"Feature","geometry":{"type":"Point","coordinates":[2.59,44.36958]},"properties":{"nom":"OUSTAL NAU","ag":["Réseau urbain et scolaire Agglobus"],"lt":0,"dept":"12"}},{"type":"Feature","geometry":{"type":"Point","coordinates":[2.51414,44.32238]},"properties":{"nom":"LA PALMERIE","ag":["Réseau urbain et scolaire Agglobus"],"lt":0,"dept":"12"}},{"type":"Feature","geometry":{"type":"Point","coordinates":[2.5138,44.32238]},"properties":{"nom":"LA PALMERIE","ag":["Réseau urbain et scolaire Agglobus"],"lt":0,"dept":"12"}},{"type":"Feature","geometry":{"type":"Point","coordinates":[2.56911,44.37737]},"properties":{"nom":"LES PALOMBES","ag":["Réseau urbain et scolaire Agglobus"],"lt":0,"dept":"12"}},{"type":"Feature","geometry":{"type":"Point","coordinates":[2.57818,44.34412]},"properties":{"nom":"RUE ANTOINE PALOUS","ag":["Réseau urbain et scolaire Agglobus"],"lt":0,"dept":"12"}},{"type":"Feature","geometry":{"type":"Point","coordinates":[2.56534,44.34969]},"properties":{"nom":"PARAIRE","ag":["Réseau urbain et scolaire Agglobus"],"lt":0,"dept":"12"}},{"type":"Feature","geometry":{"type":"Point","coordinates":[2.56558,44.35033]},"properties":{"nom":"PARAIRE","ag":["Réseau urbain et scolaire Agglobus"],"lt":0,"dept":"12"}},{"type":"Feature","geometry":{"type":"Point","coordinates":[2.61036,44.40136]},"properties":{"nom":"LES PASIMENTS","ag":["Réseau urbain et scolaire Agglobus"],"lt":0,"dept":"12"}},{"type":"Feature","geometry":{"type":"Point","coordinates":[2.61117,44.40109]},"properties":{"nom":"LES PASIMENTS","ag":["Réseau urbain et scolaire Agglobus"],"lt":0,"dept":"12"}},{"type":"Feature","geometry":{"type":"Point","coordinates":[2.55508,44.34441]},"properties":{"nom":"LES PEYRIERES","ag":["Réseau urbain et scolaire Agglobus"],"lt":0,"dept":"12"}},{"type":"Feature","geometry":{"type":"Point","coordinates":[2.55516,44.34422]},"properties":{"nom":"LES PEYRIERES","ag":["Réseau urbain et scolaire Agglobus"],"lt":0,"dept":"12"}},{"type":"Feature","geometry":{"type":"Point","coordinates":[2.53881,44.37484]},"properties":{"nom":"LA PEYRINIE","ag":["Réseau urbain et scolaire Agglobus"],"lt":0,"dept":"12"}},{"type":"Feature","geometry":{"type":"Point","coordinates":[2.53906,44.37439]},"properties":{"nom":"LA PEYRINIE","ag":["Réseau urbain et scolaire Agglobus"],"lt":0,"dept":"12"}},{"type":"Feature","geometry":{"type":"Point","coordinates":[2.57298,44.37696]},"properties":{"nom":"LES PINSONS","ag":["Réseau urbain et scolaire Agglobus"],"lt":0,"dept":"12"}},{"type":"Feature","geometry":{"type":"Point","coordinates":[2.56845,44.37372]},"properties":{"nom":"PIVERT","ag":["Réseau urbain et scolaire Agglobus"],"lt":0,"dept":"12"}},{"type":"Feature","geometry":{"type":"Point","coordinates":[2.56845,44.37336]},"properties":{"nom":"PIVERT","ag":["Réseau urbain et scolaire Agglobus"],"lt":0,"dept":"12"}},{"type":"Feature","geometry":{"type":"Point","coordinates":[2.57041,44.35196]},"properties":{"nom":"PLANARD","ag":["Réseau urbain et scolaire Agglobus"],"lt":0,"dept":"12"}},{"type":"Feature","geometry":{"type":"Point","coordinates":[2.54569,44.29691]},"properties":{"nom":"PLANEZE","ag":["Réseau urbain et scolaire Agglobus"],"lt":0,"dept":"12"}},{"type":"Feature","geometry":{"type":"Point","coordinates":[2.53762,44.29544]},"properties":{"nom":"PLANEZE","ag":["Réseau urbain et scolaire Agglobus"],"lt":0,"dept":"12"}},{"type":"Feature","geometry":{"type":"Point","coordinates":[2.57268,44.35122]},"properties":{"nom":"PLACE D'ARMES","ag":["Réseau urbain et scolaire Agglobus"],"lt":0,"dept":"12"}},{"type":"Feature","geometry":{"type":"Point","coordinates":[2.5863,44.36468]},"properties":{"nom":"PLACE DES ARTISTES","ag":["Réseau urbain et scolaire Agglobus"],"lt":0,"dept":"12"}},{"type":"Feature","geometry":{"type":"Point","coordinates":[2.58598,44.3651]},"properties":{"nom":"PLACE DES ARTISTES","ag":["Réseau urbain et scolaire Agglobus"],"lt":0,"dept":"12"}},{"type":"Feature","geometry":{"type":"Point","coordinates":[2.5811,44.35382]},"properties":{"nom":"PONT DE LAYOULE","ag":["Réseau urbain et scolaire Agglobus"],"lt":0,"dept":"12"}},{"type":"Feature","geometry":{"type":"Point","coordinates":[2.57334,44.35051]},"properties":{"nom":"PLACE FOCH","ag":["Réseau urbain et scolaire Agglobus"],"lt":0,"dept":"12"}},{"type":"Feature","geometry":{"type":"Point","coordinates":[2.57308,44.34997]},"properties":{"nom":"PLACE FOCH","ag":["Réseau urbain et scolaire Agglobus"],"lt":0,"dept":"12"}},{"type":"Feature","geometry":{"type":"Point","coordinates":[2.55462,44.34131]},"properties":{"nom":"PLACE DE LA FONTAINE","ag":["Réseau urbain et scolaire Agglobus"],"lt":0,"dept":"12"}},{"type":"Feature","geometry":{"type":"Point","coordinates":[2.55477,44.34135]},"properties":{"nom":"PLACE DE LA FONTAINE","ag":["Réseau urbain et scolaire Agglobus"],"lt":0,"dept":"12"}},{"type":"Feature","geometry":{"type":"Point","coordinates":[2.62692,44.3372]},"properties":{"nom":"PLACE DU FOURNIL","ag":["Réseau urbain et scolaire Agglobus"],"lt":0,"dept":"12"}},{"type":"Feature","geometry":{"type":"Point","coordinates":[2.6268,44.33716]},"properties":{"nom":"PLACE DU FOURNIL","ag":["Réseau urbain et scolaire Agglobus"],"lt":0,"dept":"12"}},{"type":"Feature","geometry":{"type":"Point","coordinates":[2.57282,44.3485]},"properties":{"nom":"PALAIS DE JUSTICE","ag":["Réseau urbain et scolaire Agglobus"],"lt":0,"dept":"12"}},{"type":"Feature","geometry":{"type":"Point","coordinates":[2.57269,44.34861]},"properties":{"nom":"PALAIS DE JUSTICE","ag":["Réseau urbain et scolaire Agglobus"],"lt":0,"dept":"12"}},{"type":"Feature","geometry":{"type":"Point","coordinates":[2.5309,44.3417]},"properties":{"nom":"PLACE DE TOIZAC","ag":["Réseau urbain et scolaire Agglobus"],"lt":0,"dept":"12"}},{"type":"Feature","geometry":{"type":"Point","coordinates":[2.5555,44.2901]},"properties":{"nom":"PMU LA PRIMAUBE","ag":["Réseau urbain et scolaire Agglobus"],"lt":0,"dept":"12"}},{"type":"Feature","geometry":{"type":"Point","coordinates":[2.58172,44.36223]},"properties":{"nom":"POLE GARE","ag":["Réseau urbain et scolaire Agglobus"],"lt":0,"dept":"12"}},{"type":"Feature","geometry":{"type":"Point","coordinates":[2.56456,44.34279]},"properties":{"nom":"POLE DE LA MOULINE","ag":["Réseau urbain et scolaire Agglobus"],"lt":0,"dept":"12"}},{"type":"Feature","geometry":{"type":"Point","coordinates":[2.53355,44.37155]},"properties":{"nom":"LES POTIERS","ag":["Réseau urbain et scolaire Agglobus"],"lt":0,"dept":"12"}},{"type":"Feature","geometry":{"type":"Point","coordinates":[2.53421,44.37134]},"properties":{"nom":"LES POTIERS","ag":["Réseau urbain et scolaire Agglobus"],"lt":0,"dept":"12"}},{"type":"Feature","geometry":{"type":"Point","coordinates":[2.55913,44.32878]},"properties":{"nom":"LA PRADE","ag":["Réseau urbain et scolaire Agglobus"],"lt":0,"dept":"12"}},{"type":"Feature","geometry":{"type":"Point","coordinates":[2.55908,44.32928]},"properties":{"nom":"LA PRADE","ag":["Réseau urbain et scolaire Agglobus"],"lt":0,"dept":"12"}},{"type":"Feature","geometry":{"type":"Point","coordinates":[2.55289,44.28347]},"properties":{"nom":"LA PRIMAUBE (STADE)","ag":["Réseau urbain et scolaire Agglobus"],"lt":0,"dept":"12"}},{"type":"Feature","geometry":{"type":"Point","coordinates":[2.50018,44.31521]},"properties":{"nom":"PRIX","ag":["Réseau urbain et scolaire Agglobus"],"lt":0,"dept":"12"}},{"type":"Feature","geometry":{"type":"Point","coordinates":[2.5002,44.31524]},"properties":{"nom":"PRIX","ag":["Réseau urbain et scolaire Agglobus"],"lt":0,"dept":"12"}},{"type":"Feature","geometry":{"type":"Point","coordinates":[2.5711,44.3469]},"properties":{"nom":"PETIT LANGUEDOC","ag":["Réseau urbain et scolaire Agglobus"],"lt":0,"dept":"12"}},{"type":"Feature","geometry":{"type":"Point","coordinates":[2.57086,44.34666]},"properties":{"nom":"PETIT LANGUEDOC","ag":["Réseau urbain et scolaire Agglobus"],"lt":0,"dept":"12"}},{"type":"Feature","geometry":{"type":"Point","coordinates":[2.56857,44.34646]},"properties":{"nom":"PETIT NICE","ag":["Réseau urbain et scolaire Agglobus"],"lt":0,"dept":"12"}},{"type":"Feature","geometry":{"type":"Point","coordinates":[2.56846,44.34651]},"properties":{"nom":"PETIT NICE","ag":["Réseau urbain et scolaire Agglobus"],"lt":0,"dept":"12"}},{"type":"Feature","geometry":{"type":"Point","coordinates":[2.56853,44.3442]},"properties":{"nom":"PONT VIEL","ag":["Réseau urbain et scolaire Agglobus"],"lt":0,"dept":"12"}},{"type":"Feature","geometry":{"type":"Point","coordinates":[2.57167,44.33958]},"properties":{"nom":"PUECH CAMP","ag":["Réseau urbain et scolaire Agglobus"],"lt":0,"dept":"12"}},{"type":"Feature","geometry":{"type":"Point","coordinates":[2.57128,44.33958]},"properties":{"nom":"PUECH CAMP","ag":["Réseau urbain et scolaire Agglobus"],"lt":0,"dept":"12"}},{"type":"Feature","geometry":{"type":"Point","coordinates":[2.57211,44.34567]},"properties":{"nom":"RUE CARNUS","ag":["Réseau urbain et scolaire Agglobus"],"lt":0,"dept":"12"}},{"type":"Feature","geometry":{"type":"Point","coordinates":[2.55563,44.28897]},"properties":{"nom":"RUE DU STADE","ag":["Réseau urbain et scolaire Agglobus"],"lt":0,"dept":"12"}},{"type":"Feature","geometry":{"type":"Point","coordinates":[2.55567,44.28903]},"properties":{"nom":"RUE DU STADE","ag":["Réseau urbain et scolaire Agglobus"],"lt":0,"dept":"12"}},{"type":"Feature","geometry":{"type":"Point","coordinates":[2.57308,44.41742]},"properties":{"nom":"RESCONDUDOU","ag":["Réseau urbain et scolaire Agglobus"],"lt":0,"dept":"12"}},{"type":"Feature","geometry":{"type":"Point","coordinates":[2.57306,44.41739]},"properties":{"nom":"RESCONDUDOU","ag":["Réseau urbain et scolaire Agglobus"],"lt":0,"dept":"12"}},{"type":"Feature","geometry":{"type":"Point","coordinates":[2.58686,44.36314]},"properties":{"nom":"LA RENAISSANCE","ag":["Réseau urbain et scolaire Agglobus"],"lt":0,"dept":"12"}},{"type":"Feature","geometry":{"type":"Point","coordinates":[2.58697,44.36284]},"properties":{"nom":"LA RENAISSANCE","ag":["Réseau urbain et scolaire Agglobus"],"lt":0,"dept":"12"}},{"type":"Feature","geometry":{"type":"Point","coordinates":[2.59264,44.35252]},"properties":{"nom":"RUE JEAN MOULIN","ag":["Réseau urbain et scolaire Agglobus"],"lt":0,"dept":"12"}},{"type":"Feature","geometry":{"type":"Point","coordinates":[2.57123,44.35548]},"properties":{"nom":"RUE DE MONTCALM","ag":["Réseau urbain et scolaire Agglobus"],"lt":0,"dept":"12"}},{"type":"Feature","geometry":{"type":"Point","coordinates":[2.58587,44.38396]},"properties":{"nom":"LA ROQUE","ag":["Réseau urbain et scolaire Agglobus"],"lt":0,"dept":"12"}},{"type":"Feature","geometry":{"type":"Point","coordinates":[2.58503,44.38414]},"properties":{"nom":"LA ROQUE","ag":["Réseau urbain et scolaire Agglobus"],"lt":0,"dept":"12"}},{"type":"Feature","geometry":{"type":"Point","coordinates":[2.58899,44.36399]},"properties":{"nom":"LES ROSIERS","ag":["Réseau urbain et scolaire Agglobus"],"lt":0,"dept":"12"}},{"type":"Feature","geometry":{"type":"Point","coordinates":[2.58825,44.36397]},"properties":{"nom":"LES ROSIERS","ag":["Réseau urbain et scolaire Agglobus"],"lt":0,"dept":"12"}},{"type":"Feature","geometry":{"type":"Point","coordinates":[2.5795,44.37633]},"properties":{"nom":"LA ROSSIGNOLE","ag":["Réseau urbain et scolaire Agglobus"],"lt":0,"dept":"12"}},{"type":"Feature","geometry":{"type":"Point","coordinates":[2.57935,44.37601]},"properties":{"nom":"LA ROSSIGNOLE","ag":["Réseau urbain et scolaire Agglobus"],"lt":0,"dept":"12"}},{"type":"Feature","geometry":{"type":"Point","coordinates":[2.5741,44.3788]},"properties":{"nom":"LES ROSSIGNOLS","ag":["Réseau urbain et scolaire Agglobus"],"lt":0,"dept":"12"}},{"type":"Feature","geometry":{"type":"Point","coordinates":[2.5571,44.36933]},"properties":{"nom":"LA ROUGIERE","ag":["Réseau urbain et scolaire Agglobus"],"lt":0,"dept":"12"}},{"type":"Feature","geometry":{"type":"Point","coordinates":[2.55738,44.36892]},"properties":{"nom":"LA ROUGIERE","ag":["Réseau urbain et scolaire Agglobus"],"lt":0,"dept":"12"}},{"type":"Feature","geometry":{"type":"Point","coordinates":[2.47055,44.36153]},"properties":{"nom":"ROUMEGUET","ag":["Réseau urbain et scolaire Agglobus"],"lt":0,"dept":"12"}},{"type":"Feature","geometry":{"type":"Point","coordinates":[2.47047,44.36151]},"properties":{"nom":"ROUMEGUET","ag":["Réseau urbain et scolaire Agglobus"],"lt":0,"dept":"12"}},{"type":"Feature","geometry":{"type":"Point","coordinates":[2.52992,44.31564]},"properties":{"nom":"EMBRANCHEMENT ROUTE DE LAX","ag":["Réseau urbain et scolaire Agglobus"],"lt":0,"dept":"12"}},{"type":"Feature","geometry":{"type":"Point","coordinates":[2.52967,44.31582]},"properties":{"nom":"EMBRANCHEMENT ROUTE DE LAX","ag":["Réseau urbain et scolaire Agglobus"],"lt":0,"dept":"12"}},{"type":"Feature","geometry":{"type":"Point","coordinates":[2.5919,44.35218]},"properties":{"nom":"ROGER SERPANTIE","ag":["Réseau urbain et scolaire Agglobus"],"lt":0,"dept":"12"}},{"type":"Feature","geometry":{"type":"Point","coordinates":[2.59814,44.36239]},"properties":{"nom":"ROUTE DE SEVERAC","ag":["Réseau urbain et scolaire Agglobus"],"lt":0,"dept":"12"}},{"type":"Feature","geometry":{"type":"Point","coordinates":[2.59632,44.36337]},"properties":{"nom":"ROUTE DE SEVERAC","ag":["Réseau urbain et scolaire Agglobus"],"lt":0,"dept":"12"}},{"type":"Feature","geometry":{"type":"Point","coordinates":[2.50987,44.32537]},"properties":{"nom":"RUOLS","ag":["Réseau urbain et scolaire Agglobus"],"lt":0,"dept":"12"}},{"type":"Feature","geometry":{"type":"Point","coordinates":[2.53508,44.31117]},"properties":{"nom":"SALLE D'ANIMATION","ag":["Réseau urbain et scolaire Agglobus"],"lt":0,"dept":"12"}},{"type":"Feature","geometry":{"type":"Point","coordinates":[2.5352,44.31165]},"properties":{"nom":"SALLE D'ANIMATION","ag":["Réseau urbain et scolaire Agglobus"],"lt":0,"dept":"12"}},{"type":"Feature","geometry":{"type":"Point","coordinates":[2.59201,44.35856]},"properties":{"nom":"SALELLESK","ag":["Réseau urbain et scolaire Agglobus"],"lt":0,"dept":"12"}},{"type":"Feature","geometry":{"type":"Point","coordinates":[2.59218,44.35857]},"properties":{"nom":"SALELLESK","ag":["Réseau urbain et scolaire Agglobus"],"lt":0,"dept":"12"}},{"type":"Feature","geometry":{"type":"Point","coordinates":[2.59179,44.35952]},"properties":{"nom":"SALELLES","ag":["Réseau urbain et scolaire Agglobus"],"lt":0,"dept":"12"}},{"type":"Feature","geometry":{"type":"Point","coordinates":[2.59172,44.35943]},"properties":{"nom":"SALELLES","ag":["Réseau urbain et scolaire Agglobus"],"lt":0,"dept":"12"}},{"type":"Feature","geometry":{"type":"Point","coordinates":[2.60292,44.36245]},"properties":{"nom":"SAN PAU","ag":["Réseau urbain et scolaire Agglobus"],"lt":0,"dept":"12"}},{"type":"Feature","geometry":{"type":"Point","coordinates":[2.60307,44.3623]},"properties":{"nom":"SAN PAU","ag":["Réseau urbain et scolaire Agglobus"],"lt":0,"dept":"12"}},{"type":"Feature","geometry":{"type":"Point","coordinates":[2.57211,44.34567]},"properties":{"nom":"RUE SARRUS","ag":["Réseau urbain et scolaire Agglobus"],"lt":0,"dept":"12"}},{"type":"Feature","geometry":{"type":"Point","coordinates":[2.57722,44.35613]},"properties":{"nom":"SACRE COEUR","ag":["Réseau urbain et scolaire Agglobus"],"lt":0,"dept":"12"}},{"type":"Feature","geometry":{"type":"Point","coordinates":[2.59962,44.40519]},"properties":{"nom":"SEBAZAC MAIRIE","ag":["Réseau urbain et scolaire Agglobus"],"lt":0,"dept":"12"}},{"type":"Feature","geometry":{"type":"Point","coordinates":[2.5745,44.33434]},"properties":{"nom":"SEGALA","ag":["Réseau urbain et scolaire Agglobus"],"lt":0,"dept":"12"}},{"type":"Feature","geometry":{"type":"Point","coordinates":[2.57508,44.33463]},"properties":{"nom":"SEGALA","ag":["Réseau urbain et scolaire Agglobus"],"lt":0,"dept":"12"}},{"type":"Feature","geometry":{"type":"Point","coordinates":[2.58024,44.34852]},"properties":{"nom":"SEMINAIRE","ag":["Réseau urbain et scolaire Agglobus"],"lt":0,"dept":"12"}},{"type":"Feature","geometry":{"type":"Point","coordinates":[2.58039,44.34854]},"properties":{"nom":"SEMINAIRE","ag":["Réseau urbain et scolaire Agglobus"],"lt":0,"dept":"12"}},{"type":"Feature","geometry":{"type":"Point","coordinates":[2.52825,44.34301]},"properties":{"nom":"SALLE DES FETES DE TOIZAC","ag":["Réseau urbain et scolaire Agglobus"],"lt":0,"dept":"12"}},{"type":"Feature","geometry":{"type":"Point","coordinates":[2.52806,44.34305]},"properties":{"nom":"SALLE DES FETES DE TOIZAC","ag":["Réseau urbain et scolaire Agglobus"],"lt":0,"dept":"12"}},{"type":"Feature","geometry":{"type":"Point","coordinates":[2.61791,44.36696]},"properties":{"nom":"LA SOUYRINIE","ag":["Réseau urbain et scolaire Agglobus"],"lt":0,"dept":"12"}},{"type":"Feature","geometry":{"type":"Point","coordinates":[2.57873,44.32899]},"properties":{"nom":"STADE DU MONASTERE","ag":["Réseau urbain et scolaire Agglobus"],"lt":0,"dept":"12"}},{"type":"Feature","geometry":{"type":"Point","coordinates":[2.52755,44.31673]},"properties":{"nom":"STADE DE LUC","ag":["Réseau urbain et scolaire Agglobus"],"lt":0,"dept":"12"}},{"type":"Feature","geometry":{"type":"Point","coordinates":[2.52753,44.31678]},"properties":{"nom":"STADE DE LUC","ag":["Réseau urbain et scolaire Agglobus"],"lt":0,"dept":"12"}},{"type":"Feature","geometry":{"type":"Point","coordinates":[2.58489,44.35613]},"properties":{"nom":"STOP CARDAILLAC","ag":["Réseau urbain et scolaire Agglobus"],"lt":0,"dept":"12"}},{"type":"Feature","geometry":{"type":"Point","coordinates":[2.5847,44.35623]},"properties":{"nom":"STOP CARDAILLAC","ag":["Réseau urbain et scolaire Agglobus"],"lt":0,"dept":"12"}},{"type":"Feature","geometry":{"type":"Point","coordinates":[2.57646,44.35507]},"properties":{"nom":"SAINT CYRICE","ag":["Réseau urbain et scolaire Agglobus"],"lt":0,"dept":"12"}},{"type":"Feature","geometry":{"type":"Point","coordinates":[2.57211,44.36179]},"properties":{"nom":"SAINT ELOI","ag":["Réseau urbain et scolaire Agglobus"],"lt":0,"dept":"12"}},{"type":"Feature","geometry":{"type":"Point","coordinates":[2.57226,44.36173]},"properties":{"nom":"SAINT ELOI","ag":["Réseau urbain et scolaire Agglobus"],"lt":0,"dept":"12"}},{"type":"Feature","geometry":{"type":"Point","coordinates":[2.56708,44.34528]},"properties":{"nom":"ST EXUPERY","ag":["Réseau urbain et scolaire Agglobus"],"lt":0,"dept":"12"}},{"type":"Feature","geometry":{"type":"Point","coordinates":[2.56633,44.34507]},"properties":{"nom":"ST EXUPERY","ag":["Réseau urbain et scolaire Agglobus"],"lt":0,"dept":"12"}},{"type":"Feature","geometry":{"type":"Point","coordinates":[2.55783,44.36699]},"properties":{"nom":"SAINT FELIX CITE 2","ag":["Réseau urbain et scolaire Agglobus"],"lt":0,"dept":"12"}},{"type":"Feature","geometry":{"type":"Point","coordinates":[2.55677,44.36604]},"properties":{"nom":"SAINT FELIX CITE 3","ag":["Réseau urbain et scolaire Agglobus"],"lt":0,"dept":"12"}},{"type":"Feature","geometry":{"type":"Point","coordinates":[2.55849,44.3647]},"properties":{"nom":"SAINT FELIX CITE 4","ag":["Réseau urbain et scolaire Agglobus"],"lt":0,"dept":"12"}},{"type":"Feature","geometry":{"type":"Point","coordinates":[2.55987,44.36435]},"properties":{"nom":"SAINT FELIX CITE 5","ag":["Réseau urbain et scolaire Agglobus"],"lt":0,"dept":"12"}},{"type":"Feature","geometry":{"type":"Point","coordinates":[2.56266,44.36337]},"properties":{"nom":"SAINT FELIX CITE 6","ag":["Réseau urbain et scolaire Agglobus"],"lt":0,"dept":"12"}},{"type":"Feature","geometry":{"type":"Point","coordinates":[2.5611,44.36584]},"properties":{"nom":"SAINT FELIX CITE 1","ag":["Réseau urbain et scolaire Agglobus"],"lt":0,"dept":"12"}},{"type":"Feature","geometry":{"type":"Point","coordinates":[2.58712,44.36684]},"properties":{"nom":"SAINT FIRMIN","ag":["Réseau urbain et scolaire Agglobus"],"lt":0,"dept":"12"}},{"type":"Feature","geometry":{"type":"Point","coordinates":[2.58681,44.36665]},"properties":{"nom":"SAINT FIRMIN","ag":["Réseau urbain et scolaire Agglobus"],"lt":0,"dept":"12"}},{"type":"Feature","geometry":{"type":"Point","coordinates":[2.60905,44.33533]},"properties":{"nom":"STADE ISTOURNET","ag":["Réseau urbain et scolaire Agglobus"],"lt":0,"dept":"12"}},{"type":"Feature","geometry":{"type":"Point","coordinates":[2.56163,44.29099]},"properties":{"nom":"SAINT JEAN","ag":["Réseau urbain et scolaire Agglobus"],"lt":0,"dept":"12"}},{"type":"Feature","geometry":{"type":"Point","coordinates":[2.56168,44.2916]},"properties":{"nom":"SAINT JEAN","ag":["Réseau urbain et scolaire Agglobus"],"lt":0,"dept":"12"}},{"type":"Feature","geometry":{"type":"Point","coordinates":[2.5307,44.36433]},"properties":{"nom":"ST JOSEPH","ag":["Réseau urbain et scolaire Agglobus"],"lt":0,"dept":"12"}},{"type":"Feature","geometry":{"type":"Point","coordinates":[2.53075,44.36417]},"properties":{"nom":"ST JOSEPH","ag":["Réseau urbain et scolaire Agglobus"],"lt":0,"dept":"12"}},{"type":"Feature","geometry":{"type":"Point","coordinates":[2.55946,44.28974]},"properties":{"nom":"SAINT MARTIN","ag":["Réseau urbain et scolaire Agglobus"],"lt":0,"dept":"12"}},{"type":"Feature","geometry":{"type":"Point","coordinates":[2.55931,44.28972]},"properties":{"nom":"SAINT MARTIN","ag":["Réseau urbain et scolaire Agglobus"],"lt":0,"dept":"12"}},{"type":"Feature","geometry":{"type":"Point","coordinates":[2.60815,44.37299]},"properties":{"nom":"SAINT MAYME","ag":["Réseau urbain et scolaire Agglobus"],"lt":0,"dept":"12"}},{"type":"Feature","geometry":{"type":"Point","coordinates":[2.55579,44.35554]},"properties":{"nom":"SAINT PIERRE","ag":["Réseau urbain et scolaire Agglobus"],"lt":0,"dept":"12"}},{"type":"Feature","geometry":{"type":"Point","coordinates":[2.55567,44.35563]},"properties":{"nom":"SAINT PIERRE","ag":["Réseau urbain et scolaire Agglobus"],"lt":0,"dept":"12"}},{"type":"Feature","geometry":{"type":"Point","coordinates":[2.55289,44.28347]},"properties":{"nom":"STADE DE LA PRIMAUBE","ag":["Réseau urbain et scolaire Agglobus"],"lt":0,"dept":"12"}},{"type":"Feature","geometry":{"type":"Point","coordinates":[2.57315,44.3365]},"properties":{"nom":"ST SERNIN","ag":["Réseau urbain et scolaire Agglobus"],"lt":0,"dept":"12"}},{"type":"Feature","geometry":{"type":"Point","coordinates":[2.57246,44.33739]},"properties":{"nom":"ST SERNIN","ag":["Réseau urbain et scolaire Agglobus"],"lt":0,"dept":"12"}},{"type":"Feature","geometry":{"type":"Point","coordinates":[2.5291,44.35181]},"properties":{"nom":"TOIZAC","ag":["Réseau urbain et scolaire Agglobus"],"lt":0,"dept":"12"}},{"type":"Feature","geometry":{"type":"Point","coordinates":[2.62911,44.33926]},"properties":{"nom":"TREGOUS","ag":["Réseau urbain et scolaire Agglobus"],"lt":0,"dept":"12"}},{"type":"Feature","geometry":{"type":"Point","coordinates":[2.59823,44.39678]},"properties":{"nom":"TREMBLANT","ag":["Réseau urbain et scolaire Agglobus"],"lt":0,"dept":"12"}},{"type":"Feature","geometry":{"type":"Point","coordinates":[2.59813,44.3968]},"properties":{"nom":"TREMBLANT","ag":["Réseau urbain et scolaire Agglobus"],"lt":0,"dept":"12"}},{"type":"Feature","geometry":{"type":"Point","coordinates":[2.62918,44.33932]},"properties":{"nom":"TREGOUS","ag":["Réseau urbain et scolaire Agglobus"],"lt":0,"dept":"12"}},{"type":"Feature","geometry":{"type":"Point","coordinates":[2.51128,44.29983]},"properties":{"nom":"VALETTE","ag":["Réseau urbain et scolaire Agglobus"],"lt":0,"dept":"12"}},{"type":"Feature","geometry":{"type":"Point","coordinates":[2.57901,44.35912]},"properties":{"nom":"VALLON","ag":["Réseau urbain et scolaire Agglobus"],"lt":0,"dept":"12"}},{"type":"Feature","geometry":{"type":"Point","coordinates":[2.57901,44.35924]},"properties":{"nom":"VALLON","ag":["Réseau urbain et scolaire Agglobus"],"lt":0,"dept":"12"}},{"type":"Feature","geometry":{"type":"Point","coordinates":[2.5674,44.35128]},"properties":{"nom":"VICTOR HUGO","ag":["Réseau urbain et scolaire Agglobus"],"lt":0,"dept":"12"}},{"type":"Feature","geometry":{"type":"Point","coordinates":[2.55952,44.3354]},"properties":{"nom":"VIADUC DE LA MOULINE","ag":["Réseau urbain et scolaire Agglobus"],"lt":0,"dept":"12"}},{"type":"Feature","geometry":{"type":"Point","coordinates":[2.55927,44.33539]},"properties":{"nom":"VIADUC DE LA MOULINE","ag":["Réseau urbain et scolaire Agglobus"],"lt":0,"dept":"12"}},{"type":"Feature","geometry":{"type":"Point","coordinates":[2.56154,44.34833]},"properties":{"nom":"VIEUSSENS","ag":["Réseau urbain et scolaire Agglobus"],"lt":0,"dept":"12"}},{"type":"Feature","geometry":{"type":"Point","coordinates":[2.58571,44.36083]},"properties":{"nom":"VIEUX CHENES","ag":["Réseau urbain et scolaire Agglobus"],"lt":0,"dept":"12"}},{"type":"Feature","geometry":{"type":"Point","coordinates":[2.58613,44.36097]},"properties":{"nom":"VIEUX CHENES","ag":["Réseau urbain et scolaire Agglobus"],"lt":0,"dept":"12"}},{"type":"Feature","geometry":{"type":"Point","coordinates":[2.54427,44.37968]},"properties":{"nom":"VIEUX FOUR","ag":["Réseau urbain et scolaire Agglobus"],"lt":0,"dept":"12"}},{"type":"Feature","geometry":{"type":"Point","coordinates":[2.58212,44.36235]},"properties":{"nom":"Rodez","ag":["Réseau européen BlaBlaCar Bus"],"lt":0,"dept":"12"}},{"type":"Feature","geometry":{"type":"Point","coordinates":[2.22474,44.56004]},"properties":{"nom":"Les Acacias","ag":["Réseau urbain TUB"],"lt":1,"dept":"12"}},{"type":"Feature","geometry":{"type":"Point","coordinates":[2.27527,44.52604]},"properties":{"nom":"Anatole France","ag":["Réseau urbain TUB"],"lt":1,"dept":"12"}},{"type":"Feature","geometry":{"type":"Point","coordinates":[2.2762,44.52607]},"properties":{"nom":"Anatole France","ag":["Réseau urbain TUB"],"lt":1,"dept":"12"}},{"type":"Feature","geometry":{"type":"Point","coordinates":[2.25253,44.57146]},"properties":{"nom":"Baldy","ag":["Réseau urbain TUB"],"lt":1,"dept":"12"}},{"type":"Feature","geometry":{"type":"Point","coordinates":[2.25261,44.57139]},"properties":{"nom":"Baldy","ag":["Réseau urbain TUB"],"lt":1,"dept":"12"}},{"type":"Feature","geometry":{"type":"Point","coordinates":[2.2551,44.55847]},"properties":{"nom":"Cabrol","ag":["Réseau urbain TUB"],"lt":1,"dept":"12"}},{"type":"Feature","geometry":{"type":"Point","coordinates":[2.25504,44.55857]},"properties":{"nom":"Cabrol","ag":["Réseau urbain TUB"],"lt":1,"dept":"12"}},{"type":"Feature","geometry":{"type":"Point","coordinates":[2.25284,44.55862]},"properties":{"nom":"Cayrade","ag":["Réseau urbain TUB"],"lt":1,"dept":"12"}},{"type":"Feature","geometry":{"type":"Point","coordinates":[2.31962,44.53434]},"properties":{"nom":"Cerles","ag":["Réseau urbain TUB"],"lt":1,"dept":"12"}},{"type":"Feature","geometry":{"type":"Point","coordinates":[2.31951,44.53462]},"properties":{"nom":"Cerles","ag":["Réseau urbain TUB"],"lt":1,"dept":"12"}},{"type":"Feature","geometry":{"type":"Point","coordinates":[2.24738,44.54315]},"properties":{"nom":"Cérons","ag":["Réseau urbain TUB"],"lt":1,"dept":"12"}},{"type":"Feature","geometry":{"type":"Point","coordinates":[2.24727,44.54251]},"properties":{"nom":"Cérons","ag":["Réseau urbain TUB"],"lt":1,"dept":"12"}},{"type":"Feature","geometry":{"type":"Point","coordinates":[2.2473,44.54291]},"properties":{"nom":"Cérons","ag":["Réseau urbain TUB"],"lt":1,"dept":"12"}},{"type":"Feature","geometry":{"type":"Point","coordinates":[2.32678,44.52845]},"properties":{"nom":"Château du Claux","ag":["Réseau urbain TUB"],"lt":1,"dept":"12"}},{"type":"Feature","geometry":{"type":"Point","coordinates":[2.32689,44.52852]},"properties":{"nom":"Château du Claux","ag":["Réseau urbain TUB"],"lt":1,"dept":"12"}},{"type":"Feature","geometry":{"type":"Point","coordinates":[2.29222,44.54842]},"properties":{"nom":"Cité de Ruau","ag":["Réseau urbain TUB"],"lt":1,"dept":"12"}},{"type":"Feature","geometry":{"type":"Point","coordinates":[2.29222,44.5485]},"properties":{"nom":"Cité de Ruau","ag":["Réseau urbain TUB"],"lt":1,"dept":"12"}},{"type":"Feature","geometry":{"type":"Point","coordinates":[2.24827,44.57404]},"properties":{"nom":"Cité du Saihenc","ag":["Réseau urbain TUB"],"lt":1,"dept":"12"}},{"type":"Feature","geometry":{"type":"Point","coordinates":[2.31987,44.53673]},"properties":{"nom":"Cité Jean Jaures","ag":["Réseau urbain TUB"],"lt":1,"dept":"12"}},{"type":"Feature","geometry":{"type":"Point","coordinates":[2.28305,44.52502]},"properties":{"nom":"Cransac Centre (Collège)","ag":["Réseau urbain TUB"],"lt":1,"dept":"12"}},{"type":"Feature","geometry":{"type":"Point","coordinates":[2.28267,44.52566]},"properties":{"nom":"Cransac Centre (La poste)","ag":["Réseau urbain TUB"],"lt":1,"dept":"12"}},{"type":"Feature","geometry":{"type":"Point","coordinates":[2.25189,44.55131]},"properties":{"nom":"La Croix du Broual","ag":["Réseau urbain TUB"],"lt":1,"dept":"12"}},{"type":"Feature","geometry":{"type":"Point","coordinates":[2.25176,44.5501]},"properties":{"nom":"La Croix du Broual","ag":["Réseau urbain TUB"],"lt":1,"dept":"12"}},{"type":"Feature","geometry":{"type":"Point","coordinates":[2.2432,44.53471]},"properties":{"nom":"Croix de Lalande","ag":["Réseau urbain TUB"],"lt":1,"dept":"12"}},{"type":"Feature","geometry":{"type":"Point","coordinates":[2.24301,44.53419]},"properties":{"nom":"Croix de Lalande","ag":["Réseau urbain TUB"],"lt":1,"dept":"12"}},{"type":"Feature","geometry":{"type":"Point","coordinates":[2.23679,44.53116]},"properties":{"nom":"Edmond Ginestet","ag":["Réseau urbain TUB"],"lt":1,"dept":"12"}},{"type":"Feature","geometry":{"type":"Point","coordinates":[2.23698,44.53099]},"properties":{"nom":"Edmond Ginestet","ag":["Réseau urbain TUB"],"lt":1,"dept":"12"}},{"type":"Feature","geometry":{"type":"Point","coordinates":[2.24438,44.57603]},"properties":{"nom":"Les Estaques","ag":["Réseau urbain TUB"],"lt":1,"dept":"12"}},{"type":"Feature","geometry":{"type":"Point","coordinates":[2.24464,44.57606]},"properties":{"nom":"Les Estaques","ag":["Réseau urbain TUB"],"lt":1,"dept":"12"}},{"type":"Feature","geometry":{"type":"Point","coordinates":[2.24971,44.57519]},"properties":{"nom":"Eugène viala","ag":["Réseau urbain TUB"],"lt":1,"dept":"12"}},{"type":"Feature","geometry":{"type":"Point","coordinates":[2.30709,44.54169]},"properties":{"nom":"Firmi Centre","ag":["Réseau urbain TUB"],"lt":1,"dept":"12"}},{"type":"Feature","geometry":{"type":"Point","coordinates":[2.30642,44.54166]},"properties":{"nom":"Firmi Centre","ag":["Réseau urbain TUB"],"lt":1,"dept":"12"}},{"type":"Feature","geometry":{"type":"Point","coordinates":[2.26345,44.55532]},"properties":{"nom":"Fontvergnes","ag":["Réseau urbain TUB"],"lt":1,"dept":"12"}},{"type":"Feature","geometry":{"type":"Point","coordinates":[2.26347,44.55546]},"properties":{"nom":"Fontvergnes","ag":["Réseau urbain TUB"],"lt":1,"dept":"12"}},{"type":"Feature","geometry":{"type":"Point","coordinates":[2.25567,44.57316]},"properties":{"nom":"François Fabié","ag":["Réseau urbain TUB"],"lt":1,"dept":"12"}},{"type":"Feature","geometry":{"type":"Point","coordinates":[2.25288,44.56136]},"properties":{"nom":"Gare routière","ag":["Réseau urbain TUB"],"lt":1,"dept":"12"}},{"type":"Feature","geometry":{"type":"Point","coordinates":[2.25219,44.56129]},"properties":{"nom":"Gare routière","ag":["Réseau urbain TUB"],"lt":1,"dept":"12"}},{"type":"Feature","geometry":{"type":"Point","coordinates":[2.21809,44.55562]},"properties":{"nom":"Gare SNCF","ag":["Réseau urbain TUB"],"lt":1,"dept":"12"}},{"type":"Feature","geometry":{"type":"Point","coordinates":[2.21643,44.55602]},"properties":{"nom":"Viviez Bourg - Gare SNCF","ag":["Réseau urbain TUB"],"lt":1,"dept":"12"}},{"type":"Feature","geometry":{"type":"Point","coordinates":[2.25294,44.57447]},"properties":{"nom":"Hector Berlioz","ag":["Réseau urbain TUB"],"lt":1,"dept":"12"}},{"type":"Feature","geometry":{"type":"Point","coordinates":[2.25984,44.53909]},"properties":{"nom":"Les Iris - Combes","ag":["Réseau urbain TUB"],"lt":1,"dept":"12"}},{"type":"Feature","geometry":{"type":"Point","coordinates":[2.2599,44.53915]},"properties":{"nom":"Les Iris - Combes","ag":["Réseau urbain TUB"],"lt":1,"dept":"12"}},{"type":"Feature","geometry":{"type":"Point","coordinates":[2.32276,44.53122]},"properties":{"nom":"Jean Moulin","ag":["Réseau urbain TUB"],"lt":1,"dept":"12"}},{"type":"Feature","geometry":{"type":"Point","coordinates":[2.32287,44.53126]},"properties":{"nom":"Jean Moulin","ag":["Réseau urbain TUB"],"lt":1,"dept":"12"}},{"type":"Feature","geometry":{"type":"Point","coordinates":[2.22756,44.56004]},"properties":{"nom":"La Boudie","ag":["Réseau urbain TUB"],"lt":1,"dept":"12"}},{"type":"Feature","geometry":{"type":"Point","coordinates":[2.2261,44.56026]},"properties":{"nom":"La Boudie","ag":["Réseau urbain TUB"],"lt":1,"dept":"12"}},{"type":"Feature","geometry":{"type":"Point","coordinates":[2.27269,44.52561]},"properties":{"nom":"La Cayronie","ag":["Réseau urbain TUB"],"lt":1,"dept":"12"}},{"type":"Feature","geometry":{"type":"Point","coordinates":[2.27255,44.52554]},"properties":{"nom":"La Cayronie","ag":["Réseau urbain TUB"],"lt":1,"dept":"12"}},{"type":"Feature","geometry":{"type":"Point","coordinates":[2.25854,44.55476]},"properties":{"nom":"La Découverte","ag":["Réseau urbain TUB"],"lt":1,"dept":"12"}},{"type":"Feature","geometry":{"type":"Point","coordinates":[2.25821,44.55501]},"properties":{"nom":"La Découverte","ag":["Réseau urbain TUB"],"lt":1,"dept":"12"}},{"type":"Feature","geometry":{"type":"Point","coordinates":[2.30004,44.54449]},"properties":{"nom":"La Forézie","ag":["Réseau urbain TUB"],"lt":1,"dept":"12"}},{"type":"Feature","geometry":{"type":"Point","coordinates":[2.30037,44.54449]},"properties":{"nom":"La Forézie","ag":["Réseau urbain TUB"],"lt":1,"dept":"12"}},{"type":"Feature","geometry":{"type":"Point","coordinates":[2.22837,44.53896]},"properties":{"nom":"Lalande","ag":["Réseau urbain TUB"],"lt":1,"dept":"12"}},{"type":"Feature","geometry":{"type":"Point","coordinates":[2.22834,44.53875]},"properties":{"nom":"Lalande","ag":["Réseau urbain TUB"],"lt":1,"dept":"12"}},{"type":"Feature","geometry":{"type":"Point","coordinates":[2.23212,44.53393]},"properties":{"nom":"La Planquette","ag":["Réseau urbain TUB"],"lt":1,"dept":"12"}},{"type":"Feature","geometry":{"type":"Point","coordinates":[2.23218,44.53367]},"properties":{"nom":"La Planquette","ag":["Réseau urbain TUB"],"lt":1,"dept":"12"}},{"type":"Feature","geometry":{"type":"Point","coordinates":[2.24153,44.56391]},"properties":{"nom":"La Réclusie","ag":["Réseau urbain TUB"],"lt":1,"dept":"12"}},{"type":"Feature","geometry":{"type":"Point","coordinates":[2.24146,44.56335]},"properties":{"nom":"La Réclusie","ag":["Réseau urbain TUB"],"lt":1,"dept":"12"}},{"type":"Feature","geometry":{"type":"Point","coordinates":[2.24025,44.56308]},"properties":{"nom":"La Réclusie (Marché)","ag":["Réseau urbain TUB"],"lt":1,"dept":"12"}},{"type":"Feature","geometry":{"type":"Point","coordinates":[2.24946,44.56653]},"properties":{"nom":"Larromiguière","ag":["Réseau urbain TUB"],"lt":1,"dept":"12"}},{"type":"Feature","geometry":{"type":"Point","coordinates":[2.27743,44.52534]},"properties":{"nom":"La Treille","ag":["Réseau urbain TUB"],"lt":1,"dept":"12"}},{"type":"Feature","geometry":{"type":"Point","coordinates":[2.27769,44.52526]},"properties":{"nom":"La treille","ag":["Réseau urbain TUB"],"lt":1,"dept":"12"}},{"type":"Feature","geometry":{"type":"Point","coordinates":[2.24714,44.56267]},"properties":{"nom":"La Vitarelle","ag":["Réseau urbain TUB"],"lt":1,"dept":"12"}},{"type":"Feature","geometry":{"type":"Point","coordinates":[2.2484,44.56271]},"properties":{"nom":"La Vitarelle (Marché)","ag":["Réseau urbain TUB"],"lt":1,"dept":"12"}},{"type":"Feature","geometry":{"type":"Point","coordinates":[2.24722,44.56306]},"properties":{"nom":"La Vitarelle","ag":["Réseau urbain TUB"],"lt":1,"dept":"12"}},{"type":"Feature","geometry":{"type":"Point","coordinates":[2.24812,44.56367]},"properties":{"nom":"La Vitarelle","ag":["Réseau urbain TUB"],"lt":1,"dept":"12"}},{"type":"Feature","geometry":{"type":"Point","coordinates":[2.24791,44.5634]},"properties":{"nom":"La Vitarelle","ag":["Réseau urbain TUB"],"lt":1,"dept":"12"}},{"type":"Feature","geometry":{"type":"Point","coordinates":[2.33188,44.52536]},"properties":{"nom":"Le Claux","ag":["Réseau urbain TUB"],"lt":1,"dept":"12"}},{"type":"Feature","geometry":{"type":"Point","coordinates":[2.22608,44.54454]},"properties":{"nom":"Le Crouzet","ag":["Réseau urbain TUB"],"lt":1,"dept":"12"}},{"type":"Feature","geometry":{"type":"Point","coordinates":[2.23503,44.56222]},"properties":{"nom":"Les Prades","ag":["Réseau urbain TUB"],"lt":1,"dept":"12"}},{"type":"Feature","geometry":{"type":"Point","coordinates":[2.23407,44.56206]},"properties":{"nom":"Les Prades","ag":["Réseau urbain TUB"],"lt":1,"dept":"12"}},{"type":"Feature","geometry":{"type":"Point","coordinates":[2.27561,44.52787]},"properties":{"nom":"Les Thermes","ag":["Réseau urbain TUB"],"lt":1,"dept":"12"}},{"type":"Feature","geometry":{"type":"Point","coordinates":[2.26593,44.53939]},"properties":{"nom":"Les Lilas - Combes","ag":["Réseau urbain TUB"],"lt":1,"dept":"12"}},{"type":"Feature","geometry":{"type":"Point","coordinates":[2.26576,44.53951]},"properties":{"nom":"Les Lilas - Combes","ag":["Réseau urbain TUB"],"lt":1,"dept":"12"}},{"type":"Feature","geometry":{"type":"Point","coordinates":[2.2869,44.55131]},"properties":{"nom":"Le Plégat","ag":["Réseau urbain TUB"],"lt":1,"dept":"12"}},{"type":"Feature","geometry":{"type":"Point","coordinates":[2.28691,44.5514]},"properties":{"nom":"Le Plégat","ag":["Réseau urbain TUB"],"lt":1,"dept":"12"}},{"type":"Feature","geometry":{"type":"Point","coordinates":[2.2522,44.56731]},"properties":{"nom":"Lycée La Découverte","ag":["Réseau urbain TUB"],"lt":1,"dept":"12"}},{"type":"Feature","geometry":{"type":"Point","coordinates":[2.24159,44.52953]},"properties":{"nom":"Lycée professionnel","ag":["Réseau urbain TUB"],"lt":1,"dept":"12"}},{"type":"Feature","geometry":{"type":"Point","coordinates":[2.24161,44.52937]},"properties":{"nom":"Lycée professionnel","ag":["Réseau urbain TUB"],"lt":1,"dept":"12"}},{"type":"Feature","geometry":{"type":"Point","coordinates":[2.26743,44.52686]},"properties":{"nom":"Maison de santé du Gua","ag":["Réseau urbain TUB"],"lt":1,"dept":"12"}},{"type":"Feature","geometry":{"type":"Point","coordinates":[2.26782,44.52671]},"properties":{"nom":"Maison de santé du Gua","ag":["Réseau urbain TUB"],"lt":1,"dept":"12"}},{"type":"Feature","geometry":{"type":"Point","coordinates":[2.25885,44.55658]},"properties":{"nom":"Maison de santé du Centre","ag":["Réseau urbain TUB"],"lt":1,"dept":"12"}},{"type":"Feature","geometry":{"type":"Point","coordinates":[2.25887,44.55663]},"properties":{"nom":"Maison de santé du Centre","ag":["Réseau urbain TUB"],"lt":1,"dept":"12"}},{"type":"Feature","geometry":{"type":"Point","coordinates":[2.25348,44.55437]},"properties":{"nom":"Miramont","ag":["Réseau urbain TUB"],"lt":1,"dept":"12"}},{"type":"Feature","geometry":{"type":"Point","coordinates":[2.25255,44.55478]},"properties":{"nom":"Miramont","ag":["Réseau urbain TUB"],"lt":1,"dept":"12"}},{"type":"Feature","geometry":{"type":"Point","coordinates":[2.24384,44.57441]},"properties":{"nom":"Nantuech","ag":["Réseau urbain TUB"],"lt":1,"dept":"12"}},{"type":"Feature","geometry":{"type":"Point","coordinates":[2.27899,44.52651]},"properties":{"nom":"Parc Thermal","ag":["Réseau urbain TUB"],"lt":1,"dept":"12"}},{"type":"Feature","geometry":{"type":"Point","coordinates":[2.27959,44.5264]},"properties":{"nom":"Parc Thermal","ag":["Réseau urbain TUB"],"lt":1,"dept":"12"}},{"type":"Feature","geometry":{"type":"Point","coordinates":[2.26956,44.55693]},"properties":{"nom":"Paul Ramadier","ag":["Réseau urbain TUB"],"lt":1,"dept":"12"}},{"type":"Feature","geometry":{"type":"Point","coordinates":[2.26965,44.55706]},"properties":{"nom":"Paul Ramadier","ag":["Réseau urbain TUB"],"lt":1,"dept":"12"}},{"type":"Feature","geometry":{"type":"Point","coordinates":[2.28581,44.52494]},"properties":{"nom":"Passelaygues","ag":["Réseau urbain TUB"],"lt":1,"dept":"12"}},{"type":"Feature","geometry":{"type":"Point","coordinates":[2.26632,44.52838]},"properties":{"nom":"Place Ferrer","ag":["Réseau urbain TUB"],"lt":1,"dept":"12"}},{"type":"Feature","geometry":{"type":"Point","coordinates":[2.26676,44.5286]},"properties":{"nom":"Place Ferrer","ag":["Réseau urbain TUB"],"lt":1,"dept":"12"}},{"type":"Feature","geometry":{"type":"Point","coordinates":[2.24373,44.52822]},"properties":{"nom":"Place Monteil","ag":["Réseau urbain TUB"],"lt":1,"dept":"12"}},{"type":"Feature","geometry":{"type":"Point","coordinates":[2.2634,44.52811]},"properties":{"nom":"Place de la République","ag":["Réseau urbain TUB"],"lt":1,"dept":"12"}},{"type":"Feature","geometry":{"type":"Point","coordinates":[2.26364,44.52814]},"properties":{"nom":"Place de la République","ag":["Réseau urbain TUB"],"lt":1,"dept":"12"}},{"type":"Feature","geometry":{"type":"Point","coordinates":[2.2467,44.52685]},"properties":{"nom":"Place Jean Jaures","ag":["Réseau urbain TUB"],"lt":1,"dept":"12"}},{"type":"Feature","geometry":{"type":"Point","coordinates":[2.25485,44.52827]},"properties":{"nom":"Pont de Labro","ag":["Réseau urbain TUB"],"lt":1,"dept":"12"}},{"type":"Feature","geometry":{"type":"Point","coordinates":[2.25494,44.52818]},"properties":{"nom":"Pont de Labro","ag":["Réseau urbain TUB"],"lt":1,"dept":"12"}},{"type":"Feature","geometry":{"type":"Point","coordinates":[2.25461,44.57118]},"properties":{"nom":"Prosper Alfaric","ag":["Réseau urbain TUB"],"lt":1,"dept":"12"}},{"type":"Feature","geometry":{"type":"Point","coordinates":[2.25172,44.57331]},"properties":{"nom":"Sailhenc Bonnières","ag":["Réseau urbain TUB"],"lt":1,"dept":"12"}},{"type":"Feature","geometry":{"type":"Point","coordinates":[2.25162,44.57339]},"properties":{"nom":"Sailhenc Bonnières","ag":["Réseau urbain TUB"],"lt":1,"dept":"12"}},{"type":"Feature","geometry":{"type":"Point","coordinates":[2.27689,44.55701]},"properties":{"nom":"Saint Michel - Lindardie","ag":["Réseau urbain TUB"],"lt":1,"dept":"12"}},{"type":"Feature","geometry":{"type":"Point","coordinates":[2.27669,44.55718]},"properties":{"nom":"Saint Michel - Lindardie","ag":["Réseau urbain TUB"],"lt":1,"dept":"12"}},{"type":"Feature","geometry":{"type":"Point","coordinates":[2.2767,44.55935]},"properties":{"nom":"Saint Michel - Eglise","ag":["Réseau urbain TUB"],"lt":1,"dept":"12"}},{"type":"Feature","geometry":{"type":"Point","coordinates":[2.277,44.55944]},"properties":{"nom":"Saint Michel - Eglise","ag":["Réseau urbain TUB"],"lt":1,"dept":"12"}},{"type":"Feature","geometry":{"type":"Point","coordinates":[2.28288,44.55309]},"properties":{"nom":"Tramons","ag":["Réseau urbain TUB"],"lt":1,"dept":"12"}},{"type":"Feature","geometry":{"type":"Point","coordinates":[2.28305,44.55311]},"properties":{"nom":"Tramons","ag":["Réseau urbain TUB"],"lt":1,"dept":"12"}},{"type":"Feature","geometry":{"type":"Point","coordinates":[2.25152,44.5678]},"properties":{"nom":"Trépalou","ag":["Réseau urbain TUB"],"lt":1,"dept":"12"}},{"type":"Feature","geometry":{"type":"Point","coordinates":[2.25143,44.5675]},"properties":{"nom":"Trépalou","ag":["Réseau urbain TUB"],"lt":1,"dept":"12"}},{"type":"Feature","geometry":{"type":"Point","coordinates":[2.27252,44.55903]},"properties":{"nom":"Valayssac","ag":["Réseau urbain TUB"],"lt":1,"dept":"12"}},{"type":"Feature","geometry":{"type":"Point","coordinates":[2.27248,44.55912]},"properties":{"nom":"Valayssac","ag":["Réseau urbain TUB"],"lt":1,"dept":"12"}},{"type":"Feature","geometry":{"type":"Point","coordinates":[2.3127,44.54162]},"properties":{"nom":"Val Vert","ag":["Réseau urbain TUB"],"lt":1,"dept":"12"}},{"type":"Feature","geometry":{"type":"Point","coordinates":[2.31278,44.54168]},"properties":{"nom":"Val Vert","ag":["Réseau urbain TUB"],"lt":1,"dept":"12"}},{"type":"Feature","geometry":{"type":"Point","coordinates":[2.21822,44.55985]},"properties":{"nom":"Viviez - Barrière","ag":["Réseau urbain TUB"],"lt":1,"dept":"12"}},{"type":"Feature","geometry":{"type":"Point","coordinates":[2.21829,44.55989]},"properties":{"nom":"Viviez - Barrière","ag":["Réseau urbain TUB"],"lt":1,"dept":"12"}},{"type":"Feature","geometry":{"type":"Point","coordinates":[2.25135,44.5603]},"properties":{"nom":"Wilson","ag":["Réseau urbain TUB"],"lt":1,"dept":"12"}},{"type":"Feature","geometry":{"type":"Point","coordinates":[2.25204,44.56015]},"properties":{"nom":"Wilson","ag":["Réseau urbain TUB"],"lt":1,"dept":"12"}},{"type":"Feature","geometry":{"type":"Point","coordinates":[2.21803,44.55089]},"properties":{"nom":"ZA du Mas","ag":["Réseau urbain TUB"],"lt":1,"dept":"12"}},{"type":"Feature","geometry":{"type":"Point","coordinates":[2.21793,44.55098]},"properties":{"nom":"ZA du Mas","ag":["Réseau urbain TUB"],"lt":1,"dept":"12"}},{"type":"Feature","geometry":{"type":"Point","coordinates":[2.26787,44.53949]},"properties":{"nom":"Emile Zola - Combes","ag":["Réseau urbain TUB"],"lt":1,"dept":"12"}},{"type":"Feature","geometry":{"type":"Point","coordinates":[2.25948,44.55728]},"properties":{"nom":"Maison de santé du Centre","ag":["Réseau urbain TUB"],"lt":0,"dept":"12"}},{"type":"Feature","geometry":{"type":"Point","coordinates":[2.25951,44.55725]},"properties":{"nom":"Maison de santé du Centre","ag":["Réseau urbain TUB"],"lt":0,"dept":"12"}},{"type":"Feature","geometry":{"type":"Point","coordinates":[2.92864,44.35363]},"properties":{"nom":"Gaillac-d'Aveyron Bourg","ag":["Réseau SNCF TGV, Intercités et TER"],"lt":1,"dept":"12"}},{"type":"Feature","geometry":{"type":"Point","coordinates":[3.03169,44.33533]},"properties":{"nom":"Severac d'Aveyron Lapanouse","ag":["Réseau SNCF TGV, Intercités et TER"],"lt":1,"dept":"12"}},{"type":"Feature","geometry":{"type":"Point","coordinates":[2.63242,44.37137]},"properties":{"nom":"Onet-le-Château la Roquette","ag":["Réseau SNCF TGV, Intercités et TER"],"lt":1,"dept":"12"}},{"type":"Feature","geometry":{"type":"Point","coordinates":[2.6541,44.37855]},"properties":{"nom":"Loubiere Canabols","ag":["Réseau SNCF TGV, Intercités et TER"],"lt":1,"dept":"12"}},{"type":"Feature","geometry":{"type":"Point","coordinates":[2.88737,44.36436]},"properties":{"nom":"Gaillac-D-Aveyron Lugans","ag":["Réseau SNCF TGV, Intercités et TER"],"lt":1,"dept":"12"}},{"type":"Feature","geometry":{"type":"Point","coordinates":[2.70591,44.39343]},"properties":{"nom":"Montrozier Gages Pont","ag":["Réseau SNCF TGV, Intercités et TER"],"lt":1,"dept":"12"}},{"type":"Feature","geometry":{"type":"Point","coordinates":[2.82161,44.38244]},"properties":{"nom":"Laissac Place du Foiral","ag":["Réseau SNCF TGV, Intercités et TER"],"lt":1,"dept":"12"}},{"type":"Feature","geometry":{"type":"Point","coordinates":[2.04199,44.23111]},"properties":{"nom":"La Fouillade","ag":["Réseau SNCF TGV, Intercités et TER"],"lt":1,"dept":"12"}},{"type":"Feature","geometry":{"type":"Point","coordinates":[2.8517,44.36769]},"properties":{"nom":"Grèzes Séverac-l'Eglise","ag":["Réseau SNCF TGV, Intercités et TER"],"lt":1,"dept":"12"}},{"type":"Feature","geometry":{"type":"Point","coordinates":[2.07796,44.57825]},"properties":{"nom":"Capdenac","ag":["Réseau SNCF TGV, Intercités et TER"],"lt":1,"dept":"12"}},{"type":"Feature","geometry":{"type":"Point","coordinates":[2.23931,44.52728]},"properties":{"nom":"Aubin","ag":["Réseau SNCF TGV, Intercités et TER"],"lt":1,"dept":"12"}},{"type":"Feature","geometry":{"type":"Point","coordinates":[2.27187,44.52295]},"properties":{"nom":"Cransac","ag":["Réseau SNCF TGV, Intercités et TER"],"lt":1,"dept":"12"}},{"type":"Feature","geometry":{"type":"Point","coordinates":[2.40776,44.46462]},"properties":{"nom":"Saint-Christophe","ag":["Réseau SNCF TGV, Intercités et TER"],"lt":1,"dept":"12"}},{"type":"Feature","geometry":{"type":"Point","coordinates":[2.58056,44.36263]},"properties":{"nom":"Rodez","ag":["Réseau SNCF TGV, Intercités et TER"],"lt":1,"dept":"12"}},{"type":"Feature","geometry":{"type":"Point","coordinates":[1.97616,44.2218]},"properties":{"nom":"Najac","ag":["Réseau SNCF TGV, Intercités et TER"],"lt":1,"dept":"12"}},{"type":"Feature","geometry":{"type":"Point","coordinates":[2.21826,44.55557]},"properties":{"nom":"Viviez - Decazeville","ag":["Réseau SNCF TGV, Intercités et TER"],"lt":1,"dept":"12"}},{"type":"Feature","geometry":{"type":"Point","coordinates":[2.07892,44.47509]},"properties":{"nom":"Salles-Courbatiès","ag":["Réseau SNCF TGV, Intercités et TER"],"lt":1,"dept":"12"}},{"type":"Feature","geometry":{"type":"Point","coordinates":[2.02995,44.4368]},