{"type":"FeatureCollection","features":[{"type":"Feature","geometry":{"type":"Point","coordinates":[0.67366,46.01517]},"properties":{"nom":"CONFOLENS Marché Couvert","ag":["Réseau interurbain - Vienne (86)","Réseau interurbain - Charente (16)"],"lt":1,"dept":"16"}},{"type":"Feature","geometry":{"type":"Point","coordinates":[0.67117,46.00449]},"properties":{"nom":"CONFOLENS Centre Hôspitalier","ag":["Réseau interurbain - Vienne (86)"],"lt":1,"dept":"16"}},{"type":"Feature","geometry":{"type":"Point","coordinates":[0.66971,46.01814]},"properties":{"nom":"CONFOLENS Collège Jean Noel","ag":["Réseau interurbain - Vienne (86)"],"lt":1,"dept":"16"}},{"type":"Feature","geometry":{"type":"Point","coordinates":[0.67292,46.00423]},"properties":{"nom":"CONFOLENS Lycée Emile Roux","ag":["Réseau interurbain - Vienne (86)"],"lt":1,"dept":"16"}},{"type":"Feature","geometry":{"type":"Point","coordinates":[0.67363,46.01491]},"properties":{"nom":"CONFOLENS Marché Couvert","ag":["Réseau interurbain - Vienne (86)"],"lt":0,"dept":"16"}},{"type":"Feature","geometry":{"type":"Point","coordinates":[0.67294,46.00422]},"properties":{"nom":"CONFOLENS Lycée Emile Roux","ag":["Réseau interurbain - Vienne (86)"],"lt":0,"dept":"16"}},{"type":"Feature","geometry":{"type":"Point","coordinates":[0.66971,46.01809]},"properties":{"nom":"CONFOLENS Collège Jean Noel","ag":["Réseau interurbain - Vienne (86)"],"lt":0,"dept":"16"}},{"type":"Feature","geometry":{"type":"Point","coordinates":[0.67115,46.00449]},"properties":{"nom":"CONFOLENS Centre Hôspitalier","ag":["Réseau interurbain - Vienne (86)"],"lt":0,"dept":"16"}},{"type":"Feature","geometry":{"type":"Point","coordinates":[0.6729,46.00424]},"properties":{"nom":"Lycée Emile Roux (2)","ag":["Réseau interurbain - Vienne (86)"],"lt":0,"dept":"16"}},{"type":"Feature","geometry":{"type":"Point","coordinates":[0.66971,46.01819]},"properties":{"nom":"Collège Noël Noël (2)","ag":["Réseau interurbain - Vienne (86)"],"lt":0,"dept":"16"}},{"type":"Feature","geometry":{"type":"Point","coordinates":[0.67363,46.015]},"properties":{"nom":"Marché Couvert (2)","ag":["Réseau interurbain - Vienne (86)"],"lt":0,"dept":"16"}},{"type":"Feature","geometry":{"type":"Point","coordinates":[0.6712,46.00448]},"properties":{"nom":"Centre Hôspitalier (2)","ag":["Réseau interurbain - Vienne (86)"],"lt":0,"dept":"16"}},{"type":"Feature","geometry":{"type":"Point","coordinates":[0.18896,46.02576]},"properties":{"nom":"LEP LOUISE MICHEL","ag":["Réseau interurbain - Deux-Sèvres (79)","Réseau interurbain - Charente (16)"],"lt":1,"dept":"16"}},{"type":"Feature","geometry":{"type":"Point","coordinates":[0.16559,45.65351]},"properties":{"nom":"GARE SNCF","ag":["Réseau interurbain - Deux-Sèvres (79)"],"lt":1,"dept":"16"}},{"type":"Feature","geometry":{"type":"Point","coordinates":[0.21681,45.63225]},"properties":{"nom":"CIMETIERE - LEP RD939","ag":["Réseau interurbain - Deux-Sèvres (79)","Réseau interurbain - Charente (16)"],"lt":1,"dept":"16"}},{"type":"Feature","geometry":{"type":"Point","coordinates":[0.15396,45.63257]},"properties":{"nom":"MA CAMPAGNE LISA","ag":["Réseau interurbain - Deux-Sèvres (79)"],"lt":1,"dept":"16"}},{"type":"Feature","geometry":{"type":"Point","coordinates":[0.16729,45.65385]},"properties":{"nom":"Angoulême","ag":["Réseau européen FlixBus et FlixTrain"],"lt":0,"dept":"16"}},{"type":"Feature","geometry":{"type":"Point","coordinates":[0.16559,45.65344]},"properties":{"nom":"Angoulême - Bus Station","ag":["Réseau européen BlaBlaCar Bus"],"lt":0,"dept":"16"}},{"type":"Feature","geometry":{"type":"Point","coordinates":[-0.32604,45.68459]},"properties":{"nom":"Cognac","ag":["Réseau SNCF TGV, Intercités et TER"],"lt":1,"dept":"16"}},{"type":"Feature","geometry":{"type":"Point","coordinates":[-0.17736,45.67115]},"properties":{"nom":"Jarnac","ag":["Réseau SNCF TGV, Intercités et TER"],"lt":1,"dept":"16"}},{"type":"Feature","geometry":{"type":"Point","coordinates":[-0.05022,45.59978]},"properties":{"nom":"Châteauneuf-sur-Charente","ag":["Réseau SNCF TGV, Intercités et TER"],"lt":1,"dept":"16"}},{"type":"Feature","geometry":{"type":"Point","coordinates":[0.16461,45.65357]},"properties":{"nom":"Angoulême","ag":["Réseau SNCF TGV, Intercités et TER","Agrégat des réseaux urbains et interurbains du Grand Est"],"lt":1,"dept":"16"}},{"type":"Feature","geometry":{"type":"Point","coordinates":[0.10124,45.60479]},"properties":{"nom":"La Couronne Charente","ag":["Réseau SNCF TGV, Intercités et TER"],"lt":1,"dept":"16"}},{"type":"Feature","geometry":{"type":"Point","coordinates":[0.13823,45.39837]},"properties":{"nom":"Montmoreau","ag":["Réseau SNCF TGV, Intercités et TER"],"lt":1,"dept":"16"}},{"type":"Feature","geometry":{"type":"Point","coordinates":[0.04345,45.27088]},"properties":{"nom":"Chalais","ag":["Réseau SNCF TGV, Intercités et TER"],"lt":1,"dept":"16"}},{"type":"Feature","geometry":{"type":"Point","coordinates":[0.10956,45.88749]},"properties":{"nom":"Luxé","ag":["Réseau SNCF TGV, Intercités et TER"],"lt":1,"dept":"16"}},{"type":"Feature","geometry":{"type":"Point","coordinates":[0.19015,46.03054]},"properties":{"nom":"Ruffec","ag":["Réseau SNCF TGV, Intercités et TER"],"lt":1,"dept":"16"}},{"type":"Feature","geometry":{"type":"Point","coordinates":[0.81189,45.86951]},"properties":{"nom":"Saillat - Chassenon","ag":["Réseau SNCF TGV, Intercités et TER"],"lt":1,"dept":"16"}},{"type":"Feature","geometry":{"type":"Point","coordinates":[0.11741,45.65112]},"properties":{"nom":"3 Chênes","ag":["Réseau urbain Möbius"],"lt":1,"dept":"16"}},{"type":"Feature","geometry":{"type":"Point","coordinates":[0.2546,45.6879]},"properties":{"nom":"4 Coins","ag":["Réseau urbain Möbius"],"lt":1,"dept":"16"}},{"type":"Feature","geometry":{"type":"Point","coordinates":[0.20606,45.66875]},"properties":{"nom":"4 Pavillons","ag":["Réseau urbain Möbius"],"lt":1,"dept":"16"}},{"type":"Feature","geometry":{"type":"Point","coordinates":[0.27903,45.68256]},"properties":{"nom":"4 Saisons","ag":["Réseau urbain Möbius"],"lt":1,"dept":"16"}},{"type":"Feature","geometry":{"type":"Point","coordinates":[0.168,45.64463]},"properties":{"nom":"4 Sillons","ag":["Réseau urbain Möbius"],"lt":1,"dept":"16"}},{"type":"Feature","geometry":{"type":"Point","coordinates":[0.1645,45.6602]},"properties":{"nom":"8 Mai","ag":["Réseau urbain Möbius"],"lt":1,"dept":"16"}},{"type":"Feature","geometry":{"type":"Point","coordinates":[0.24559,45.64768]},"properties":{"nom":"A. France","ag":["Réseau urbain Möbius"],"lt":1,"dept":"16"}},{"type":"Feature","geometry":{"type":"Point","coordinates":[0.17217,45.63162]},"properties":{"nom":"Abadie","ag":["Réseau urbain Möbius"],"lt":1,"dept":"16"}},{"type":"Feature","geometry":{"type":"Point","coordinates":[0.10073,45.61479]},"properties":{"nom":"Abbaye","ag":["Réseau urbain Möbius"],"lt":1,"dept":"16"}},{"type":"Feature","geometry":{"type":"Point","coordinates":[0.1753,45.64899]},"properties":{"nom":"Abbé Rousselot","ag":["Réseau urbain Möbius"],"lt":1,"dept":"16"}},{"type":"Feature","geometry":{"type":"Point","coordinates":[0.22721,45.62935]},"properties":{"nom":"Accro Parc","ag":["Réseau urbain Möbius"],"lt":1,"dept":"16"}},{"type":"Feature","geometry":{"type":"Point","coordinates":[0.2005,45.67921]},"properties":{"nom":"Alamigeon","ag":["Réseau urbain Möbius"],"lt":1,"dept":"16"}},{"type":"Feature","geometry":{"type":"Point","coordinates":[0.20281,45.66977]},"properties":{"nom":"Allende","ag":["Réseau urbain Möbius"],"lt":1,"dept":"16"}},{"type":"Feature","geometry":{"type":"Point","coordinates":[0.16249,45.65456]},"properties":{"nom":"Alpha","ag":["Réseau urbain Möbius"],"lt":1,"dept":"16"}},{"type":"Feature","geometry":{"type":"Point","coordinates":[0.20344,45.71432]},"properties":{"nom":"Ancienne Salle des Fêtes","ag":["Réseau urbain Möbius"],"lt":1,"dept":"16"}},{"type":"Feature","geometry":{"type":"Point","coordinates":[0.14143,45.63065]},"properties":{"nom":"Angoulême Arche","ag":["Réseau urbain Möbius"],"lt":1,"dept":"16"}},{"type":"Feature","geometry":{"type":"Point","coordinates":[0.14889,45.63026]},"properties":{"nom":"Angoulême Bodet","ag":["Réseau urbain Möbius"],"lt":1,"dept":"16"}},{"type":"Feature","geometry":{"type":"Point","coordinates":[0.1498,45.64909]},"properties":{"nom":"Angoulême Cathédrale","ag":["Réseau urbain Möbius"],"lt":1,"dept":"16"}},{"type":"Feature","geometry":{"type":"Point","coordinates":[0.15622,45.63134]},"properties":{"nom":"Angoulême Coulomb","ag":["Réseau urbain Möbius"],"lt":1,"dept":"16"}},{"type":"Feature","geometry":{"type":"Point","coordinates":[0.13015,45.65669]},"properties":{"nom":"Angoulême Frégeneuil","ag":["Réseau urbain Möbius"],"lt":1,"dept":"16"}},{"type":"Feature","geometry":{"type":"Point","coordinates":[0.16535,45.65332]},"properties":{"nom":"Angoulême Gare SNCF","ag":["Réseau urbain Möbius"],"lt":1,"dept":"16"}},{"type":"Feature","geometry":{"type":"Point","coordinates":[0.15617,45.64806]},"properties":{"nom":"Angoulême Hôtel de Ville","ag":["Réseau urbain Möbius"],"lt":1,"dept":"16"}},{"type":"Feature","geometry":{"type":"Point","coordinates":[0.18228,45.65694]},"properties":{"nom":"Angoulême Leclerc","ag":["Réseau urbain Möbius"],"lt":1,"dept":"16"}},{"type":"Feature","geometry":{"type":"Point","coordinates":[0.16091,45.6481]},"properties":{"nom":"Angoulême Lille","ag":["Réseau urbain Möbius"],"lt":1,"dept":"16"}},{"type":"Feature","geometry":{"type":"Point","coordinates":[0.17763,45.65125]},"properties":{"nom":"Angoulême Nancy","ag":["Réseau urbain Möbius"],"lt":1,"dept":"16"}},{"type":"Feature","geometry":{"type":"Point","coordinates":[0.15159,45.63185]},"properties":{"nom":"Angoulême Plein Sud","ag":["Réseau urbain Möbius"],"lt":1,"dept":"16"}},{"type":"Feature","geometry":{"type":"Point","coordinates":[0.11041,45.6481]},"properties":{"nom":"Angoumois","ag":["Réseau urbain Möbius"],"lt":1,"dept":"16"}},{"type":"Feature","geometry":{"type":"Point","coordinates":[0.13295,45.64587]},"properties":{"nom":"Aquitaine","ag":["Réseau urbain Möbius"],"lt":1,"dept":"16"}},{"type":"Feature","geometry":{"type":"Point","coordinates":[0.21187,45.6637]},"properties":{"nom":"Arc en Ciel","ag":["Réseau urbain Möbius"],"lt":1,"dept":"16"}},{"type":"Feature","geometry":{"type":"Point","coordinates":[0.17088,45.7312]},"properties":{"nom":"Argence","ag":["Réseau urbain Möbius"],"lt":1,"dept":"16"}},{"type":"Feature","geometry":{"type":"Point","coordinates":[0.12782,45.65456]},"properties":{"nom":"Argentiers","ag":["Réseau urbain Möbius"],"lt":1,"dept":"16"}},{"type":"Feature","geometry":{"type":"Point","coordinates":[0.24474,45.65911]},"properties":{"nom":"Aristide","ag":["Réseau urbain Möbius"],"lt":1,"dept":"16"}},{"type":"Feature","geometry":{"type":"Point","coordinates":[0.02792,45.71614]},"properties":{"nom":"Asnières Neuillac","ag":["Réseau urbain Möbius"],"lt":1,"dept":"16"}},{"type":"Feature","geometry":{"type":"Point","coordinates":[0.1037,45.61832]},"properties":{"nom":"Auchan","ag":["Réseau urbain Möbius"],"lt":1,"dept":"16"}},{"type":"Feature","geometry":{"type":"Point","coordinates":[0.13044,45.68841]},"properties":{"nom":"Augerauds","ag":["Réseau urbain Möbius"],"lt":1,"dept":"16"}},{"type":"Feature","geometry":{"type":"Point","coordinates":[0.1888,45.65015]},"properties":{"nom":"Auriol","ag":["Réseau urbain Möbius"],"lt":1,"dept":"16"}},{"type":"Feature","geometry":{"type":"Point","coordinates":[0.18466,45.69281]},"properties":{"nom":"Auvent","ag":["Réseau urbain Möbius"],"lt":1,"dept":"16"}},{"type":"Feature","geometry":{"type":"Point","coordinates":[0.09555,45.60432]},"properties":{"nom":"Badinter","ag":["Réseau urbain Möbius"],"lt":1,"dept":"16"}},{"type":"Feature","geometry":{"type":"Point","coordinates":[0.09847,45.65064]},"properties":{"nom":"Badoris","ag":["Réseau urbain Möbius"],"lt":1,"dept":"16"}},{"type":"Feature","geometry":{"type":"Point","coordinates":[0.08563,45.74172]},"properties":{"nom":"Baignade Marsac","ag":["Réseau urbain Möbius"],"lt":1,"dept":"16"}},{"type":"Feature","geometry":{"type":"Point","coordinates":[0.13542,45.66204]},"properties":{"nom":"Bardines","ag":["Réseau urbain Möbius"],"lt":1,"dept":"16"}},{"type":"Feature","geometry":{"type":"Point","coordinates":[0.11702,45.64825]},"properties":{"nom":"Basseau","ag":["Réseau urbain Möbius"],"lt":1,"dept":"16"}},{"type":"Feature","geometry":{"type":"Point","coordinates":[0.18196,45.65068]},"properties":{"nom":"Beau Site","ag":["Réseau urbain Möbius"],"lt":1,"dept":"16"}},{"type":"Feature","geometry":{"type":"Point","coordinates":[0.0466,45.66152]},"properties":{"nom":"Beauregard","ag":["Réseau urbain Möbius"],"lt":1,"dept":"16"}},{"type":"Feature","geometry":{"type":"Point","coordinates":[0.09559,45.66435]},"properties":{"nom":"Belfond","ag":["Réseau urbain Möbius"],"lt":1,"dept":"16"}},{"type":"Feature","geometry":{"type":"Point","coordinates":[0.0899,45.6905]},"properties":{"nom":"Bellejoie","ag":["Réseau urbain Möbius"],"lt":1,"dept":"16"}},{"type":"Feature","geometry":{"type":"Point","coordinates":[0.02985,45.65443]},"properties":{"nom":"Bellevue","ag":["Réseau urbain Möbius"],"lt":1,"dept":"16"}},{"type":"Feature","geometry":{"type":"Point","coordinates":[0.09769,45.61151]},"properties":{"nom":"Berlioz","ag":["Réseau urbain Möbius"],"lt":1,"dept":"16"}},{"type":"Feature","geometry":{"type":"Point","coordinates":[0.15684,45.65362]},"properties":{"nom":"Besson Bey","ag":["Réseau urbain Möbius"],"lt":1,"dept":"16"}},{"type":"Feature","geometry":{"type":"Point","coordinates":[0.12879,45.6348]},"properties":{"nom":"Bigorre","ag":["Réseau urbain Möbius"],"lt":1,"dept":"16"}},{"type":"Feature","geometry":{"type":"Point","coordinates":[0.15863,45.67406]},"properties":{"nom":"Blanchards","ag":["Réseau urbain Möbius"],"lt":1,"dept":"16"}},{"type":"Feature","geometry":{"type":"Point","coordinates":[0.1813,45.64467]},"properties":{"nom":"Blanchettes","ag":["Réseau urbain Möbius"],"lt":1,"dept":"16"}},{"type":"Feature","geometry":{"type":"Point","coordinates":[0.29923,45.64075]},"properties":{"nom":"Bois Blanc","ag":["Réseau urbain Möbius"],"lt":1,"dept":"16"}},{"type":"Feature","geometry":{"type":"Point","coordinates":[0.21537,45.66289]},"properties":{"nom":"Bois Boutin","ag":["Réseau urbain Möbius"],"lt":1,"dept":"16"}},{"type":"Feature","geometry":{"type":"Point","coordinates":[0.05678,45.6624]},"properties":{"nom":"Bois de la Bécasse","ag":["Réseau urbain Möbius"],"lt":1,"dept":"16"}},{"type":"Feature","geometry":{"type":"Point","coordinates":[0.0532,45.66248]},"properties":{"nom":"Bois de la Lande","ag":["Réseau urbain Möbius"],"lt":1,"dept":"16"}},{"type":"Feature","geometry":{"type":"Point","coordinates":[0.10025,45.67874]},"properties":{"nom":"Bois Foucaud","ag":["Réseau urbain Möbius"],"lt":1,"dept":"16"}},{"type":"Feature","geometry":{"type":"Point","coordinates":[0.11086,45.65099]},"properties":{"nom":"Bois Personnier","ag":["Réseau urbain Möbius"],"lt":1,"dept":"16"}},{"type":"Feature","geometry":{"type":"Point","coordinates":[0.09323,45.68144]},"properties":{"nom":"Bois Renaud","ag":["Réseau urbain Möbius"],"lt":1,"dept":"16"}},{"type":"Feature","geometry":{"type":"Point","coordinates":[0.16401,45.6183]},"properties":{"nom":"Bois Rochefort","ag":["Réseau urbain Möbius"],"lt":1,"dept":"16"}},{"type":"Feature","geometry":{"type":"Point","coordinates":[0.16585,45.61828]},"properties":{"nom":"Bois Vouillac","ag":["Réseau urbain Möbius"],"lt":1,"dept":"16"}},{"type":"Feature","geometry":{"type":"Point","coordinates":[0.16901,45.64989]},"properties":{"nom":"Boissières","ag":["Réseau urbain Möbius"],"lt":1,"dept":"16"}},{"type":"Feature","geometry":{"type":"Point","coordinates":[0.2343,45.66277]},"properties":{"nom":"Bouchaudière","ag":["Réseau urbain Möbius"],"lt":1,"dept":"16"}},{"type":"Feature","geometry":{"type":"Point","coordinates":[0.27169,45.67821]},"properties":{"nom":"Bourg Mornac","ag":["Réseau urbain Möbius"],"lt":1,"dept":"16"}},{"type":"Feature","geometry":{"type":"Point","coordinates":[0.20586,45.71468]},"properties":{"nom":"Bourg Médiathèque","ag":["Réseau urbain Möbius"],"lt":1,"dept":"16"}},{"type":"Feature","geometry":{"type":"Point","coordinates":[0.20362,45.64456]},"properties":{"nom":"Bourg Soyaux","ag":["Réseau urbain Möbius"],"lt":1,"dept":"16"}},{"type":"Feature","geometry":{"type":"Point","coordinates":[0.1606,45.65892]},"properties":{"nom":"Bourgine","ag":["Réseau urbain Möbius"],"lt":1,"dept":"16"}},{"type":"Feature","geometry":{"type":"Point","coordinates":[0.26471,45.61151]},"properties":{"nom":"Bragette","ag":["Réseau urbain Möbius"],"lt":1,"dept":"16"}},{"type":"Feature","geometry":{"type":"Point","coordinates":[0.14525,45.66275]},"properties":{"nom":"Bretagne","ag":["Réseau urbain Möbius"],"lt":1,"dept":"16"}},{"type":"Feature","geometry":{"type":"Point","coordinates":[0.16766,45.6625]},"properties":{"nom":"Briand","ag":["Réseau urbain Möbius"],"lt":1,"dept":"16"}},{"type":"Feature","geometry":{"type":"Point","coordinates":[0.28633,45.71338]},"properties":{"nom":"Brie les Frauds Terminus","ag":["Réseau urbain Möbius"],"lt":1,"dept":"16"}},{"type":"Feature","geometry":{"type":"Point","coordinates":[0.24145,45.73979]},"properties":{"nom":"Brie Mairie","ag":["Réseau urbain Möbius"],"lt":1,"dept":"16"}},{"type":"Feature","geometry":{"type":"Point","coordinates":[0.24002,45.73677]},"properties":{"nom":"Brie École","ag":["Réseau urbain Möbius"],"lt":1,"dept":"16"}},{"type":"Feature","geometry":{"type":"Point","coordinates":[0.30027,45.67011]},"properties":{"nom":"Brouterie","ag":["Réseau urbain Möbius"],"lt":1,"dept":"16"}},{"type":"Feature","geometry":{"type":"Point","coordinates":[0.19054,45.6627]},"properties":{"nom":"Buisson","ag":["Réseau urbain Möbius"],"lt":1,"dept":"16"}},{"type":"Feature","geometry":{"type":"Point","coordinates":[0.24759,45.64507]},"properties":{"nom":"Bussac","ag":["Réseau urbain Möbius"],"lt":1,"dept":"16"}},{"type":"Feature","geometry":{"type":"Point","coordinates":[0.24522,45.64473]},"properties":{"nom":"Bussac le Bas","ag":["Réseau urbain Möbius"],"lt":1,"dept":"16"}},{"type":"Feature","geometry":{"type":"Point","coordinates":[0.24623,45.643]},"properties":{"nom":"Bussac le Haut","ag":["Réseau urbain Möbius"],"lt":1,"dept":"16"}},{"type":"Feature","geometry":{"type":"Point","coordinates":[0.1692,45.64698]},"properties":{"nom":"Bussatte","ag":["Réseau urbain Möbius"],"lt":1,"dept":"16"}},{"type":"Feature","geometry":{"type":"Point","coordinates":[0.14727,45.67289]},"properties":{"nom":"Bécaud","ag":["Réseau urbain Möbius"],"lt":1,"dept":"16"}},{"type":"Feature","geometry":{"type":"Point","coordinates":[0.14248,45.66336]},"properties":{"nom":"Bécheline","ag":["Réseau urbain Möbius"],"lt":1,"dept":"16"}},{"type":"Feature","geometry":{"type":"Point","coordinates":[0.1593,45.64649]},"properties":{"nom":"Bézines","ag":["Réseau urbain Möbius"],"lt":1,"dept":"16"}},{"type":"Feature","geometry":{"type":"Point","coordinates":[0.18044,45.63697]},"properties":{"nom":"Cabane Bambou","ag":["Réseau urbain Möbius"],"lt":1,"dept":"16"}},{"type":"Feature","geometry":{"type":"Point","coordinates":[0.12269,45.62565]},"properties":{"nom":"Campus","ag":["Réseau urbain Möbius"],"lt":1,"dept":"16"}},{"type":"Feature","geometry":{"type":"Point","coordinates":[0.17308,45.65616]},"properties":{"nom":"Camus","ag":["Réseau urbain Möbius"],"lt":1,"dept":"16"}},{"type":"Feature","geometry":{"type":"Point","coordinates":[0.13035,45.67795]},"properties":{"nom":"Camus-Rochers","ag":["Réseau urbain Möbius"],"lt":1,"dept":"16"}},{"type":"Feature","geometry":{"type":"Point","coordinates":[0.21006,45.67007]},"properties":{"nom":"Carat Parking","ag":["Réseau urbain Möbius"],"lt":1,"dept":"16"}},{"type":"Feature","geometry":{"type":"Point","coordinates":[0.17311,45.67049]},"properties":{"nom":"Castors","ag":["Réseau urbain Möbius"],"lt":1,"dept":"16"}},{"type":"Feature","geometry":{"type":"Point","coordinates":[0.19576,45.66723]},"properties":{"nom":"CCI Campus Sud","ag":["Réseau urbain Möbius"],"lt":1,"dept":"16"}},{"type":"Feature","geometry":{"type":"Point","coordinates":[0.09381,45.66495]},"properties":{"nom":"Centre Commercial","ag":["Réseau urbain Möbius"],"lt":1,"dept":"16"}},{"type":"Feature","geometry":{"type":"Point","coordinates":[0.19378,45.65035]},"properties":{"nom":"Centre des Impôts","ag":["Réseau urbain Möbius"],"lt":1,"dept":"16"}},{"type":"Feature","geometry":{"type":"Point","coordinates":[0.13515,45.61969]},"properties":{"nom":"Centre Equestre","ag":["Réseau urbain Möbius"],"lt":1,"dept":"16"}},{"type":"Feature","geometry":{"type":"Point","coordinates":[0.18688,45.69144]},"properties":{"nom":"Centre Sportif","ag":["Réseau urbain Möbius"],"lt":1,"dept":"16"}},{"type":"Feature","geometry":{"type":"Point","coordinates":[0.11804,45.62871]},"properties":{"nom":"Centre Universitaire","ag":["Réseau urbain Möbius"],"lt":1,"dept":"16"}},{"type":"Feature","geometry":{"type":"Point","coordinates":[0.18927,45.64535]},"properties":{"nom":"Ch. de Manoeuvres","ag":["Réseau urbain Möbius"],"lt":1,"dept":"16"}},{"type":"Feature","geometry":{"type":"Point","coordinates":[0.16695,45.62073]},"properties":{"nom":"Ch. du Cormier","ag":["Réseau urbain Möbius"],"lt":1,"dept":"16"}},{"type":"Feature","geometry":{"type":"Point","coordinates":[0.16272,45.64948]},"properties":{"nom":"Ch.de Mars","ag":["Réseau urbain Möbius"],"lt":1,"dept":"16"}},{"type":"Feature","geometry":{"type":"Point","coordinates":[0.13337,45.64238]},"properties":{"nom":"Chabaneix","ag":["Réseau urbain Möbius"],"lt":1,"dept":"16"}},{"type":"Feature","geometry":{"type":"Point","coordinates":[0.17306,45.64606]},"properties":{"nom":"Chabasse","ag":["Réseau urbain Möbius"],"lt":1,"dept":"16"}},{"type":"Feature","geometry":{"type":"Point","coordinates":[0.15573,45.69108]},"properties":{"nom":"Chalonne","ag":["Réseau urbain Möbius"],"lt":1,"dept":"16"}},{"type":"Feature","geometry":{"type":"Point","coordinates":[0.02482,45.6466]},"properties":{"nom":"Champ Camard","ag":["Réseau urbain Möbius"],"lt":1,"dept":"16"}},{"type":"Feature","geometry":{"type":"Point","coordinates":[0.14944,45.6988]},"properties":{"nom":"Champ du Chêne","ag":["Réseau urbain Möbius"],"lt":1,"dept":"16"}},{"type":"Feature","geometry":{"type":"Point","coordinates":[0.18311,45.69209]},"properties":{"nom":"Champniers Auvent Ouest","ag":["Réseau urbain Möbius"],"lt":1,"dept":"16"}},{"type":"Feature","geometry":{"type":"Point","coordinates":[0.20059,45.71348]},"properties":{"nom":"Champniers Cimetière","ag":["Réseau urbain Möbius"],"lt":1,"dept":"16"}},{"type":"Feature","geometry":{"type":"Point","coordinates":[0.20448,45.71727]},"properties":{"nom":"Champniers Colvert","ag":["Réseau urbain Möbius"],"lt":1,"dept":"16"}},{"type":"Feature","geometry":{"type":"Point","coordinates":[0.18014,45.69037]},"properties":{"nom":"Champniers Pont Cassé","ag":["Réseau urbain Möbius"],"lt":1,"dept":"16"}},{"type":"Feature","geometry":{"type":"Point","coordinates":[0.05146,45.60073]},"properties":{"nom":"Champs des Bois","ag":["Réseau urbain Möbius"],"lt":1,"dept":"16"}},{"type":"Feature","geometry":{"type":"Point","coordinates":[0.23217,45.66134]},"properties":{"nom":"Champs Vieux","ag":["Réseau urbain Möbius"],"lt":1,"dept":"16"}},{"type":"Feature","geometry":{"type":"Point","coordinates":[0.26324,45.72669]},"properties":{"nom":"Champtouyer","ag":["Réseau urbain Möbius"],"lt":1,"dept":"16"}},{"type":"Feature","geometry":{"type":"Point","coordinates":[0.02736,45.62868]},"properties":{"nom":"Chante-Alouette","ag":["Réseau urbain Möbius"],"lt":1,"dept":"16"}},{"type":"Feature","geometry":{"type":"Point","coordinates":[0.19618,45.67832]},"properties":{"nom":"Chantefleurs","ag":["Réseau urbain Möbius"],"lt":1,"dept":"16"}},{"type":"Feature","geometry":{"type":"Point","coordinates":[0.10752,45.62136]},"properties":{"nom":"Chantemerle","ag":["Réseau urbain Möbius"],"lt":1,"dept":"16"}},{"type":"Feature","geometry":{"type":"Point","coordinates":[0.10423,45.64367]},"properties":{"nom":"Chantoiseau","ag":["Réseau urbain Möbius"],"lt":1,"dept":"16"}},{"type":"Feature","geometry":{"type":"Point","coordinates":[0.17746,45.645]},"properties":{"nom":"Chanzy","ag":["Réseau urbain Möbius"],"lt":1,"dept":"16"}},{"type":"Feature","geometry":{"type":"Point","coordinates":[0.1241,45.64566]},"properties":{"nom":"Charité","ag":["Réseau urbain Möbius"],"lt":1,"dept":"16"}},{"type":"Feature","geometry":{"type":"Point","coordinates":[0.12658,45.68593]},"properties":{"nom":"Charmes","ag":["Réseau urbain Möbius"],"lt":1,"dept":"16"}},{"type":"Feature","geometry":{"type":"Point","coordinates":[0.23999,45.65865]},"properties":{"nom":"Charmilles","ag":["Réseau urbain Möbius"],"lt":1,"dept":"16"}},{"type":"Feature","geometry":{"type":"Point","coordinates":[0.04413,45.65382]},"properties":{"nom":"Chaumonté","ag":["Réseau urbain Möbius"],"lt":1,"dept":"16"}},{"type":"Feature","geometry":{"type":"Point","coordinates":[0.1503,45.64723]},"properties":{"nom":"Chemin de Fer","ag":["Réseau urbain Möbius"],"lt":1,"dept":"16"}},{"type":"Feature","geometry":{"type":"Point","coordinates":[0.0438,45.65563]},"properties":{"nom":"Chemin des Tuileries","ag":["Réseau urbain Möbius"],"lt":1,"dept":"16"}},{"type":"Feature","geometry":{"type":"Point","coordinates":[0.24357,45.76119]},"properties":{"nom":"Cherves","ag":["Réseau urbain Möbius"],"lt":1,"dept":"16"}},{"type":"Feature","geometry":{"type":"Point","coordinates":[0.07013,45.65985]},"properties":{"nom":"Chevanon","ag":["Réseau urbain Möbius"],"lt":1,"dept":"16"}},{"type":"Feature","geometry":{"type":"Point","coordinates":[0.02557,45.59424]},"properties":{"nom":"Chez Besson","ag":["Réseau urbain Möbius"],"lt":1,"dept":"16"}},{"type":"Feature","geometry":{"type":"Point","coordinates":[0.30983,45.61839]},"properties":{"nom":"Chez Biard","ag":["Réseau urbain Möbius"],"lt":1,"dept":"16"}},{"type":"Feature","geometry":{"type":"Point","coordinates":[0.07225,45.54563]},"properties":{"nom":"Chez Chagneau","ag":["Réseau urbain Möbius"],"lt":1,"dept":"16"}},{"type":"Feature","geometry":{"type":"Point","coordinates":[-0.00395,45.56287]},"properties":{"nom":"Chez Chardin","ag":["Réseau urbain Möbius"],"lt":1,"dept":"16"}},{"type":"Feature","geometry":{"type":"Point","coordinates":[0.1376,45.66664]},"properties":{"nom":"Chez Dary","ag":["Réseau urbain Möbius"],"lt":1,"dept":"16"}},{"type":"Feature","geometry":{"type":"Point","coordinates":[0.01881,45.62988]},"properties":{"nom":"Chez Decoux","ag":["Réseau urbain Möbius"],"lt":1,"dept":"16"}},{"type":"Feature","geometry":{"type":"Point","coordinates":[0.34348,45.59853]},"properties":{"nom":"Chez Devige","ag":["Réseau urbain Möbius"],"lt":1,"dept":"16"}},{"type":"Feature","geometry":{"type":"Point","coordinates":[0.07635,45.60984]},"properties":{"nom":"Chez Dion","ag":["Réseau urbain Möbius"],"lt":1,"dept":"16"}},{"type":"Feature","geometry":{"type":"Point","coordinates":[0.27234,45.72822]},"properties":{"nom":"Chez Garonne","ag":["Réseau urbain Möbius"],"lt":1,"dept":"16"}},{"type":"Feature","geometry":{"type":"Point","coordinates":[0.09102,45.68721]},"properties":{"nom":"Chez le Comte","ag":["Réseau urbain Möbius"],"lt":1,"dept":"16"}},{"type":"Feature","geometry":{"type":"Point","coordinates":[0.14468,45.54241]},"properties":{"nom":"Chez Les Rois","ag":["Réseau urbain Möbius"],"lt":1,"dept":"16"}},{"type":"Feature","geometry":{"type":"Point","coordinates":[0.01693,45.60331]},"properties":{"nom":"Chez Massé","ag":["Réseau urbain Möbius"],"lt":1,"dept":"16"}},{"type":"Feature","geometry":{"type":"Point","coordinates":[0.26003,45.63635]},"properties":{"nom":"Chez Mery","ag":["Réseau urbain Möbius"],"lt":1,"dept":"16"}},{"type":"Feature","geometry":{"type":"Point","coordinates":[0.20874,45.70109]},"properties":{"nom":"Chez Nauve","ag":["Réseau urbain Möbius"],"lt":1,"dept":"16"}},{"type":"Feature","geometry":{"type":"Point","coordinates":[0.19738,45.66037]},"properties":{"nom":"Chez Prévost","ag":["Réseau urbain Möbius"],"lt":1,"dept":"16"}},{"type":"Feature","geometry":{"type":"Point","coordinates":[0.07716,45.53724]},"properties":{"nom":"Chez Ribot","ag":["Réseau urbain Möbius"],"lt":1,"dept":"16"}},{"type":"Feature","geometry":{"type":"Point","coordinates":[0.07668,45.64997]},"properties":{"nom":"Chez Siret","ag":["Réseau urbain Möbius"],"lt":1,"dept":"16"}},{"type":"Feature","geometry":{"type":"Point","coordinates":[0.21076,45.69178]},"properties":{"nom":"Chez Suraud","ag":["Réseau urbain Möbius"],"lt":1,"dept":"16"}},{"type":"Feature","geometry":{"type":"Point","coordinates":[0.19069,45.67806]},"properties":{"nom":"Chez Tendry","ag":["Réseau urbain Möbius"],"lt":1,"dept":"16"}},{"type":"Feature","geometry":{"type":"Point","coordinates":[0.00326,45.55942]},"properties":{"nom":"Chez Thibeau","ag":["Réseau urbain Möbius"],"lt":1,"dept":"16"}},{"type":"Feature","geometry":{"type":"Point","coordinates":[0.04106,45.71836]},"properties":{"nom":"Chez Veau","ag":["Réseau urbain Möbius"],"lt":1,"dept":"16"}},{"type":"Feature","geometry":{"type":"Point","coordinates":[0.11185,45.68462]},"properties":{"nom":"Château d'Eau","ag":["Réseau urbain Möbius"],"lt":1,"dept":"16"}},{"type":"Feature","geometry":{"type":"Point","coordinates":[0.05573,45.63224]},"properties":{"nom":"Château Lamothe","ag":["Réseau urbain Möbius"],"lt":1,"dept":"16"}},{"type":"Feature","geometry":{"type":"Point","coordinates":[0.13607,45.66791]},"properties":{"nom":"Chêne Vert","ag":["Réseau urbain Möbius"],"lt":1,"dept":"16"}},{"type":"Feature","geometry":{"type":"Point","coordinates":[0.11312,45.65095]},"properties":{"nom":"Cimetière 3 Chênes","ag":["Réseau urbain Möbius"],"lt":1,"dept":"16"}},{"type":"Feature","geometry":{"type":"Point","coordinates":[0.201,45.64211]},"properties":{"nom":"Cimetière Bourg","ag":["Réseau urbain Möbius"],"lt":1,"dept":"16"}},{"type":"Feature","geometry":{"type":"Point","coordinates":[0.17692,45.61625]},"properties":{"nom":"Cimetière de Puymoyen","ag":["Réseau urbain Möbius"],"lt":1,"dept":"16"}},{"type":"Feature","geometry":{"type":"Point","coordinates":[0.16227,45.6644]},"properties":{"nom":"Cimetière du Gond","ag":["Réseau urbain Möbius"],"lt":1,"dept":"16"}},{"type":"Feature","geometry":{"type":"Point","coordinates":[0.26544,45.62735]},"properties":{"nom":"Cimetière Garat","ag":["Réseau urbain Möbius"],"lt":1,"dept":"16"}},{"type":"Feature","geometry":{"type":"Point","coordinates":[0.12367,45.68559]},"properties":{"nom":"Cimetière St Yrieix","ag":["Réseau urbain Möbius"],"lt":1,"dept":"16"}},{"type":"Feature","geometry":{"type":"Point","coordinates":[0.09226,45.66554]},"properties":{"nom":"Cité de Fléac","ag":["Réseau urbain Möbius"],"lt":1,"dept":"16"}},{"type":"Feature","geometry":{"type":"Point","coordinates":[0.25133,45.68649]},"properties":{"nom":"Cité Riffauds","ag":["Réseau urbain Möbius"],"lt":1,"dept":"16"}},{"type":"Feature","geometry":{"type":"Point","coordinates":[0.09342,45.62291]},"properties":{"nom":"Cité Vignes Blanches","ag":["Réseau urbain Möbius"],"lt":1,"dept":"16"}},{"type":"Feature","geometry":{"type":"Point","coordinates":[0.09205,45.60547]},"properties":{"nom":"Clair Matin","ag":["Réseau urbain Möbius"],"lt":1,"dept":"16"}},{"type":"Feature","geometry":{"type":"Point","coordinates":[0.24001,45.68508]},"properties":{"nom":"Claire Fontaine","ag":["Réseau urbain Möbius"],"lt":1,"dept":"16"}},{"type":"Feature","geometry":{"type":"Point","coordinates":[0.15419,45.62588]},"properties":{"nom":"Clairgon","ag":["Réseau urbain Möbius"],"lt":1,"dept":"16"}},{"type":"Feature","geometry":{"type":"Point","coordinates":[0.04252,45.55478]},"properties":{"nom":"Claix Mairie","ag":["Réseau urbain Möbius"],"lt":1,"dept":"16"}},{"type":"Feature","geometry":{"type":"Point","coordinates":[0.15833,45.63564]},"properties":{"nom":"Clérac","ag":["Réseau urbain Möbius"],"lt":1,"dept":"16"}},{"type":"Feature","geometry":{"type":"Point","coordinates":[0.15005,45.65269]},"properties":{"nom":"Cognac","ag":["Réseau urbain Möbius"],"lt":1,"dept":"16"}},{"type":"Feature","geometry":{"type":"Point","coordinates":[0.17303,45.64331]},"properties":{"nom":"Col Campagne","ag":["Réseau urbain Möbius"],"lt":1,"dept":"16"}},{"type":"Feature","geometry":{"type":"Point","coordinates":[0.1743,45.65597]},"properties":{"nom":"Collège","ag":["Réseau urbain Möbius"],"lt":1,"dept":"16"}},{"type":"Feature","geometry":{"type":"Point","coordinates":[0.33356,45.59972]},"properties":{"nom":"Combe Bouchard","ag":["Réseau urbain Möbius"],"lt":1,"dept":"16"}},{"type":"Feature","geometry":{"type":"Point","coordinates":[0.11224,45.6183]},"properties":{"nom":"Combe Breuty","ag":["Réseau urbain Möbius"],"lt":1,"dept":"16"}},{"type":"Feature","geometry":{"type":"Point","coordinates":[0.0776,45.69141]},"properties":{"nom":"Combe Caduc","ag":["Réseau urbain Möbius"],"lt":1,"dept":"16"}},{"type":"Feature","geometry":{"type":"Point","coordinates":[0.09946,45.67697]},"properties":{"nom":"Combe Jaillou","ag":["Réseau urbain Möbius"],"lt":1,"dept":"16"}},{"type":"Feature","geometry":{"type":"Point","coordinates":[0.16143,45.6194]},"properties":{"nom":"Combe Vouillac","ag":["Réseau urbain Möbius"],"lt":1,"dept":"16"}},{"type":"Feature","geometry":{"type":"Point","coordinates":[0.159,45.65034]},"properties":{"nom":"Corderie","ag":["Réseau urbain Möbius"],"lt":1,"dept":"16"}},{"type":"Feature","geometry":{"type":"Point","coordinates":[0.17087,45.64976]},"properties":{"nom":"Corlieu","ag":["Réseau urbain Möbius"],"lt":1,"dept":"16"}},{"type":"Feature","geometry":{"type":"Point","coordinates":[0.25758,45.67609]},"properties":{"nom":"Cormier","ag":["Réseau urbain Möbius"],"lt":1,"dept":"16"}},{"type":"Feature","geometry":{"type":"Point","coordinates":[0.12343,45.675]},"properties":{"nom":"Corot","ag":["Réseau urbain Möbius"],"lt":1,"dept":"16"}},{"type":"Feature","geometry":{"type":"Point","coordinates":[0.12285,45.62027]},"properties":{"nom":"Cothiers","ag":["Réseau urbain Möbius"],"lt":1,"dept":"16"}},{"type":"Feature","geometry":{"type":"Point","coordinates":[0.14404,45.73491]},"properties":{"nom":"Coursac","ag":["Réseau urbain Möbius"],"lt":1,"dept":"16"}},{"type":"Feature","geometry":{"type":"Point","coordinates":[0.15046,45.64397]},"properties":{"nom":"Cressonnières","ag":["Réseau urbain Möbius"],"lt":1,"dept":"16"}},{"type":"Feature","geometry":{"type":"Point","coordinates":[0.20742,45.63634]},"properties":{"nom":"Croix Blanche","ag":["Réseau urbain Möbius"],"lt":1,"dept":"16"}},{"type":"Feature","geometry":{"type":"Point","coordinates":[0.1508,45.66904]},"properties":{"nom":"Croix de la Fosse","ag":["Réseau urbain Möbius"],"lt":1,"dept":"16"}},{"type":"Feature","geometry":{"type":"Point","coordinates":[0.25818,45.72478]},"properties":{"nom":"Croix des Voisins","ag":["Réseau urbain Möbius"],"lt":1,"dept":"16"}},{"type":"Feature","geometry":{"type":"Point","coordinates":[0.21131,45.64902]},"properties":{"nom":"Croix du Maréchal","ag":["Réseau urbain Möbius"],"lt":1,"dept":"16"}},{"type":"Feature","geometry":{"type":"Point","coordinates":[0.15649,45.63924]},"properties":{"nom":"Croix Lalaud","ag":["Réseau urbain Möbius"],"lt":1,"dept":"16"}},{"type":"Feature","geometry":{"type":"Point","coordinates":[0.15945,45.63373]},"properties":{"nom":"Croix Lanauve","ag":["Réseau urbain Möbius"],"lt":1,"dept":"16"}},{"type":"Feature","geometry":{"type":"Point","coordinates":[0.13828,45.66128]},"properties":{"nom":"Croix Maillot","ag":["Réseau urbain Möbius"],"lt":1,"dept":"16"}},{"type":"Feature","geometry":{"type":"Point","coordinates":[0.18846,45.66503]},"properties":{"nom":"Croix Marron","ag":["Réseau urbain Möbius"],"lt":1,"dept":"16"}},{"type":"Feature","geometry":{"type":"Point","coordinates":[0.11907,45.70967]},"properties":{"nom":"Croix Peltreux","ag":["Réseau urbain Möbius"],"lt":1,"dept":"16"}},{"type":"Feature","geometry":{"type":"Point","coordinates":[0.24483,45.64182]},"properties":{"nom":"Cézanne","ag":["Réseau urbain Möbius"],"lt":1,"dept":"16"}},{"type":"Feature","geometry":{"type":"Point","coordinates":[0.12901,45.67557]},"properties":{"nom":"Dagnas","ag":["Réseau urbain Möbius"],"lt":1,"dept":"16"}},{"type":"Feature","geometry":{"type":"Point","coordinates":[0.11267,45.64739]},"properties":{"nom":"Daras","ag":["Réseau urbain Möbius"],"lt":1,"dept":"16"}},{"type":"Feature","geometry":{"type":"Point","coordinates":[0.22517,45.67568]},"properties":{"nom":"De Coubertin","ag":["Réseau urbain Möbius"],"lt":1,"dept":"16"}},{"type":"Feature","geometry":{"type":"Point","coordinates":[0.18142,45.66019]},"properties":{"nom":"Desfarges","ag":["Réseau urbain Möbius"],"lt":1,"dept":"16"}},{"type":"Feature","geometry":{"type":"Point","coordinates":[0.27678,45.55494]},"properties":{"nom":"Dignac Clef d'Or","ag":["Réseau urbain Möbius"],"lt":1,"dept":"16"}},{"type":"Feature","geometry":{"type":"Point","coordinates":[0.24746,45.6042]},"properties":{"nom":"Dirac Place","ag":["Réseau urbain Möbius"],"lt":1,"dept":"16"}},{"type":"Feature","geometry":{"type":"Point","coordinates":[0.21598,45.61641]},"properties":{"nom":"Domaine du Got","ag":["Réseau urbain Möbius"],"lt":1,"dept":"16"}},{"type":"Feature","geometry":{"type":"Point","coordinates":[0.18873,45.66803]},"properties":{"nom":"Ecasseaux","ag":["Réseau urbain Möbius"],"lt":1,"dept":"16"}},{"type":"Feature","geometry":{"type":"Point","coordinates":[0.1984,45.64023]},"properties":{"nom":"Echaliers","ag":["Réseau urbain Möbius"],"lt":1,"dept":"16"}},{"type":"Feature","geometry":{"type":"Point","coordinates":[0.24201,45.59934]},"properties":{"nom":"Ecole d'Art","ag":["Réseau urbain Möbius"],"lt":1,"dept":"16"}},{"type":"Feature","geometry":{"type":"Point","coordinates":[0.03719,45.67857]},"properties":{"nom":"Ecoliers","ag":["Réseau urbain Möbius"],"lt":1,"dept":"16"}},{"type":"Feature","geometry":{"type":"Point","coordinates":[0.16399,45.66587]},"properties":{"nom":"Egalité","ag":["Réseau urbain Möbius"],"lt":1,"dept":"16"}},{"type":"Feature","geometry":{"type":"Point","coordinates":[0.21864,45.66219]},"properties":{"nom":"Entreroches","ag":["Réseau urbain Möbius"],"lt":1,"dept":"16"}},{"type":"Feature","geometry":{"type":"Point","coordinates":[0.2144,45.63304]},"properties":{"nom":"Epagnac","ag":["Réseau urbain Möbius"],"lt":1,"dept":"16"}},{"type":"Feature","geometry":{"type":"Point","coordinates":[0.17831,45.66535]},"properties":{"nom":"Epargne","ag":["Réseau urbain Möbius"],"lt":1,"dept":"16"}},{"type":"Feature","geometry":{"type":"Point","coordinates":[0.16095,45.65001]},"properties":{"nom":"Eperon St Roch","ag":["Réseau urbain Möbius"],"lt":1,"dept":"16"}},{"type":"Feature","geometry":{"type":"Point","coordinates":[0.11185,45.63748]},"properties":{"nom":"Espace Commercial","ag":["Réseau urbain Möbius"],"lt":1,"dept":"16"}},{"type":"Feature","geometry":{"type":"Point","coordinates":[0.18005,45.6562]},"properties":{"nom":"Espace Lunesse","ag":["Réseau urbain Möbius"],"lt":1,"dept":"16"}},{"type":"Feature","geometry":{"type":"Point","coordinates":[0.12095,45.64815]},"properties":{"nom":"Espoir","ag":["Réseau urbain Möbius"],"lt":1,"dept":"16"}},{"type":"Feature","geometry":{"type":"Point","coordinates":[0.09871,45.60953]},"properties":{"nom":"Etang des Moines","ag":["Réseau urbain Möbius"],"lt":1,"dept":"16"}},{"type":"Feature","geometry":{"type":"Point","coordinates":[0.10025,45.68325]},"properties":{"nom":"Euratlantique 1","ag":["Réseau urbain Möbius"],"lt":1,"dept":"16"}},{"type":"Feature","geometry":{"type":"Point","coordinates":[0.14389,45.6309]},"properties":{"nom":"Europe","ag":["Réseau urbain Möbius"],"lt":1,"dept":"16"}},{"type":"Feature","geometry":{"type":"Point","coordinates":[0.09747,45.61756]},"properties":{"nom":"F. Mistral","ag":["Réseau urbain Möbius"],"lt":1,"dept":"16"}},{"type":"Feature","geometry":{"type":"Point","coordinates":[0.23776,45.67652]},"properties":{"nom":"Faraday-Descartes","ag":["Réseau urbain Möbius"],"lt":1,"dept":"16"}},{"type":"Feature","geometry":{"type":"Point","coordinates":[0.1699,45.66402]},"properties":{"nom":"Ferdinand Buisson","ag":["Réseau urbain Möbius"],"lt":1,"dept":"16"}},{"type":"Feature","geometry":{"type":"Point","coordinates":[0.14546,45.64149]},"properties":{"nom":"Ferme des Valettes","ag":["Réseau urbain Möbius"],"lt":1,"dept":"16"}},{"type":"Feature","geometry":{"type":"Point","coordinates":[0.19719,45.70624]},"properties":{"nom":"Ferrière","ag":["Réseau urbain Möbius"],"lt":1,"dept":"16"}},{"type":"Feature","geometry":{"type":"Point","coordinates":[0.14614,45.64877]},"properties":{"nom":"Ferry","ag":["Réseau urbain Möbius"],"lt":1,"dept":"16"}},{"type":"Feature","geometry":{"type":"Point","coordinates":[0.23675,45.68327]},"properties":{"nom":"Fils","ag":["Réseau urbain Möbius"],"lt":1,"dept":"16"}},{"type":"Feature","geometry":{"type":"Point","coordinates":[0.2116,45.68221]},"properties":{"nom":"Fissac","ag":["Réseau urbain Möbius"],"lt":1,"dept":"16"}},{"type":"Feature","geometry":{"type":"Point","coordinates":[0.07881,45.68969]},"properties":{"nom":"Fléac Brénat","ag":["Réseau urbain Möbius"],"lt":1,"dept":"16"}},{"type":"Feature","geometry":{"type":"Point","coordinates":[0.08967,45.6617]},"properties":{"nom":"Fléac Gymnase","ag":["Réseau urbain Möbius"],"lt":1,"dept":"16"}},{"type":"Feature","geometry":{"type":"Point","coordinates":[0.0884,45.69807]},"properties":{"nom":"Fléac Poste EDF","ag":["Réseau urbain Möbius"],"lt":1,"dept":"16"}},{"type":"Feature","geometry":{"type":"Point","coordinates":[0.09686,45.67223]},"properties":{"nom":"Fléac Rue Nouvelle","ag":["Réseau urbain Möbius"],"lt":1,"dept":"16"}},{"type":"Feature","geometry":{"type":"Point","coordinates":[0.22475,45.67835]},"properties":{"nom":"Fonderie","ag":["Réseau urbain Möbius"],"lt":1,"dept":"16"}},{"type":"Feature","geometry":{"type":"Point","coordinates":[0.14348,45.72127]},"properties":{"nom":"Font St-Martin","ag":["Réseau urbain Möbius"],"lt":1,"dept":"16"}},{"type":"Feature","geometry":{"type":"Point","coordinates":[0.19519,45.66377]},"properties":{"nom":"Fontaine","ag":["Réseau urbain Möbius"],"lt":1,"dept":"16"}},{"type":"Feature","geometry":{"type":"Point","coordinates":[0.26461,45.68935]},"properties":{"nom":"Fontaine Michaud","ag":["Réseau urbain Möbius"],"lt":1,"dept":"16"}},{"type":"Feature","geometry":{"type":"Point","coordinates":[0.18421,45.71361]},"properties":{"nom":"Fontanson","ag":["Réseau urbain Möbius"],"lt":1,"dept":"16"}},{"type":"Feature","geometry":{"type":"Point","coordinates":[0.18342,45.71011]},"properties":{"nom":"Fontanson","ag":["Réseau urbain Möbius"],"lt":1,"dept":"16"}},{"type":"Feature","geometry":{"type":"Point","coordinates":[0.14408,45.6785]},"properties":{"nom":"Fontastier","ag":["Réseau urbain Möbius"],"lt":1,"dept":"16"}},{"type":"Feature","geometry":{"type":"Point","coordinates":[0.1557,45.66278]},"properties":{"nom":"Fontchaudière","ag":["Réseau urbain Möbius"],"lt":1,"dept":"16"}},{"type":"Feature","geometry":{"type":"Point","coordinates":[0.16967,45.70362]},"properties":{"nom":"Fontenille","ag":["Réseau urbain Möbius"],"lt":1,"dept":"16"}},{"type":"Feature","geometry":{"type":"Point","coordinates":[0.07269,45.63167]},"properties":{"nom":"Forêt des Moines","ag":["Réseau urbain Möbius"],"lt":1,"dept":"16"}},{"type":"Feature","geometry":{"type":"Point","coordinates":[0.05095,45.6271]},"properties":{"nom":"Foucaudie","ag":["Réseau urbain Möbius"],"lt":1,"dept":"16"}},{"type":"Feature","geometry":{"type":"Point","coordinates":[0.07323,45.64898]},"properties":{"nom":"Fouillère","ag":["Réseau urbain Möbius"],"lt":1,"dept":"16"}},{"type":"Feature","geometry":{"type":"Point","coordinates":[0.09958,45.60965]},"properties":{"nom":"Four Banal","ag":["Réseau urbain Möbius"],"lt":1,"dept":"16"}},{"type":"Feature","geometry":{"type":"Point","coordinates":[0.12727,45.65166]},"properties":{"nom":"Fournier","ag":["Réseau urbain Möbius"],"lt":1,"dept":"16"}},{"type":"Feature","geometry":{"type":"Point","coordinates":[0.16432,45.67928]},"properties":{"nom":"Fours à Chaux","ag":["Réseau urbain Möbius"],"lt":1,"dept":"16"}},{"type":"Feature","geometry":{"type":"Point","coordinates":[0.24922,45.67274]},"properties":{"nom":"Fourville","ag":["Réseau urbain Möbius"],"lt":1,"dept":"16"}},{"type":"Feature","geometry":{"type":"Point","coordinates":[0.15962,45.64959]},"properties":{"nom":"Franquin","ag":["Réseau urbain Möbius"],"lt":1,"dept":"16"}},{"type":"Feature","geometry":{"type":"Point","coordinates":[0.21534,45.69185]},"properties":{"nom":"Fraîchefond","ag":["Réseau urbain Möbius"],"lt":1,"dept":"16"}},{"type":"Feature","geometry":{"type":"Point","coordinates":[0.1717,45.66151]},"properties":{"nom":"Froide","ag":["Réseau urbain Möbius"],"lt":1,"dept":"16"}},{"type":"Feature","geometry":{"type":"Point","coordinates":[0.1721,45.66429]},"properties":{"nom":"Gal Leclerc","ag":["Réseau urbain Möbius"],"lt":1,"dept":"16"}},{"type":"Feature","geometry":{"type":"Point","coordinates":[0.16151,45.65067]},"properties":{"nom":"Gambetta","ag":["Réseau urbain Möbius"],"lt":1,"dept":"16"}},{"type":"Feature","geometry":{"type":"Point","coordinates":[0.10799,45.64356]},"properties":{"nom":"Gare","ag":["Réseau urbain Möbius"],"lt":1,"dept":"16"}},{"type":"Feature","geometry":{"type":"Point","coordinates":[0.04342,45.67519]},"properties":{"nom":"Garenne Bas","ag":["Réseau urbain Möbius"],"lt":1,"dept":"16"}},{"type":"Feature","geometry":{"type":"Point","coordinates":[0.04251,45.67607]},"properties":{"nom":"Garenne Haut","ag":["Réseau urbain Möbius"],"lt":1,"dept":"16"}},{"type":"Feature","geometry":{"type":"Point","coordinates":[0.26402,45.67874]},"properties":{"nom":"Gibauds","ag":["Réseau urbain Möbius"],"lt":1,"dept":"16"}},{"type":"Feature","geometry":{"type":"Point","coordinates":[0.2534,45.67368]},"properties":{"nom":"Gierve","ag":["Réseau urbain Möbius"],"lt":1,"dept":"16"}},{"type":"Feature","geometry":{"type":"Point","coordinates":[0.1639,45.68123]},"properties":{"nom":"Gond Pontouvre Cassin","ag":["Réseau urbain Möbius"],"lt":1,"dept":"16"}},{"type":"Feature","geometry":{"type":"Point","coordinates":[0.16399,45.68352]},"properties":{"nom":"Gond Pontouvre le Treuil","ag":["Réseau urbain Möbius"],"lt":1,"dept":"16"}},{"type":"Feature","geometry":{"type":"Point","coordinates":[0.19251,45.65856]},"properties":{"nom":"Grand Champ","ag":["Réseau urbain Möbius"],"lt":1,"dept":"16"}},{"type":"Feature","geometry":{"type":"Point","coordinates":[0.07709,45.62333]},"properties":{"nom":"Grand Maine","ag":["Réseau urbain Möbius"],"lt":1,"dept":"16"}},{"type":"Feature","geometry":{"type":"Point","coordinates":[0.20139,45.66508]},"properties":{"nom":"Grand Pas","ag":["Réseau urbain Möbius"],"lt":1,"dept":"16"}},{"type":"Feature","geometry":{"type":"Point","coordinates":[0.18665,45.66182]},"properties":{"nom":"Grande Allée","ag":["Réseau urbain Möbius"],"lt":1,"dept":"16"}},{"type":"Feature","geometry":{"type":"Point","coordinates":[0.12617,45.64816]},"properties":{"nom":"Grande Garenne","ag":["Réseau urbain Möbius"],"lt":1,"dept":"16"}},{"type":"Feature","geometry":{"type":"Point","coordinates":[0.16323,45.65032]},"properties":{"nom":"Grande Poste","ag":["Réseau urbain Möbius"],"lt":1,"dept":"16"}},{"type":"Feature","geometry":{"type":"Point","coordinates":[0.14214,45.68708]},"properties":{"nom":"Grande Prairie","ag":["Réseau urbain Möbius"],"lt":1,"dept":"16"}},{"type":"Feature","geometry":{"type":"Point","coordinates":[0.05271,45.62515]},"properties":{"nom":"Grande Rue","ag":["Réseau urbain Möbius"],"lt":1,"dept":"16"}},{"type":"Feature","geometry":{"type":"Point","coordinates":[0.23855,45.65436]},"properties":{"nom":"Grandes Versennes","ag":["Réseau urbain Möbius"],"lt":1,"dept":"16"}},{"type":"Feature","geometry":{"type":"Point","coordinates":[0.04882,45.55178]},"properties":{"nom":"Grotte du Vallon","ag":["Réseau urbain Möbius"],"lt":1,"dept":"16"}},{"type":"Feature","geometry":{"type":"Point","coordinates":[0.16809,45.65121]},"properties":{"nom":"Guichard","ag":["Réseau urbain Möbius"],"lt":1,"dept":"16"}},{"type":"Feature","geometry":{"type":"Point","coordinates":[0.1086,45.72862]},"properties":{"nom":"Guissalle","ag":["Réseau urbain Möbius"],"lt":1,"dept":"16"}},{"type":"Feature","geometry":{"type":"Point","coordinates":[0.15446,45.63761]},"properties":{"nom":"Hassel","ag":["Réseau urbain Möbius"],"lt":1,"dept":"16"}},{"type":"Feature","geometry":{"type":"Point","coordinates":[0.17575,45.65271]},"properties":{"nom":"Hortensia","ag":["Réseau urbain Möbius"],"lt":1,"dept":"16"}},{"type":"Feature","geometry":{"type":"Point","coordinates":[0.12103,45.63678]},"properties":{"nom":"Hôpital","ag":["Réseau urbain Möbius"],"lt":1,"dept":"16"}},{"type":"Feature","geometry":{"type":"Point","coordinates":[0.11961,45.63415]},"properties":{"nom":"Hôpital Hall Sud","ag":["Réseau urbain Möbius"],"lt":1,"dept":"16"}},{"type":"Feature","geometry":{"type":"Point","coordinates":[0.09798,45.66022]},"properties":{"nom":"Impasse Marguerite","ag":["Réseau urbain Möbius"],"lt":1,"dept":"16"}},{"type":"Feature","geometry":{"type":"Point","coordinates":[0.10744,45.64601]},"properties":{"nom":"Industrie","ag":["Réseau urbain Möbius"],"lt":1,"dept":"16"}},{"type":"Feature","geometry":{"type":"Point","coordinates":[0.21828,45.66904]},"properties":{"nom":"Isle d'Esp. Bel Air Z.A.","ag":["Réseau urbain Möbius"],"lt":1,"dept":"16"}},{"type":"Feature","geometry":{"type":"Point","coordinates":[0.19572,45.67049]},"properties":{"nom":"Isle d'Esp. CCI Campus Nord","ag":["Réseau urbain Möbius"],"lt":1,"dept":"16"}},{"type":"Feature","geometry":{"type":"Point","coordinates":[0.14653,45.65015]},"properties":{"nom":"Jardin Vert","ag":["Réseau urbain Möbius"],"lt":1,"dept":"16"}},{"type":"Feature","geometry":{"type":"Point","coordinates":[0.1176,45.67993]},"properties":{"nom":"Jardinerie","ag":["Réseau urbain Möbius"],"lt":1,"dept":"16"}},{"type":"Feature","geometry":{"type":"Point","coordinates":[0.23468,45.65877]},"properties":{"nom":"Jaurès","ag":["Réseau urbain Möbius"],"lt":1,"dept":"16"}},{"type":"Feature","geometry":{"type":"Point","coordinates":[0.21145,45.67425]},"properties":{"nom":"Jean Antoine","ag":["Réseau urbain Möbius"],"lt":1,"dept":"16"}},{"type":"Feature","geometry":{"type":"Point","coordinates":[0.13251,45.66274]},"properties":{"nom":"Jean de la Fontaine","ag":["Réseau urbain Möbius"],"lt":1,"dept":"16"}},{"type":"Feature","geometry":{"type":"Point","coordinates":[0.14096,45.66012]},"properties":{"nom":"Jeanne d'Arc","ag":["Réseau urbain Möbius"],"lt":1,"dept":"16"}},{"type":"Feature","geometry":{"type":"Point","coordinates":[0.17411,45.63254]},"properties":{"nom":"Jésuites","ag":["Réseau urbain Möbius"],"lt":1,"dept":"16"}},{"type":"Feature","geometry":{"type":"Point","coordinates":[0.16138,45.66617]},"properties":{"nom":"Kennedy","ag":["Réseau urbain Möbius"],"lt":1,"dept":"16"}},{"type":"Feature","geometry":{"type":"Point","coordinates":[0.07109,45.62684]},"properties":{"nom":"Ker Lucia","ag":["Réseau urbain Möbius"],"lt":1,"dept":"16"}},{"type":"Feature","geometry":{"type":"Point","coordinates":[0.15797,45.67603]},"properties":{"nom":"Kléber","ag":["Réseau urbain Möbius"],"lt":1,"dept":"16"}},{"type":"Feature","geometry":{"type":"Point","coordinates":[0.11049,45.62398]},"properties":{"nom":"L'Allée","ag":["Réseau urbain Möbius"],"lt":1,"dept":"16"}},{"type":"Feature","geometry":{"type":"Point","coordinates":[0.06739,45.6139]},"properties":{"nom":"L'Ensoleillée","ag":["Réseau urbain Möbius"],"lt":1,"dept":"16"}},{"type":"Feature","geometry":{"type":"Point","coordinates":[0.13334,45.66958]},"properties":{"nom":"L'Epineuil","ag":["Réseau urbain Möbius"],"lt":1,"dept":"16"}},{"type":"Feature","geometry":{"type":"Point","coordinates":[0.16048,45.65548]},"properties":{"nom":"L'Houmeau","ag":["Réseau urbain Möbius"],"lt":1,"dept":"16"}},{"type":"Feature","geometry":{"type":"Point","coordinates":[0.25084,45.7402]},"properties":{"nom":"La Baisse Couprié","ag":["Réseau urbain Möbius"],"lt":1,"dept":"16"}},{"type":"Feature","geometry":{"type":"Point","coordinates":[0.13665,45.68147]},"properties":{"nom":"La Ballée","ag":["Réseau urbain Möbius"],"lt":1,"dept":"16"}},{"type":"Feature","geometry":{"type":"Point","coordinates":[0.18016,45.68807]},"properties":{"nom":"La Bisaiguë","ag":["Réseau urbain Möbius"],"lt":1,"dept":"16"}},{"type":"Feature","geometry":{"type":"Point","coordinates":[0.3149,45.6304]},"properties":{"nom":"La Bourlie","ag":["Réseau urbain Möbius"],"lt":1,"dept":"16"}},{"type":"Feature","geometry":{"type":"Point","coordinates":[0.08193,45.60582]},"properties":{"nom":"La Boëme","ag":["Réseau urbain Möbius"],"lt":1,"dept":"16"}},{"type":"Feature","geometry":{"type":"Point","coordinates":[0.09624,45.63216]},"properties":{"nom":"La Brousse","ag":["Réseau urbain Möbius"],"lt":1,"dept":"16"}},{"type":"Feature","geometry":{"type":"Point","coordinates":[0.12877,45.67065]},"properties":{"nom":"La Brûlerie","ag":["Réseau urbain Möbius"],"lt":1,"dept":"16"}},{"type":"Feature","geometry":{"type":"Point","coordinates":[0.10122,45.62251]},"properties":{"nom":"La Cerisaie","ag":["Réseau urbain Möbius"],"lt":1,"dept":"16"}},{"type":"Feature","geometry":{"type":"Point","coordinates":[0.24609,45.65438]},"properties":{"nom":"La Champagnolle","ag":["Réseau urbain Möbius"],"lt":1,"dept":"16"}},{"type":"Feature","geometry":{"type":"Point","coordinates":[0.28634,45.7189]},"properties":{"nom":"La Chapelle","ag":["Réseau urbain Möbius"],"lt":1,"dept":"16"}},{"type":"Feature","geometry":{"type":"Point","coordinates":[0.09315,45.65002]},"properties":{"nom":"La Chaussée","ag":["Réseau urbain Möbius"],"lt":1,"dept":"16"}},{"type":"Feature","geometry":{"type":"Point","coordinates":[0.17588,45.64059]},"properties":{"nom":"La Cigogne","ag":["Réseau urbain Möbius"],"lt":1,"dept":"16"}},{"type":"Feature","geometry":{"type":"Point","coordinates":[0.15098,45.65311]},"properties":{"nom":"La Cité","ag":["Réseau urbain Möbius"],"lt":1,"dept":"16"}},{"type":"Feature","geometry":{"type":"Point","coordinates":[0.1536,45.62795]},"properties":{"nom":"La Closerie","ag":["Réseau urbain Möbius"],"lt":1,"dept":"16"}},{"type":"Feature","geometry":{"type":"Point","coordinates":[0.10175,45.60083]},"properties":{"nom":"La Contrie","ag":["Réseau urbain Möbius"],"lt":1,"dept":"16"}},{"type":"Feature","geometry":{"type":"Point","coordinates":[0.09971,45.60602]},"properties":{"nom":"La Couronne Ch. de Foire","ag":["Réseau urbain Möbius"],"lt":1,"dept":"16"}},{"type":"Feature","geometry":{"type":"Point","coordinates":[0.09502,45.6025]},"properties":{"nom":"La Couronne Collège","ag":["Réseau urbain Möbius"],"lt":1,"dept":"16"}},{"type":"Feature","geometry":{"type":"Point","coordinates":[0.1201,45.61941]},"properties":{"nom":"La Couronne Combe Breuty","ag":["Réseau urbain Möbius"],"lt":1,"dept":"16"}},{"type":"Feature","geometry":{"type":"Point","coordinates":[0.09865,45.60016]},"properties":{"nom":"La Couronne Gallands","ag":["Réseau urbain Möbius"],"lt":1,"dept":"16"}},{"type":"Feature","geometry":{"type":"Point","coordinates":[0.10031,45.60528]},"properties":{"nom":"La Couronne Gare","ag":["Réseau urbain Möbius"],"lt":1,"dept":"16"}},{"type":"Feature","geometry":{"type":"Point","coordinates":[0.1049,45.62349]},"properties":{"nom":"La Couronne L.P. Agricole","ag":["Réseau urbain Möbius"],"lt":1,"dept":"16"}},{"type":"Feature","geometry":{"type":"Point","coordinates":[0.08019,45.62125]},"properties":{"nom":"La Couronne les Courtes","ag":["Réseau urbain Möbius"],"lt":1,"dept":"16"}},{"type":"Feature","geometry":{"type":"Point","coordinates":[0.13903,45.60187]},"properties":{"nom":"La Couronne Pont Neuf","ag":["Réseau urbain Möbius"],"lt":1,"dept":"16"}},{"type":"Feature","geometry":{"type":"Point","coordinates":[0.09542,45.61799]},"properties":{"nom":"La Croisade","ag":["Réseau urbain Möbius"],"lt":1,"dept":"16"}},{"type":"Feature","geometry":{"type":"Point","coordinates":[0.02833,45.61884]},"properties":{"nom":"La Côte","ag":["Réseau urbain Möbius"],"lt":1,"dept":"16"}},{"type":"Feature","geometry":{"type":"Point","coordinates":[0.28393,45.68319]},"properties":{"nom":"La Faye","ag":["Réseau urbain Möbius"],"lt":1,"dept":"16"}},{"type":"Feature","geometry":{"type":"Point","coordinates":[0.16896,45.63183]},"properties":{"nom":"La Ferme","ag":["Réseau urbain Möbius"],"lt":1,"dept":"16"}},{"type":"Feature","geometry":{"type":"Point","coordinates":[0.04475,45.67593]},"properties":{"nom":"La Garenne","ag":["Réseau urbain Möbius"],"lt":1,"dept":"16"}},{"type":"Feature","geometry":{"type":"Point","coordinates":[0.08197,45.59556]},"properties":{"nom":"La Goujarde","ag":["Réseau urbain Möbius"],"lt":1,"dept":"16"}},{"type":"Feature","geometry":{"type":"Point","coordinates":[0.09738,45.68064]},"properties":{"nom":"La Gounerie","ag":["Réseau urbain Möbius"],"lt":1,"dept":"16"}},{"type":"Feature","geometry":{"type":"Point","coordinates":[0.14566,45.67554]},"properties":{"nom":"La Grange","ag":["Réseau urbain Möbius"],"lt":1,"dept":"16"}},{"type":"Feature","geometry":{"type":"Point","coordinates":[0.06893,45.66606]},"properties":{"nom":"La Grelière","ag":["Réseau urbain Möbius"],"lt":1,"dept":"16"}},{"type":"Feature","geometry":{"type":"Point","coordinates":[0.18294,45.69008]},"properties":{"nom":"La Génoise","ag":["Réseau urbain Möbius"],"lt":1,"dept":"16"}},{"type":"Feature","geometry":{"type":"Point","coordinates":[0.27053,45.73808]},"properties":{"nom":"La Jauvigère","ag":["Réseau urbain Möbius"],"lt":1,"dept":"16"}},{"type":"Feature","geometry":{"type":"Point","coordinates":[0.15494,45.6005]},"properties":{"nom":"La Limousine","ag":["Réseau urbain Möbius"],"lt":1,"dept":"16"}},{"type":"Feature","geometry":{"type":"Point","coordinates":[0.10901,45.60858]},"properties":{"nom":"La Longearde","ag":["Réseau urbain Möbius"],"lt":1,"dept":"16"}},{"type":"Feature","geometry":{"type":"Point","coordinates":[0.10036,45.68001]},"properties":{"nom":"La Lurate","ag":["Réseau urbain Möbius"],"lt":1,"dept":"16"}},{"type":"Feature","geometry":{"type":"Point","coordinates":[0.24401,45.6647]},"properties":{"nom":"La Maillerie","ag":["Réseau urbain Möbius"],"lt":1,"dept":"16"}},{"type":"Feature","geometry":{"type":"Point","coordinates":[0.08588,45.61933]},"properties":{"nom":"La Mondonne","ag":["Réseau urbain Möbius"],"lt":1,"dept":"16"}},{"type":"Feature","geometry":{"type":"Point","coordinates":[0.08412,45.60594]},"properties":{"nom":"La Montée","ag":["Réseau urbain Möbius"],"lt":1,"dept":"16"}},{"type":"Feature","geometry":{"type":"Point","coordinates":[0.10112,45.71365]},"properties":{"nom":"La Mothe Vindelle","ag":["Réseau urbain Möbius"],"lt":1,"dept":"16"}},{"type":"Feature","geometry":{"type":"Point","coordinates":[0.2649,45.65715]},"properties":{"nom":"La Ménarre","ag":["Réseau urbain Möbius"],"lt":1,"dept":"16"}},{"type":"Feature","geometry":{"type":"Point","coordinates":[0.12643,45.63944]},"properties":{"nom":"La Nef","ag":["Réseau urbain Möbius"],"lt":1,"dept":"16"}},{"type":"Feature","geometry":{"type":"Point","coordinates":[0.05585,45.62118]},"properties":{"nom":"La Pallue","ag":["Réseau urbain Möbius"],"lt":1,"dept":"16"}},{"type":"Feature","geometry":{"type":"Point","coordinates":[0.34579,45.62689]},"properties":{"nom":"La Petitie","ag":["Réseau urbain Möbius"],"lt":1,"dept":"16"}},{"type":"Feature","geometry":{"type":"Point","coordinates":[0.06131,45.618]},"properties":{"nom":"La Place","ag":["Réseau urbain Möbius"],"lt":1,"dept":"16"}},{"type":"Feature","geometry":{"type":"Point","coordinates":[0.11209,45.67268]},"properties":{"nom":"La Plaine","ag":["Réseau urbain Möbius"],"lt":1,"dept":"16"}},{"type":"Feature","geometry":{"type":"Point","coordinates":[0.09207,45.67982]},"properties":{"nom":"La Pommeraie","ag":["Réseau urbain Möbius"],"lt":1,"dept":"16"}},{"type":"Feature","geometry":{"type":"Point","coordinates":[0.16923,45.71293]},"properties":{"nom":"La Rivière","ag":["Réseau urbain Möbius"],"lt":1,"dept":"16"}},{"type":"Feature","geometry":{"type":"Point","coordinates":[0.16231,45.62279]},"properties":{"nom":"La Sablière","ag":["Réseau urbain Möbius"],"lt":1,"dept":"16"}},{"type":"Feature","geometry":{"type":"Point","coordinates":[0.23367,45.72002]},"properties":{"nom":"La Simarde","ag":["Réseau urbain Möbius"],"lt":1,"dept":"16"}},{"type":"Feature","geometry":{"type":"Point","coordinates":[0.21611,45.68233]},"properties":{"nom":"La Terrière","ag":["Réseau urbain Möbius"],"lt":1,"dept":"16"}},{"type":"Feature","geometry":{"type":"Point","coordinates":[0.09469,45.65293]},"properties":{"nom":"La Touche","ag":["Réseau urbain Möbius"],"lt":1,"dept":"16"}},{"type":"Feature","geometry":{"type":"Point","coordinates":[0.37004,45.60123]},"properties":{"nom":"La Tuillère","ag":["Réseau urbain Möbius"],"lt":1,"dept":"16"}},{"type":"Feature","geometry":{"type":"Point","coordinates":[0.14459,45.6584]},"properties":{"nom":"Lacroix","ag":["Réseau urbain Möbius"],"lt":1,"dept":"16"}},{"type":"Feature","geometry":{"type":"Point","coordinates":[0.07055,45.61312]},"properties":{"nom":"Lafont","ag":["Réseau urbain Möbius"],"lt":1,"dept":"16"}},{"type":"Feature","geometry":{"type":"Point","coordinates":[0.22585,45.68077]},"properties":{"nom":"Lagrange","ag":["Réseau urbain Möbius"],"lt":1,"dept":"16"}},{"type":"Feature","geometry":{"type":"Point","coordinates":[0.17375,45.67212]},"properties":{"nom":"Lamartine","ag":["Réseau urbain Möbius"],"lt":1,"dept":"16"}},{"type":"Feature","geometry":{"type":"Point","coordinates":[0.16036,45.65745]},"properties":{"nom":"Lamaud","ag":["Réseau urbain Möbius"],"lt":1,"dept":"16"}},{"type":"Feature","geometry":{"type":"Point","coordinates":[0.13429,45.65164]},"properties":{"nom":"Lambert","ag":["Réseau urbain Möbius"],"lt":1,"dept":"16"}},{"type":"Feature","geometry":{"type":"Point","coordinates":[0.23835,45.67854]},"properties":{"nom":"Langevin","ag":["Réseau urbain Möbius"],"lt":1,"dept":"16"}},{"type":"Feature","geometry":{"type":"Point","coordinates":[0.19163,45.70085]},"properties":{"nom":"Lansac","ag":["Réseau urbain Möbius"],"lt":1,"dept":"16"}},{"type":"Feature","geometry":{"type":"Point","coordinates":[0.1645,45.64517]},"properties":{"nom":"Lavalette","ag":["Réseau urbain Möbius"],"lt":1,"dept":"16"}},{"type":"Feature","geometry":{"type":"Point","coordinates":[0.24576,45.65024]},"properties":{"nom":"Lavallade","ag":["Réseau urbain Möbius"],"lt":1,"dept":"16"}},{"type":"Feature","geometry":{"type":"Point","coordinates":[0.03429,45.57481]},"properties":{"nom":"Le Berguille","ag":["Réseau urbain Möbius"],"lt":1,"dept":"16"}},{"type":"Feature","geometry":{"type":"Point","coordinates":[0.12697,45.67213]},"properties":{"nom":"Le Bois","ag":["Réseau urbain Möbius"],"lt":1,"dept":"16"}},{"type":"Feature","geometry":{"type":"Point","coordinates":[0.26661,45.60841]},"properties":{"nom":"Le Boisseau","ag":["Réseau urbain Möbius"],"lt":1,"dept":"16"}},{"type":"Feature","geometry":{"type":"Point","coordinates":[0.1488,45.59262]},"properties":{"nom":"Le Bourisson","ag":["Réseau urbain Möbius"],"lt":1,"dept":"16"}},{"type":"Feature","geometry":{"type":"Point","coordinates":[0.02666,45.6129]},"properties":{"nom":"Le Brandeau","ag":["Réseau urbain Möbius"],"lt":1,"dept":"16"}},{"type":"Feature","geometry":{"type":"Point","coordinates":[0.36039,45.60518]},"properties":{"nom":"Le Brandeau Vouzan","ag":["Réseau urbain Möbius"],"lt":1,"dept":"16"}},{"type":"Feature","geometry":{"type":"Point","coordinates":[0.04853,45.70673]},"properties":{"nom":"Le Breuil","ag":["Réseau urbain Möbius"],"lt":1,"dept":"16"}},{"type":"Feature","geometry":{"type":"Point","coordinates":[0.25143,45.65766]},"properties":{"nom":"Le Caillou","ag":["Réseau urbain Möbius"],"lt":1,"dept":"16"}},{"type":"Feature","geometry":{"type":"Point","coordinates":[0.25182,45.65892]},"properties":{"nom":"Le Cailloux","ag":["Réseau urbain Möbius"],"lt":1,"dept":"16"}},{"type":"Feature","geometry":{"type":"Point","coordinates":[0.21797,45.64592]},"properties":{"nom":"Le Calvaire","ag":["Réseau urbain Möbius"],"lt":1,"dept":"16"}},{"type":"Feature","geometry":{"type":"Point","coordinates":[0.10333,45.63912]},"properties":{"nom":"Le Chalumeau","ag":["Réseau urbain Möbius"],"lt":1,"dept":"16"}},{"type":"Feature","geometry":{"type":"Point","coordinates":[0.09675,45.66666]},"properties":{"nom":"Le Château","ag":["Réseau urbain Möbius"],"lt":1,"dept":"16"}},{"type":"Feature","geometry":{"type":"Point","coordinates":[0.01418,45.61091]},"properties":{"nom":"Le Château Sireuil","ag":["Réseau urbain Möbius"],"lt":1,"dept":"16"}},{"type":"Feature","geometry":{"type":"Point","coordinates":[0.09234,45.71109]},"properties":{"nom":"Le Cluzeau","ag":["Réseau urbain Möbius"],"lt":1,"dept":"16"}},{"type":"Feature","geometry":{"type":"Point","coordinates":[0.11315,45.72711]},"properties":{"nom":"Le Figuier","ag":["Réseau urbain Möbius"],"lt":1,"dept":"16"}},{"type":"Feature","geometry":{"type":"Point","coordinates":[0.16067,45.66883]},"properties":{"nom":"Le Gond","ag":["Réseau urbain Möbius"],"lt":1,"dept":"16"}},{"type":"Feature","geometry":{"type":"Point","coordinates":[0.11279,45.62138]},"properties":{"nom":"Le Jonco","ag":["Réseau urbain Möbius"],"lt":1,"dept":"16"}},{"type":"Feature","geometry":{"type":"Point","coordinates":[0.06113,45.67186]},"properties":{"nom":"Le Logis","ag":["Réseau urbain Möbius"],"lt":1,"dept":"16"}},{"type":"Feature","geometry":{"type":"Point","coordinates":[0.09759,45.61642]},"properties":{"nom":"Le Maine","ag":["Réseau urbain Möbius"],"lt":1,"dept":"16"}},{"type":"Feature","geometry":{"type":"Point","coordinates":[0.20422,45.68034]},"properties":{"nom":"Le Manot","ag":["Réseau urbain Möbius"],"lt":1,"dept":"16"}},{"type":"Feature","geometry":{"type":"Point","coordinates":[0.19762,45.66434]},"properties":{"nom":"Le Marché","ag":["Réseau urbain Möbius"],"lt":1,"dept":"16"}},{"type":"Feature","geometry":{"type":"Point","coordinates":[0.09624,45.62582]},"properties":{"nom":"Le Mas","ag":["Réseau urbain Möbius"],"lt":1,"dept":"16"}},{"type":"Feature","geometry":{"type":"Point","coordinates":[0.11023,45.61997]},"properties":{"nom":"Le Ménadeau","ag":["Réseau urbain Möbius"],"lt":1,"dept":"16"}},{"type":"Feature","geometry":{"type":"Point","coordinates":[0.14797,45.65369]},"properties":{"nom":"Le Nil","ag":["Réseau urbain Möbius"],"lt":1,"dept":"16"}},{"type":"Feature","geometry":{"type":"Point","coordinates":[0.05039,45.70509]},"properties":{"nom":"Le Pessaud","ag":["Réseau urbain Möbius"],"lt":1,"dept":"16"}},{"type":"Feature","geometry":{"type":"Point","coordinates":[0.05833,45.62535]},"properties":{"nom":"Le Peu","ag":["Réseau urbain Möbius"],"lt":1,"dept":"16"}},{"type":"Feature","geometry":{"type":"Point","coordinates":[0.09105,45.6851]},"properties":{"nom":"Le Pible","ag":["Réseau urbain Möbius"],"lt":1,"dept":"16"}},{"type":"Feature","geometry":{"type":"Point","coordinates":[0.14046,45.66474]},"properties":{"nom":"Le Plantis","ag":["Réseau urbain Möbius"],"lt":1,"dept":"16"}},{"type":"Feature","geometry":{"type":"Point","coordinates":[0.03408,45.61566]},"properties":{"nom":"Le Port Turcaud","ag":["Réseau urbain Möbius"],"lt":1,"dept":"16"}},{"type":"Feature","geometry":{"type":"Point","coordinates":[0.11443,45.68251]},"properties":{"nom":"Le Poteau","ag":["Réseau urbain Möbius"],"lt":1,"dept":"16"}},{"type":"Feature","geometry":{"type":"Point","coordinates":[0.19748,45.63767]},"properties":{"nom":"Le Pétureau","ag":["Réseau urbain Möbius"],"lt":1,"dept":"16"}},{"type":"Feature","geometry":{"type":"Point","coordinates":[0.06498,45.66796]},"properties":{"nom":"Le Reclou","ag":["Réseau urbain Möbius"],"lt":1,"dept":"16"}},{"type":"Feature","geometry":{"type":"Point","coordinates":[0.06289,45.61573]},"properties":{"nom":"Le Robardeau","ag":["Réseau urbain Möbius"],"lt":1,"dept":"16"}},{"type":"Feature","geometry":{"type":"Point","coordinates":[0.1436,45.5724]},"properties":{"nom":"Le Rosier","ag":["Réseau urbain Möbius"],"lt":1,"dept":"16"}},{"type":"Feature","geometry":{"type":"Point","coordinates":[0.15198,45.66511]},"properties":{"nom":"Le Simard","ag":["Réseau urbain Möbius"],"lt":1,"dept":"16"}},{"type":"Feature","geometry":{"type":"Point","coordinates":[0.24633,45.68645]},"properties":{"nom":"Les Agriers","ag":["Réseau urbain Möbius"],"lt":1,"dept":"16"}},{"type":"Feature","geometry":{"type":"Point","coordinates":[0.03786,45.63319]},"properties":{"nom":"Les Allins","ag":["Réseau urbain Möbius"],"lt":1,"dept":"16"}},{"type":"Feature","geometry":{"type":"Point","coordinates":[0.0084,45.62345]},"properties":{"nom":"Les Amelins","ag":["Réseau urbain Möbius"],"lt":1,"dept":"16"}},{"type":"Feature","geometry":{"type":"Point","coordinates":[0.0808,45.6046]},"properties":{"nom":"Les Aubreaux","ag":["Réseau urbain Möbius"],"lt":1,"dept":"16"}},{"type":"Feature","geometry":{"type":"Point","coordinates":[0.17779,45.68289]},"properties":{"nom":"Les Avenauds","ag":["Réseau urbain Möbius"],"lt":1,"dept":"16"}},{"type":"Feature","geometry":{"type":"Point","coordinates":[0.03874,45.65919]},"properties":{"nom":"Les Bacheliers","ag":["Réseau urbain Möbius"],"lt":1,"dept":"16"}},{"type":"Feature","geometry":{"type":"Point","coordinates":[0.04752,45.59736]},"properties":{"nom":"Les Barbots","ag":["Réseau urbain Möbius"],"lt":1,"dept":"16"}},{"type":"Feature","geometry":{"type":"Point","coordinates":[0.08611,45.61194]},"properties":{"nom":"Les Barrets","ag":["Réseau urbain Möbius"],"lt":1,"dept":"16"}},{"type":"Feature","geometry":{"type":"Point","coordinates":[0.09056,45.60636]},"properties":{"nom":"Les Beauvais","ag":["Réseau urbain Möbius"],"lt":1,"dept":"16"}},{"type":"Feature","geometry":{"type":"Point","coordinates":[0.02568,45.64791]},"properties":{"nom":"Les Bitardières","ag":["Réseau urbain Möbius"],"lt":1,"dept":"16"}},{"type":"Feature","geometry":{"type":"Point","coordinates":[0.0847,45.65329]},"properties":{"nom":"Les Boisdons","ag":["Réseau urbain Möbius"],"lt":1,"dept":"16"}},{"type":"Feature","geometry":{"type":"Point","coordinates":[0.13858,45.69009]},"properties":{"nom":"Les Bouquilloux","ag":["Réseau urbain Möbius"],"lt":1,"dept":"16"}},{"type":"Feature","geometry":{"type":"Point","coordinates":[0.0897,45.655]},"properties":{"nom":"Les Brandes","ag":["Réseau urbain Möbius"],"lt":1,"dept":"16"}},{"type":"Feature","geometry":{"type":"Point","coordinates":[0.19595,45.73675]},"properties":{"nom":"Les Brissauds","ag":["Réseau urbain Möbius"],"lt":1,"dept":"16"}},{"type":"Feature","geometry":{"type":"Point","coordinates":[0.0406,45.6495]},"properties":{"nom":"Les Bénéchères","ag":["Réseau urbain Möbius"],"lt":1,"dept":"16"}},{"type":"Feature","geometry":{"type":"Point","coordinates":[0.04885,45.63008]},"properties":{"nom":"Les Cardinaux","ag":["Réseau urbain Möbius"],"lt":1,"dept":"16"}},{"type":"Feature","geometry":{"type":"Point","coordinates":[0.15206,45.71908]},"properties":{"nom":"Les Carrières","ag":["Réseau urbain Möbius"],"lt":1,"dept":"16"}},{"type":"Feature","geometry":{"type":"Point","coordinates":[0.12759,45.7028]},"properties":{"nom":"Les Chabots","ag":["Réseau urbain Möbius"],"lt":1,"dept":"16"}},{"type":"Feature","geometry":{"type":"Point","coordinates":[0.24586,45.65759]},"properties":{"nom":"Les Chatins","ag":["Réseau urbain Möbius"],"lt":1,"dept":"16"}},{"type":"Feature","geometry":{"type":"Point","coordinates":[0.15917,45.6246]},"properties":{"nom":"Les Chaumes","ag":["Réseau urbain Möbius"],"lt":1,"dept":"16"}},{"type":"Feature","geometry":{"type":"Point","coordinates":[0.18203,45.7035]},"properties":{"nom":"Les Chauvauds","ag":["Réseau urbain Möbius"],"lt":1,"dept":"16"}},{"type":"Feature","geometry":{"type":"Point","coordinates":[0.21912,45.71783]},"properties":{"nom":"Les Cloux","ag":["Réseau urbain Möbius"],"lt":1,"dept":"16"}},{"type":"Feature","geometry":{"type":"Point","coordinates":[0.07528,45.60134]},"properties":{"nom":"Les Combes","ag":["Réseau urbain Möbius"],"lt":1,"dept":"16"}},{"type":"Feature","geometry":{"type":"Point","coordinates":[0.10169,45.63936]},"properties":{"nom":"Les Coteaux","ag":["Réseau urbain Möbius"],"lt":1,"dept":"16"}},{"type":"Feature","geometry":{"type":"Point","coordinates":[0.23633,45.66724]},"properties":{"nom":"Les Cygnes","ag":["Réseau urbain Möbius"],"lt":1,"dept":"16"}},{"type":"Feature","geometry":{"type":"Point","coordinates":[0.22122,45.65844]},"properties":{"nom":"Les Eaux Claires","ag":["Réseau urbain Möbius"],"lt":1,"dept":"16"}},{"type":"Feature","geometry":{"type":"Point","coordinates":[0.27097,45.64936]},"properties":{"nom":"Les Ecureuils","ag":["Réseau urbain Möbius"],"lt":1,"dept":"16"}},{"type":"Feature","geometry":{"type":"Point","coordinates":[0.14058,45.70077]},"properties":{"nom":"Les Essarts","ag":["Réseau urbain Möbius"],"lt":1,"dept":"16"}},{"type":"Feature","geometry":{"type":"Point","coordinates":[0.16102,45.63526]},"properties":{"nom":"Les Falaises","ag":["Réseau urbain Möbius"],"lt":1,"dept":"16"}},{"type":"Feature","geometry":{"type":"Point","coordinates":[0.10633,45.60613]},"properties":{"nom":"Les Fayards","ag":["Réseau urbain Möbius"],"lt":1,"dept":"16"}},{"type":"Feature","geometry":{"type":"Point","coordinates":[0.2783,45.72656]},"properties":{"nom":"Les Forges","ag":["Réseau urbain Möbius"],"lt":1,"dept":"16"}},{"type":"Feature","geometry":{"type":"Point","coordinates":[0.14854,45.72547]},"properties":{"nom":"Les Fougerouses","ag":["Réseau urbain Möbius"],"lt":1,"dept":"16"}},{"type":"Feature","geometry":{"type":"Point","coordinates":[0.12939,45.7294]},"properties":{"nom":"Les Fougères","ag":["Réseau urbain Möbius"],"lt":1,"dept":"16"}},{"type":"Feature","geometry":{"type":"Point","coordinates":[0.28658,45.7153]},"properties":{"nom":"Les Frauds Cf","ag":["Réseau urbain Möbius"],"lt":1,"dept":"16"}},{"type":"Feature","geometry":{"type":"Point","coordinates":[0.25707,45.71874]},"properties":{"nom":"Les Frottards","ag":["Réseau urbain Möbius"],"lt":1,"dept":"16"}},{"type":"Feature","geometry":{"type":"Point","coordinates":[0.27499,45.73325]},"properties":{"nom":"Les Gailledrats","ag":["Réseau urbain Möbius"],"lt":1,"dept":"16"}},{"type":"Feature","geometry":{"type":"Point","coordinates":[0.07326,45.62632]},"properties":{"nom":"Les Gatinelles","ag":["Réseau urbain Möbius"],"lt":1,"dept":"16"}},{"type":"Feature","geometry":{"type":"Point","coordinates":[0.26731,45.65403]},"properties":{"nom":"Les Gauchons","ag":["Réseau urbain Möbius"],"lt":1,"dept":"16"}},{"type":"Feature","geometry":{"type":"Point","coordinates":[0.26973,45.72246]},"properties":{"nom":"Les Gendres","ag":["Réseau urbain Möbius"],"lt":1,"dept":"16"}},{"type":"Feature","geometry":{"type":"Point","coordinates":[0.06202,45.58877]},"properties":{"nom":"Les Girards","ag":["Réseau urbain Möbius"],"lt":1,"dept":"16"}},{"type":"Feature","geometry":{"type":"Point","coordinates":[0.04353,45.57911]},"properties":{"nom":"Les Glamots","ag":["Réseau urbain Möbius"],"lt":1,"dept":"16"}},{"type":"Feature","geometry":{"type":"Point","coordinates":[0.23611,45.66397]},"properties":{"nom":"Les Granges","ag":["Réseau urbain Möbius"],"lt":1,"dept":"16"}},{"type":"Feature","geometry":{"type":"Point","coordinates":[0.02878,45.62337]},"properties":{"nom":"Les Groizilliers","ag":["Réseau urbain Möbius"],"lt":1,"dept":"16"}},{"type":"Feature","geometry":{"type":"Point","coordinates":[0.07199,45.73274]},"properties":{"nom":"Les Guérinauds","ag":["Réseau urbain Möbius"],"lt":1,"dept":"16"}},{"type":"Feature","geometry":{"type":"Point","coordinates":[0.15759,45.64975]},"properties":{"nom":"Les Halles","ag":["Réseau urbain Möbius"],"lt":1,"dept":"16"}},{"type":"Feature","geometry":{"type":"Point","coordinates":[0.08642,45.65602]},"properties":{"nom":"Les Hays","ag":["Réseau urbain Möbius"],"lt":1,"dept":"16"}},{"type":"Feature","geometry":{"type":"Point","coordinates":[0.04624,45.5303]},"properties":{"nom":"Les Hérauds","ag":["Réseau urbain Möbius"],"lt":1,"dept":"16"}},{"type":"Feature","geometry":{"type":"Point","coordinates":[0.12599,45.56445]},"properties":{"nom":"Les Justices","ag":["Réseau urbain Möbius"],"lt":1,"dept":"16"}},{"type":"Feature","geometry":{"type":"Point","coordinates":[0.12685,45.64467]},"properties":{"nom":"Les Marais","ag":["Réseau urbain Möbius"],"lt":1,"dept":"16"}},{"type":"Feature","geometry":{"type":"Point","coordinates":[0.08952,45.68368]},"properties":{"nom":"Les Marronniers","ag":["Réseau urbain Möbius"],"lt":1,"dept":"16"}},{"type":"Feature","geometry":{"type":"Point","coordinates":[0.03046,45.60476]},"properties":{"nom":"Les Mercerons","ag":["Réseau urbain Möbius"],"lt":1,"dept":"16"}},{"type":"Feature","geometry":{"type":"Point","coordinates":[0.13602,45.69116]},"properties":{"nom":"Les Mesniers","ag":["Réseau urbain Möbius"],"lt":1,"dept":"16"}},{"type":"Feature","geometry":{"type":"Point","coordinates":[0.17443,45.61737]},"properties":{"nom":"Les Milleraux","ag":["Réseau urbain Möbius"],"lt":1,"dept":"16"}},{"type":"Feature","geometry":{"type":"Point","coordinates":[0.08514,45.6796]},"properties":{"nom":"Les Mornats","ag":["Réseau urbain Möbius"],"lt":1,"dept":"16"}},{"type":"Feature","geometry":{"type":"Point","coordinates":[0.08168,45.65604]},"properties":{"nom":"Les Nuhins","ag":["Réseau urbain Möbius"],"lt":1,"dept":"16"}},{"type":"Feature","geometry":{"type":"Point","coordinates":[0.02494,45.61037]},"properties":{"nom":"Les Paturaux","ag":["Réseau urbain Möbius"],"lt":1,"dept":"16"}},{"type":"Feature","geometry":{"type":"Point","coordinates":[0.15151,45.60909]},"properties":{"nom":"Les Petits Chps","ag":["Réseau urbain Möbius"],"lt":1,"dept":"16"}},{"type":"Feature","geometry":{"type":"Point","coordinates":[0.09162,45.67671]},"properties":{"nom":"Les Poignards","ag":["Réseau urbain Möbius"],"lt":1,"dept":"16"}},{"type":"Feature","geometry":{"type":"Point","coordinates":[0.13324,45.68386]},"properties":{"nom":"Les Poissons","ag":["Réseau urbain Möbius"],"lt":1,"dept":"16"}},{"type":"Feature","geometry":{"type":"Point","coordinates":[0.05379,45.62353]},"properties":{"nom":"Les Prés","ag":["Réseau urbain Möbius"],"lt":1,"dept":"16"}},{"type":"Feature","geometry":{"type":"Point","coordinates":[0.11793,45.57963]},"properties":{"nom":"Les Rentes","ag":["Réseau urbain Möbius"],"lt":1,"dept":"16"}},{"type":"Feature","geometry":{"type":"Point","coordinates":[0.238,45.60791]},"properties":{"nom":"Les Ribondaines","ag":["Réseau urbain Möbius"],"lt":1,"dept":"16"}},{"type":"Feature","geometry":{"type":"Point","coordinates":[0.25769,45.6891]},"properties":{"nom":"Les Riffauds","ag":["Réseau urbain Möbius"],"lt":1,"dept":"16"}},{"type":"Feature","geometry":{"type":"Point","coordinates":[0.26257,45.74861]},"properties":{"nom":"Les Rigalloux","ag":["Réseau urbain Möbius"],"lt":1,"dept":"16"}},{"type":"Feature","geometry":{"type":"Point","coordinates":[0.14447,45.70548]},"properties":{"nom":"Les Rochiers","ag":["Réseau urbain Möbius"],"lt":1,"dept":"16"}},{"type":"Feature","geometry":{"type":"Point","coordinates":[0.12124,45.67691]},"properties":{"nom":"Les Rosiers","ag":["Réseau urbain Möbius"],"lt":1,"dept":"16"}},{"type":"Feature","geometry":{"type":"Point","coordinates":[0.1867,45.7037]},"properties":{"nom":"Les Rossignols","ag":["Réseau urbain Möbius"],"lt":1,"dept":"16"}},{"type":"Feature","geometry":{"type":"Point","coordinates":[0.13718,45.65133]},"properties":{"nom":"Les Roullets","ag":["Réseau urbain Möbius"],"lt":1,"dept":"16"}},{"type":"Feature","geometry":{"type":"Point","coordinates":[0.14129,45.68877]},"properties":{"nom":"Les Rouyères","ag":["Réseau urbain Möbius"],"lt":1,"dept":"16"}},{"type":"Feature","geometry":{"type":"Point","coordinates":[0.23239,45.67157]},"properties":{"nom":"Les Réganes","ag":["Réseau urbain Möbius"],"lt":1,"dept":"16"}},{"type":"Feature","geometry":{"type":"Point","coordinates":[0.13198,45.68987]},"properties":{"nom":"Les Serres","ag":["Réseau urbain Möbius"],"lt":1,"dept":"16"}},{"type":"Feature","geometry":{"type":"Point","coordinates":[0.1014,45.64078]},"properties":{"nom":"Les Sicauds","ag":["Réseau urbain Möbius"],"lt":1,"dept":"16"}},{"type":"Feature","geometry":{"type":"Point","coordinates":[0.11949,45.60546]},"properties":{"nom":"Les Séverins","ag":["Réseau urbain Möbius"],"lt":1,"dept":"16"}},{"type":"Feature","geometry":{"type":"Point","coordinates":[0.14382,45.71378]},"properties":{"nom":"Les Texiers","ag":["Réseau urbain Möbius"],"lt":1,"dept":"16"}},{"type":"Feature","geometry":{"type":"Point","coordinates":[0.2618,45.68994]},"properties":{"nom":"Les Theils","ag":["Réseau urbain Möbius"],"lt":1,"dept":"16"}},{"type":"Feature","geometry":{"type":"Point","coordinates":[0.19465,45.70383]},"properties":{"nom":"Les Tuileries","ag":["Réseau urbain Möbius"],"lt":1,"dept":"16"}},{"type":"Feature","geometry":{"type":"Point","coordinates":[0.26786,45.65047]},"properties":{"nom":"Les Varennes","ag":["Réseau urbain Möbius"],"lt":1,"dept":"16"}},{"type":"Feature","geometry":{"type":"Point","coordinates":[0.26176,45.65953]},"properties":{"nom":"Les Vignes","ag":["Réseau urbain Möbius"],"lt":1,"dept":"16"}},{"type":"Feature","geometry":{"type":"Point","coordinates":[0.10822,45.63929]},"properties":{"nom":"Liberté","ag":["Réseau urbain Möbius"],"lt":1,"dept":"16"}},{"type":"Feature","geometry":{"type":"Point","coordinates":[0.16379,45.6576]},"properties":{"nom":"Limoges","ag":["Réseau urbain Möbius"],"lt":1,"dept":"16"}},{"type":"Feature","geometry":{"type":"Point","coordinates":[0.08414,45.65583]},"properties":{"nom":"Linars 4 Routes","ag":["Réseau urbain Möbius"],"lt":1,"dept":"16"}},{"type":"Feature","geometry":{"type":"Point","coordinates":[0.08541,45.65199]},"properties":{"nom":"Linars les Groies","ag":["Réseau urbain Möbius"],"lt":1,"dept":"16"}},{"type":"Feature","geometry":{"type":"Point","coordinates":[0.06521,45.64581]},"properties":{"nom":"Linars Libourdeau","ag":["Réseau urbain Möbius"],"lt":1,"dept":"16"}},{"type":"Feature","geometry":{"type":"Point","coordinates":[0.15396,45.63313]},"properties":{"nom":"LISA","ag":["Réseau urbain Möbius"],"lt":1,"dept":"16"}},{"type":"Feature","geometry":{"type":"Point","coordinates":[0.16957,45.64151]},"properties":{"nom":"Loire","ag":["Réseau urbain Möbius"],"lt":1,"dept":"16"}},{"type":"Feature","geometry":{"type":"Point","coordinates":[0.22221,45.6608]},"properties":{"nom":"Longiesse","ag":["Réseau urbain Möbius"],"lt":1,"dept":"16"}},{"type":"Feature","geometry":{"type":"Point","coordinates":[0.08711,45.65912]},"properties":{"nom":"Lotissement Bellevue","ag":["Réseau urbain Möbius"],"lt":1,"dept":"16"}},{"type":"Feature","geometry":{"type":"Point","coordinates":[0.15465,45.64917]},"properties":{"nom":"Louvel","ag":["Réseau urbain Möbius"],"lt":1,"dept":"16"}},{"type":"Feature","geometry":{"type":"Point","coordinates":[0.17218,45.65797]},"properties":{"nom":"Madeleine","ag":["Réseau urbain Möbius"],"lt":1,"dept":"16"}},{"type":"Feature","geometry":{"type":"Point","coordinates":[0.23667,45.66567]},"properties":{"nom":"Magnac Mairie","ag":["Réseau urbain Möbius"],"lt":1,"dept":"16"}},{"type":"Feature","geometry":{"type":"Point","coordinates":[0.24551,45.65035]},"properties":{"nom":"Magnac Place Tamisier","ag":["Réseau urbain Möbius"],"lt":1,"dept":"16"}},{"type":"Feature","geometry":{"type":"Point","coordinates":[0.03425,45.6563]},"properties":{"nom":"Maillou","ag":["Réseau urbain Möbius"],"lt":1,"dept":"16"}},{"type":"Feature","geometry":{"type":"Point","coordinates":[0.14385,45.68619]},"properties":{"nom":"Maine Bréchet","ag":["Réseau urbain Möbius"],"lt":1,"dept":"16"}},{"type":"Feature","geometry":{"type":"Point","coordinates":[0.35498,45.59384]},"properties":{"nom":"Maine Gaubrun","ag":["Réseau urbain Möbius"],"lt":1,"dept":"16"}},{"type":"Feature","geometry":{"type":"Point","coordinates":[0.25694,45.73877]},"properties":{"nom":"Maine Joizeau","ag":["Réseau urbain Möbius"],"lt":1,"dept":"16"}},{"type":"Feature","geometry":{"type":"Point","coordinates":[0.26887,45.68867]},"properties":{"nom":"Maine Quérand","ag":["Réseau urbain Möbius"],"lt":1,"dept":"16"}},{"type":"Feature","geometry":{"type":"Point","coordinates":[0.13914,45.65075]},"properties":{"nom":"Maintenon","ag":["Réseau urbain Möbius"],"lt":1,"dept":"16"}},{"type":"Feature","geometry":{"type":"Point","coordinates":[0.1689,45.65537]},"properties":{"nom":"Mairat","ag":["Réseau urbain Möbius"],"lt":1,"dept":"16"}},{"type":"Feature","geometry":{"type":"Point","coordinates":[0.04844,45.71178]},"properties":{"nom":"Mairie Asnières","ag":["Réseau urbain Möbius"],"lt":1,"dept":"16"}},{"type":"Feature","geometry":{"type":"Point","coordinates":[0.31921,45.61661]},"properties":{"nom":"Mairie Bouëx","ag":["Réseau urbain Möbius"],"lt":1,"dept":"16"}},{"type":"Feature","geometry":{"type":"Point","coordinates":[0.13727,45.71137]},"properties":{"nom":"Mairie de Balzac","ag":["Réseau urbain Möbius"],"lt":1,"dept":"16"}},{"type":"Feature","geometry":{"type":"Point","coordinates":[0.16577,45.66724]},"properties":{"nom":"Mairie du Gond","ag":["Réseau urbain Möbius"],"lt":1,"dept":"16"}},{"type":"Feature","geometry":{"type":"Point","coordinates":[0.25749,45.785]},"properties":{"nom":"Mairie Jauldes","ag":["Réseau urbain Möbius"],"lt":1,"dept":"16"}},{"type":"Feature","geometry":{"type":"Point","coordinates":[0.10122,45.60888]},"properties":{"nom":"Mairie la Couronne","ag":["Réseau urbain Möbius"],"lt":1,"dept":"16"}},{"type":"Feature","geometry":{"type":"Point","coordinates":[0.07639,45.7461]},"properties":{"nom":"Mairie Marsac","ag":["Réseau urbain Möbius"],"lt":1,"dept":"16"}},{"type":"Feature","geometry":{"type":"Point","coordinates":[0.27293,45.68013]},"properties":{"nom":"Mairie Mornac","ag":["Réseau urbain Möbius"],"lt":1,"dept":"16"}},{"type":"Feature","geometry":{"type":"Point","coordinates":[0.12357,45.55373]},"properties":{"nom":"Mairie Mouthiers","ag":["Réseau urbain Möbius"],"lt":1,"dept":"16"}},{"type":"Feature","geometry":{"type":"Point","coordinates":[0.32176,45.59835]},"properties":{"nom":"Mairie Sers","ag":["Réseau urbain Möbius"],"lt":1,"dept":"16"}},{"type":"Feature","geometry":{"type":"Point","coordinates":[0.00943,45.61526]},"properties":{"nom":"Mairie Sireuil","ag":["Réseau urbain Möbius"],"lt":1,"dept":"16"}},{"type":"Feature","geometry":{"type":"Point","coordinates":[0.19372,45.64144]},"properties":{"nom":"Mairie Soyaux","ag":["Réseau urbain Möbius"],"lt":1,"dept":"16"}},{"type":"Feature","geometry":{"type":"Point","coordinates":[0.04376,45.66073]},"properties":{"nom":"Mairie St Saturnin","ag":["Réseau urbain Möbius"],"lt":1,"dept":"16"}},{"type":"Feature","geometry":{"type":"Point","coordinates":[0.12757,45.67503]},"properties":{"nom":"Mairie St Yrieix","ag":["Réseau urbain Möbius"],"lt":1,"dept":"16"}},{"type":"Feature","geometry":{"type":"Point","coordinates":[0.25868,45.66072]},"properties":{"nom":"Mairie Touvre","ag":["Réseau urbain Möbius"],"lt":1,"dept":"16"}},{"type":"Feature","geometry":{"type":"Point","coordinates":[0.05343,45.64307]},"properties":{"nom":"Mairie Trois Palis","ag":["Réseau urbain Möbius"],"lt":1,"dept":"16"}},{"type":"Feature","geometry":{"type":"Point","coordinates":[0.12104,45.71994]},"properties":{"nom":"Mairie Vindelle","ag":["Réseau urbain Möbius"],"lt":1,"dept":"16"}},{"type":"Feature","geometry":{"type":"Point","coordinates":[0.12022,45.51134]},"properties":{"nom":"Mairie Voulgézac","ag":["Réseau urbain Möbius"],"lt":1,"dept":"16"}},{"type":"Feature","geometry":{"type":"Point","coordinates":[0.20442,45.6661]},"properties":{"nom":"Maison d'Ardoise","ag":["Réseau urbain Möbius"],"lt":1,"dept":"16"}},{"type":"Feature","geometry":{"type":"Point","coordinates":[0.23723,45.58041]},"properties":{"nom":"Maisons Blanches","ag":["Réseau urbain Möbius"],"lt":1,"dept":"16"}},{"type":"Feature","geometry":{"type":"Point","coordinates":[0.19018,45.64227]},"properties":{"nom":"Marché Petit","ag":["Réseau urbain Möbius"],"lt":1,"dept":"16"}},{"type":"Feature","geometry":{"type":"Point","coordinates":[0.12723,45.64334]},"properties":{"nom":"Marne","ag":["Réseau urbain Möbius"],"lt":1,"dept":"16"}},{"type":"Feature","geometry":{"type":"Point","coordinates":[0.06413,45.66275]},"properties":{"nom":"Marteau","ag":["Réseau urbain Möbius"],"lt":1,"dept":"16"}},{"type":"Feature","geometry":{"type":"Point","coordinates":[0.20113,45.71576]},"properties":{"nom":"Martin Pêcheur","ag":["Réseau urbain Möbius"],"lt":1,"dept":"16"}},{"type":"Feature","geometry":{"type":"Point","coordinates":[0.10571,45.63953]},"properties":{"nom":"Martinet","ag":["Réseau urbain Möbius"],"lt":1,"dept":"16"}},{"type":"Feature","geometry":{"type":"Point","coordinates":[0.24331,45.68689]},"properties":{"nom":"Maréchal Foch","ag":["Réseau urbain Möbius"],"lt":1,"dept":"16"}},{"type":"Feature","geometry":{"type":"Point","coordinates":[0.17433,45.66136]},"properties":{"nom":"Maréchal Juin","ag":["Réseau urbain Möbius"],"lt":1,"dept":"16"}},{"type":"Feature","geometry":{"type":"Point","coordinates":[0.17067,45.61916]},"properties":{"nom":"Mas de la Brande","ag":["Réseau urbain Möbius"],"lt":1,"dept":"16"}},{"type":"Feature","geometry":{"type":"Point","coordinates":[0.24295,45.66163]},"properties":{"nom":"Maumont","ag":["Réseau urbain Möbius"],"lt":1,"dept":"16"}},{"type":"Feature","geometry":{"type":"Point","coordinates":[0.148,45.66401]},"properties":{"nom":"Mauron","ag":["Réseau urbain Möbius"],"lt":1,"dept":"16"}},{"type":"Feature","geometry":{"type":"Point","coordinates":[0.15923,45.65213]},"properties":{"nom":"Mazagran","ag":["Réseau urbain Möbius"],"lt":1,"dept":"16"}},{"type":"Feature","geometry":{"type":"Point","coordinates":[0.16005,45.67883]},"properties":{"nom":"Mesnards","ag":["Réseau urbain Möbius"],"lt":1,"dept":"16"}},{"type":"Feature","geometry":{"type":"Point","coordinates":[0.39109,45.6109]},"properties":{"nom":"Mirande","ag":["Réseau urbain Möbius"],"lt":1,"dept":"16"}},{"type":"Feature","geometry":{"type":"Point","coordinates":[0.19956,45.6625]},"properties":{"nom":"Mitterrand","ag":["Réseau urbain Möbius"],"lt":1,"dept":"16"}},{"type":"Feature","geometry":{"type":"Point","coordinates":[0.2351,45.67767]},"properties":{"nom":"Mme Curie","ag":["Réseau urbain Möbius"],"lt":1,"dept":"16"}},{"type":"Feature","geometry":{"type":"Point","coordinates":[0.16048,45.632]},"properties":{"nom":"Monod","ag":["Réseau urbain Möbius"],"lt":1,"dept":"16"}},{"type":"Feature","geometry":{"type":"Point","coordinates":[0.2353,45.66094]},"properties":{"nom":"Monrigaud","ag":["Réseau urbain Möbius"],"lt":1,"dept":"16"}},{"type":"Feature","geometry":{"type":"Point","coordinates":[0.14118,45.64352]},"properties":{"nom":"Montaigne","ag":["Réseau urbain Möbius"],"lt":1,"dept":"16"}},{"type":"Feature","geometry":{"type":"Point","coordinates":[0.28672,45.67992]},"properties":{"nom":"Montignac","ag":["Réseau urbain Möbius"],"lt":1,"dept":"16"}},{"type":"Feature","geometry":{"type":"Point","coordinates":[0.22766,45.65931]},"properties":{"nom":"Monument","ag":["Réseau urbain Möbius"],"lt":1,"dept":"16"}},{"type":"Feature","geometry":{"type":"Point","coordinates":[0.30221,45.70197]},"properties":{"nom":"Mornac AFPA","ag":["Réseau urbain Möbius"],"lt":1,"dept":"16"}},{"type":"Feature","geometry":{"type":"Point","coordinates":[0.31529,45.65966]},"properties":{"nom":"Mornac les Grottes","ag":["Réseau urbain Möbius"],"lt":1,"dept":"16"}},{"type":"Feature","geometry":{"type":"Point","coordinates":[0.2713,45.69953]},"properties":{"nom":"Mornac Puy de Nanteuil","ag":["Réseau urbain Möbius"],"lt":1,"dept":"16"}},{"type":"Feature","geometry":{"type":"Point","coordinates":[0.30602,45.66508]},"properties":{"nom":"Mornac Quéroy","ag":["Réseau urbain Möbius"],"lt":1,"dept":"16"}},{"type":"Feature","geometry":{"type":"Point","coordinates":[0.31229,45.6626]},"properties":{"nom":"Mornac Ronzac","ag":["Réseau urbain Möbius"],"lt":1,"dept":"16"}},{"type":"Feature","geometry":{"type":"Point","coordinates":[0.13206,45.60557]},"properties":{"nom":"Mougnac","ag":["Réseau urbain Möbius"],"lt":1,"dept":"16"}},{"type":"Feature","geometry":{"type":"Point","coordinates":[0.14648,45.63073]},"properties":{"nom":"Moulin","ag":["Réseau urbain Möbius"],"lt":1,"dept":"16"}},{"type":"Feature","geometry":{"type":"Point","coordinates":[0.16498,45.63389]},"properties":{"nom":"Moulin de Grelet","ag":["Réseau urbain Möbius"],"lt":1,"dept":"16"}},{"type":"Feature","geometry":{"type":"Point","coordinates":[0.14253,45.64835]},"properties":{"nom":"Moulin des Dames","ag":["Réseau urbain Möbius"],"lt":1,"dept":"16"}},{"type":"Feature","geometry":{"type":"Point","coordinates":[0.18045,45.67785]},"properties":{"nom":"Moulin Neuf","ag":["Réseau urbain Möbius"],"lt":1,"dept":"16"}},{"type":"Feature","geometry":{"type":"Point","coordinates":[0.06293,45.67011]},"properties":{"nom":"Moulède","ag":["Réseau urbain Möbius"],"lt":1,"dept":"16"}},{"type":"Feature","geometry":{"type":"Point","coordinates":[0.14713,45.65731]},"properties":{"nom":"Mulac","ag":["Réseau urbain Möbius"],"lt":1,"dept":"16"}},{"type":"Feature","geometry":{"type":"Point","coordinates":[0.17447,45.67481]},"properties":{"nom":"Murailles","ag":["Réseau urbain Möbius"],"lt":1,"dept":"16"}},{"type":"Feature","geometry":{"type":"Point","coordinates":[0.18414,45.66122]},"properties":{"nom":"Mérigots","ag":["Réseau urbain Möbius"],"lt":1,"dept":"16"}},{"type":"Feature","geometry":{"type":"Point","coordinates":[0.08144,45.65087]},"properties":{"nom":"Métairies","ag":["Réseau urbain Möbius"],"lt":1,"dept":"16"}},{"type":"Feature","geometry":{"type":"Point","coordinates":[0.14291,45.68403]},"properties":{"nom":"Nautilis","ag":["Réseau urbain Möbius"],"lt":1,"dept":"16"}},{"type":"Feature","geometry":{"type":"Point","coordinates":[0.05573,45.62509]},"properties":{"nom":"Nersac Cité Chantemerle","ag":["Réseau urbain Möbius"],"lt":1,"dept":"16"}},{"type":"Feature","geometry":{"type":"Point","coordinates":[0.06294,45.63464]},"properties":{"nom":"Nersac Fleuranceau","ag":["Réseau urbain Möbius"],"lt":1,"dept":"16"}},{"type":"Feature","geometry":{"type":"Point","coordinates":[0.06226,45.62574]},"properties":{"nom":"Nersac les Epinettes","ag":["Réseau urbain Möbius"],"lt":1,"dept":"16"}},{"type":"Feature","geometry":{"type":"Point","coordinates":[0.05106,45.62567]},"properties":{"nom":"Nersac Mairie","ag":["Réseau urbain Möbius"],"lt":1,"dept":"16"}},{"type":"Feature","geometry":{"type":"Point","coordinates":[0.19441,45.63828]},"properties":{"nom":"Neruda","ag":["Réseau urbain Möbius"],"lt":1,"dept":"16"}},{"type":"Feature","geometry":{"type":"Point","coordinates":[0.21694,45.6762]},"properties":{"nom":"Oasis","ag":["Réseau urbain Möbius"],"lt":1,"dept":"16"}},{"type":"Feature","geometry":{"type":"Point","coordinates":[0.17536,45.65918]},"properties":{"nom":"Octroi","ag":["Réseau urbain Möbius"],"lt":1,"dept":"16"}},{"type":"Feature","geometry":{"type":"Point","coordinates":[0.10973,45.62313]},"properties":{"nom":"Oisellerie","ag":["Réseau urbain Möbius"],"lt":1,"dept":"16"}},{"type":"Feature","geometry":{"type":"Point","coordinates":[0.17007,45.64401]},"properties":{"nom":"Olry","ag":["Réseau urbain Möbius"],"lt":1,"dept":"16"}},{"type":"Feature","geometry":{"type":"Point","coordinates":[0.22,45.67701]},"properties":{"nom":"P.N. Ruelle","ag":["Réseau urbain Möbius"],"lt":1,"dept":"16"}},{"type":"Feature","geometry":{"type":"Point","coordinates":[0.13109,45.66891]},"properties":{"nom":"Pain Perdu","ag":["Réseau urbain Möbius"],"lt":1,"dept":"16"}},{"type":"Feature","geometry":{"type":"Point","coordinates":[0.15569,45.65144]},"properties":{"nom":"Palet","ag":["Réseau urbain Möbius"],"lt":1,"dept":"16"}},{"type":"Feature","geometry":{"type":"Point","coordinates":[0.08817,45.60683]},"properties":{"nom":"Papeterie","ag":["Réseau urbain Möbius"],"lt":1,"dept":"16"}},{"type":"Feature","geometry":{"type":"Point","coordinates":[0.16019,45.65419]},"properties":{"nom":"Papin","ag":["Réseau urbain Möbius"],"lt":1,"dept":"16"}},{"type":"Feature","geometry":{"type":"Point","coordinates":[0.09548,45.60641]},"properties":{"nom":"Parc","ag":["Réseau urbain Möbius"],"lt":1,"dept":"16"}},{"type":"Feature","geometry":{"type":"Point","coordinates":[0.20807,45.67092]},"properties":{"nom":"Parc Expo Carat","ag":["Réseau urbain Möbius"],"lt":1,"dept":"16"}},{"type":"Feature","geometry":{"type":"Point","coordinates":[0.12302,45.66636]},"properties":{"nom":"Passerelle","ag":["Réseau urbain Möbius"],"lt":1,"dept":"16"}},{"type":"Feature","geometry":{"type":"Point","coordinates":[0.11289,45.60661]},"properties":{"nom":"Perat","ag":["Réseau urbain Möbius"],"lt":1,"dept":"16"}},{"type":"Feature","geometry":{"type":"Point","coordinates":[0.17186,45.63552]},"properties":{"nom":"Petit Fresquet","ag":["Réseau urbain Möbius"],"lt":1,"dept":"16"}},{"type":"Feature","geometry":{"type":"Point","coordinates":[0.15337,45.60443]},"properties":{"nom":"Petit Giget","ag":["Réseau urbain Möbius"],"lt":1,"dept":"16"}},{"type":"Feature","geometry":{"type":"Point","coordinates":[0.11108,45.62075]},"properties":{"nom":"Petit Ménadeau","ag":["Réseau urbain Möbius"],"lt":1,"dept":"16"}},{"type":"Feature","geometry":{"type":"Point","coordinates":[0.07837,45.65867]},"properties":{"nom":"Petit Rouillac","ag":["Réseau urbain Möbius"],"lt":1,"dept":"16"}},{"type":"Feature","geometry":{"type":"Point","coordinates":[0.18882,45.57146]},"properties":{"nom":"Petite Andole","ag":["Réseau urbain Möbius"],"lt":1,"dept":"16"}},{"type":"Feature","geometry":{"type":"Point","coordinates":[0.09759,45.5915]},"properties":{"nom":"Petite Courade","ag":["Réseau urbain Möbius"],"lt":1,"dept":"16"}},{"type":"Feature","geometry":{"type":"Point","coordinates":[0.19064,45.71574]},"properties":{"nom":"Petits Ducs","ag":["Réseau urbain Möbius"],"lt":1,"dept":"16"}},{"type":"Feature","geometry":{"type":"Point","coordinates":[0.12698,45.569]},"properties":{"nom":"Peuplier Major","ag":["Réseau urbain Möbius"],"lt":1,"dept":"16"}},{"type":"Feature","geometry":{"type":"Point","coordinates":[0.17903,45.66003]},"properties":{"nom":"Peupliers","ag":["Réseau urbain Möbius"],"lt":1,"dept":"16"}},{"type":"Feature","geometry":{"type":"Point","coordinates":[0.10124,45.59575]},"properties":{"nom":"Picardie","ag":["Réseau urbain Möbius"],"lt":1,"dept":"16"}},{"type":"Feature","geometry":{"type":"Point","coordinates":[0.15574,45.63589]},"properties":{"nom":"Pierre Levée","ag":["Réseau urbain Möbius"],"lt":1,"dept":"16"}},{"type":"Feature","geometry":{"type":"Point","coordinates":[0.03726,45.63862]},"properties":{"nom":"Pierrières","ag":["Réseau urbain Möbius"],"lt":1,"dept":"16"}},{"type":"Feature","geometry":{"type":"Point","coordinates":[0.09146,45.6194]},"properties":{"nom":"Pinotière","ag":["Réseau urbain Möbius"],"lt":1,"dept":"16"}},{"type":"Feature","geometry":{"type":"Point","coordinates":[0.17188,45.66752]},"properties":{"nom":"Pisany","ag":["Réseau urbain Möbius"],"lt":1,"dept":"16"}},{"type":"Feature","geometry":{"type":"Point","coordinates":[0.11681,45.61883]},"properties":{"nom":"Place Breuty","ag":["Réseau urbain Möbius"],"lt":1,"dept":"16"}},{"type":"Feature","geometry":{"type":"Point","coordinates":[0.14536,45.71169]},"properties":{"nom":"Place de la Liberté","ag":["Réseau urbain Möbius"],"lt":1,"dept":"16"}},{"type":"Feature","geometry":{"type":"Point","coordinates":[0.12021,45.66778]},"properties":{"nom":"Place des Planes","ag":["Réseau urbain Möbius"],"lt":1,"dept":"16"}},{"type":"Feature","geometry":{"type":"Point","coordinates":[0.21383,45.56469]},"properties":{"nom":"Place Torsac","ag":["Réseau urbain Möbius"],"lt":1,"dept":"16"}},{"type":"Feature","geometry":{"type":"Point","coordinates":[0.09542,45.60135]},"properties":{"nom":"Plaine des Sports","ag":["Réseau urbain Möbius"],"lt":1,"dept":"16"}},{"type":"Feature","geometry":{"type":"Point","coordinates":[0.18729,45.63886]},"properties":{"nom":"Planchet","ag":["Réseau urbain Möbius"],"lt":1,"dept":"16"}},{"type":"Feature","geometry":{"type":"Point","coordinates":[0.06403,45.52649]},"properties":{"nom":"Plassac","ag":["Réseau urbain Möbius"],"lt":1,"dept":"16"}},{"type":"Feature","geometry":{"type":"Point","coordinates":[0.09744,45.6734]},"properties":{"nom":"Point de Vue","ag":["Réseau urbain Möbius"],"lt":1,"dept":"16"}},{"type":"Feature","geometry":{"type":"Point","coordinates":[0.06081,45.61954]},"properties":{"nom":"Pombreton","ag":["Réseau urbain Möbius"],"lt":1,"dept":"16"}},{"type":"Feature","geometry":{"type":"Point","coordinates":[-0.01895,45.57388]},"properties":{"nom":"Pondeville","ag":["Réseau urbain Möbius"],"lt":1,"dept":"16"}},