{"type":"FeatureCollection","features":[{"type":"Feature","geometry":{"type":"Point","coordinates":[-1.02055,45.9906]},"properties":{"nom":"Petit Loire","ag":["Réseau urbain R'Bus"],"lt":1,"dept":"17"}},{"type":"Feature","geometry":{"type":"Point","coordinates":[-0.90255,45.9472]},"properties":{"nom":"Saint Léonard","ag":["Réseau urbain R'Bus"],"lt":1,"dept":"17"}},{"type":"Feature","geometry":{"type":"Point","coordinates":[-1.06925,45.9736]},"properties":{"nom":"Soumard","ag":["Réseau urbain R'Bus"],"lt":1,"dept":"17"}},{"type":"Feature","geometry":{"type":"Point","coordinates":[-0.9299,45.9504]},"properties":{"nom":"TNY Fraternité","ag":["Réseau urbain R'Bus"],"lt":1,"dept":"17"}},{"type":"Feature","geometry":{"type":"Point","coordinates":[-1.0396,45.991]},"properties":{"nom":"Bois Brule","ag":["Réseau urbain R'Bus"],"lt":1,"dept":"17"}},{"type":"Feature","geometry":{"type":"Point","coordinates":[-1.08265,45.9889]},"properties":{"nom":"Stade","ag":["Réseau urbain R'Bus"],"lt":1,"dept":"17"}},{"type":"Feature","geometry":{"type":"Point","coordinates":[-1.0934,45.9885]},"properties":{"nom":"Mairie","ag":["Réseau urbain R'Bus"],"lt":1,"dept":"17"}},{"type":"Feature","geometry":{"type":"Point","coordinates":[-1.07615,45.9913]},"properties":{"nom":"Centre Commercial","ag":["Réseau urbain R'Bus"],"lt":1,"dept":"17"}},{"type":"Feature","geometry":{"type":"Point","coordinates":[-0.9864,45.9613]},"properties":{"nom":"Mairie","ag":["Réseau urbain R'Bus"],"lt":1,"dept":"17"}},{"type":"Feature","geometry":{"type":"Point","coordinates":[-0.95955,45.9654]},"properties":{"nom":"Béligon","ag":["Réseau urbain R'Bus"],"lt":1,"dept":"17"}},{"type":"Feature","geometry":{"type":"Point","coordinates":[-1.0806,45.9829]},"properties":{"nom":"Rigault de Genouilly","ag":["Réseau urbain R'Bus"],"lt":1,"dept":"17"}},{"type":"Feature","geometry":{"type":"Point","coordinates":[-1.01765,45.993]},"properties":{"nom":"La Michelière","ag":["Réseau urbain R'Bus"],"lt":1,"dept":"17"}},{"type":"Feature","geometry":{"type":"Point","coordinates":[-0.8783,45.9505]},"properties":{"nom":"Edouard Tarif","ag":["Réseau urbain R'Bus"],"lt":1,"dept":"17"}},{"type":"Feature","geometry":{"type":"Point","coordinates":[-0.98275,45.96965]},"properties":{"nom":"Route de La Rochelle","ag":["Réseau urbain R'Bus"],"lt":1,"dept":"17"}},{"type":"Feature","geometry":{"type":"Point","coordinates":[-0.89275,45.94945]},"properties":{"nom":"Rue des Érables","ag":["Réseau urbain R'Bus"],"lt":1,"dept":"17"}},{"type":"Feature","geometry":{"type":"Point","coordinates":[-1.00895,45.98535]},"properties":{"nom":"Golf","ag":["Réseau urbain R'Bus"],"lt":1,"dept":"17"}},{"type":"Feature","geometry":{"type":"Point","coordinates":[-0.90625,45.94715]},"properties":{"nom":"Avenue de Gaulle","ag":["Réseau urbain R'Bus"],"lt":1,"dept":"17"}},{"type":"Feature","geometry":{"type":"Point","coordinates":[-0.87915,45.94285]},"properties":{"nom":"Le Pas Lolet","ag":["Réseau urbain R'Bus"],"lt":1,"dept":"17"}},{"type":"Feature","geometry":{"type":"Point","coordinates":[-1.06845,45.9415]},"properties":{"nom":"Le Maréchat","ag":["Réseau urbain R'Bus"],"lt":1,"dept":"17"}},{"type":"Feature","geometry":{"type":"Point","coordinates":[-0.9141,45.94835]},"properties":{"nom":"Avenue d'Aunis","ag":["Réseau urbain R'Bus"],"lt":1,"dept":"17"}},{"type":"Feature","geometry":{"type":"Point","coordinates":[-0.98015,45.95855]},"properties":{"nom":"Brillouet","ag":["Réseau urbain R'Bus"],"lt":1,"dept":"17"}},{"type":"Feature","geometry":{"type":"Point","coordinates":[-0.88995,45.9422]},"properties":{"nom":"Quais","ag":["Réseau urbain R'Bus"],"lt":1,"dept":"17"}},{"type":"Feature","geometry":{"type":"Point","coordinates":[-1.09338,45.9906]},"properties":{"nom":"Gare Routière de Fouras","ag":["Réseau urbain R'Bus"],"lt":1,"dept":"17"}},{"type":"Feature","geometry":{"type":"Point","coordinates":[-0.8963,45.9517]},"properties":{"nom":"Varennes","ag":["Réseau urbain R'Bus"],"lt":1,"dept":"17"}},{"type":"Feature","geometry":{"type":"Point","coordinates":[-0.9652,45.937]},"properties":{"nom":"RFT Roy Bry","ag":["Réseau urbain R'Bus"],"lt":1,"dept":"17"}},{"type":"Feature","geometry":{"type":"Point","coordinates":[-0.87995,45.94805]},"properties":{"nom":"Fontsèche","ag":["Réseau urbain R'Bus"],"lt":1,"dept":"17"}},{"type":"Feature","geometry":{"type":"Point","coordinates":[-1.07335,45.9377]},"properties":{"nom":"Font Renaud","ag":["Réseau urbain R'Bus"],"lt":1,"dept":"17"}},{"type":"Feature","geometry":{"type":"Point","coordinates":[-0.8828,45.94395]},"properties":{"nom":"Rue du Parc","ag":["Réseau urbain R'Bus"],"lt":1,"dept":"17"}},{"type":"Feature","geometry":{"type":"Point","coordinates":[-0.8915,45.9461]},"properties":{"nom":"TNY Joliot Curie","ag":["Réseau urbain R'Bus"],"lt":1,"dept":"17"}},{"type":"Feature","geometry":{"type":"Point","coordinates":[-0.92305,45.9497]},"properties":{"nom":"Les Fontaines","ag":["Réseau urbain R'Bus"],"lt":1,"dept":"17"}},{"type":"Feature","geometry":{"type":"Point","coordinates":[-0.8838,45.93955]},"properties":{"nom":"Jardin des Capucins","ag":["Réseau urbain R'Bus"],"lt":1,"dept":"17"}},{"type":"Feature","geometry":{"type":"Point","coordinates":[-0.9388,45.95055]},"properties":{"nom":"Pont Rouge","ag":["Réseau urbain R'Bus"],"lt":1,"dept":"17"}},{"type":"Feature","geometry":{"type":"Point","coordinates":[-0.876,45.9503]},"properties":{"nom":"Les Fontenelles","ag":["Réseau urbain R'Bus"],"lt":1,"dept":"17"}},{"type":"Feature","geometry":{"type":"Point","coordinates":[-0.95755,45.9253]},"properties":{"nom":"Le Sphinx","ag":["Réseau urbain R'Bus"],"lt":1,"dept":"17"}},{"type":"Feature","geometry":{"type":"Point","coordinates":[-0.951,45.9262]},"properties":{"nom":"Parc des Fourriers","ag":["Réseau urbain R'Bus"],"lt":1,"dept":"17"}},{"type":"Feature","geometry":{"type":"Point","coordinates":[-0.9628,45.9665]},"properties":{"nom":"Hôpital","ag":["Réseau urbain R'Bus"],"lt":1,"dept":"17"}},{"type":"Feature","geometry":{"type":"Point","coordinates":[-0.96222,45.93058]},"properties":{"nom":"La Fayette","ag":["Réseau urbain R'Bus"],"lt":1,"dept":"17"}},{"type":"Feature","geometry":{"type":"Point","coordinates":[-0.95985,45.9294]},"properties":{"nom":"11 Novembre","ag":["Réseau urbain R'Bus"],"lt":1,"dept":"17"}},{"type":"Feature","geometry":{"type":"Point","coordinates":[-0.96586,45.93179]},"properties":{"nom":"RFT Avenue des Déportés","ag":["Réseau urbain R'Bus"],"lt":1,"dept":"17"}},{"type":"Feature","geometry":{"type":"Point","coordinates":[-0.96015,45.92487]},"properties":{"nom":"Centre Commercial","ag":["Réseau urbain R'Bus"],"lt":1,"dept":"17"}},{"type":"Feature","geometry":{"type":"Point","coordinates":[-1.04585,45.9838]},"properties":{"nom":"Les Deux Moulins","ag":["Réseau urbain R'Bus"],"lt":1,"dept":"17"}},{"type":"Feature","geometry":{"type":"Point","coordinates":[-1.09165,45.9838]},"properties":{"nom":"Plage Sud","ag":["Réseau urbain R'Bus"],"lt":1,"dept":"17"}},{"type":"Feature","geometry":{"type":"Point","coordinates":[-1.02685,45.99255]},"properties":{"nom":"Halte TER","ag":["Réseau urbain R'Bus"],"lt":1,"dept":"17"}},{"type":"Feature","geometry":{"type":"Point","coordinates":[-1.07435,45.98845]},"properties":{"nom":"Le Colombier","ag":["Réseau urbain R'Bus"],"lt":1,"dept":"17"}},{"type":"Feature","geometry":{"type":"Point","coordinates":[-1.08755,45.9854]},"properties":{"nom":"Brossolette","ag":["Réseau urbain R'Bus"],"lt":1,"dept":"17"}},{"type":"Feature","geometry":{"type":"Point","coordinates":[-1.034,45.98475]},"properties":{"nom":"Le Coteau","ag":["Réseau urbain R'Bus"],"lt":1,"dept":"17"}},{"type":"Feature","geometry":{"type":"Point","coordinates":[-1.0401,45.98125]},"properties":{"nom":"Bourg","ag":["Réseau urbain R'Bus"],"lt":1,"dept":"17"}},{"type":"Feature","geometry":{"type":"Point","coordinates":[-1.05335,45.98635]},"properties":{"nom":"Les Charmilles 2","ag":["Réseau urbain R'Bus"],"lt":1,"dept":"17"}},{"type":"Feature","geometry":{"type":"Point","coordinates":[-0.961,45.9872]},"properties":{"nom":"La Croix","ag":["Réseau urbain R'Bus"],"lt":1,"dept":"17"}},{"type":"Feature","geometry":{"type":"Point","coordinates":[-0.9729,45.9321]},"properties":{"nom":"Chante Alouette","ag":["Réseau urbain R'Bus"],"lt":1,"dept":"17"}},{"type":"Feature","geometry":{"type":"Point","coordinates":[-0.9789,45.94925]},"properties":{"nom":"La Mauratière","ag":["Réseau urbain R'Bus"],"lt":1,"dept":"17"}},{"type":"Feature","geometry":{"type":"Point","coordinates":[-0.95715,45.92945]},"properties":{"nom":"Fosse aux Mâts","ag":["Réseau urbain R'Bus"],"lt":1,"dept":"17"}},{"type":"Feature","geometry":{"type":"Point","coordinates":[-0.98165,45.9362]},"properties":{"nom":"Stade","ag":["Réseau urbain R'Bus"],"lt":1,"dept":"17"}},{"type":"Feature","geometry":{"type":"Point","coordinates":[-0.97325,45.94965]},"properties":{"nom":"Saint Exupéry / Merleau Ponty","ag":["Réseau urbain R'Bus"],"lt":1,"dept":"17"}},{"type":"Feature","geometry":{"type":"Point","coordinates":[-0.9839,45.93775]},"properties":{"nom":"École de Gendarmerie","ag":["Réseau urbain R'Bus"],"lt":1,"dept":"17"}},{"type":"Feature","geometry":{"type":"Point","coordinates":[-0.96905,45.93115]},"properties":{"nom":"Paul Morchain","ag":["Réseau urbain R'Bus"],"lt":1,"dept":"17"}},{"type":"Feature","geometry":{"type":"Point","coordinates":[-0.96045,45.93175]},"properties":{"nom":"Conservatoire","ag":["Réseau urbain R'Bus"],"lt":1,"dept":"17"}},{"type":"Feature","geometry":{"type":"Point","coordinates":[-0.9588,45.93455]},"properties":{"nom":"Palais des Congrès","ag":["Réseau urbain R'Bus"],"lt":1,"dept":"17"}},{"type":"Feature","geometry":{"type":"Point","coordinates":[-0.95805,45.94025]},"properties":{"nom":"Jardins de la Marine","ag":["Réseau urbain R'Bus"],"lt":1,"dept":"17"}},{"type":"Feature","geometry":{"type":"Point","coordinates":[-0.96,45.94265]},"properties":{"nom":"Maison du Curiste","ag":["Réseau urbain R'Bus"],"lt":1,"dept":"17"}},{"type":"Feature","geometry":{"type":"Point","coordinates":[-1.0768,45.99285]},"properties":{"nom":"Pierre Loti","ag":["Réseau urbain R'Bus"],"lt":1,"dept":"17"}},{"type":"Feature","geometry":{"type":"Point","coordinates":[-0.97685,45.94725]},"properties":{"nom":"Belle Judith","ag":["Réseau urbain R'Bus"],"lt":1,"dept":"17"}},{"type":"Feature","geometry":{"type":"Point","coordinates":[-0.9749,45.9485]},"properties":{"nom":"Mermoz","ag":["Réseau urbain R'Bus"],"lt":1,"dept":"17"}},{"type":"Feature","geometry":{"type":"Point","coordinates":[-0.9767,45.95358]},"properties":{"nom":"Maréchal Leclerc","ag":["Réseau urbain R'Bus"],"lt":1,"dept":"17"}},{"type":"Feature","geometry":{"type":"Point","coordinates":[-0.95815,45.9379]},"properties":{"nom":"Corderie Royale","ag":["Réseau urbain R'Bus"],"lt":1,"dept":"17"}},{"type":"Feature","geometry":{"type":"Point","coordinates":[-0.95885,45.98385]},"properties":{"nom":"Poste","ag":["Réseau urbain R'Bus"],"lt":1,"dept":"17"}},{"type":"Feature","geometry":{"type":"Point","coordinates":[-0.97565,45.9516]},"properties":{"nom":"Bois Bernard","ag":["Réseau urbain R'Bus"],"lt":1,"dept":"17"}},{"type":"Feature","geometry":{"type":"Point","coordinates":[-0.9891,45.9475]},"properties":{"nom":"Pêcheurs d'Islande","ag":["Réseau urbain R'Bus"],"lt":1,"dept":"17"}},{"type":"Feature","geometry":{"type":"Point","coordinates":[-0.95745,45.98075]},"properties":{"nom":"Église","ag":["Réseau urbain R'Bus"],"lt":1,"dept":"17"}},{"type":"Feature","geometry":{"type":"Point","coordinates":[-0.9855,45.9434]},"properties":{"nom":"Petit Marseille","ag":["Réseau urbain R'Bus"],"lt":1,"dept":"17"}},{"type":"Feature","geometry":{"type":"Point","coordinates":[-0.9597,45.91]},"properties":{"nom":"La Renaissance","ag":["Réseau urbain R'Bus"],"lt":1,"dept":"17"}},{"type":"Feature","geometry":{"type":"Point","coordinates":[-0.98375,45.94475]},"properties":{"nom":"Gallissonnière","ag":["Réseau urbain R'Bus"],"lt":1,"dept":"17"}},{"type":"Feature","geometry":{"type":"Point","coordinates":[-0.98455,45.94035]},"properties":{"nom":"Boulevard Buisson","ag":["Réseau urbain R'Bus"],"lt":1,"dept":"17"}},{"type":"Feature","geometry":{"type":"Point","coordinates":[-0.9846,45.94595]},"properties":{"nom":"Albert Bignon","ag":["Réseau urbain R'Bus"],"lt":1,"dept":"17"}},{"type":"Feature","geometry":{"type":"Point","coordinates":[-0.9742,45.94155]},"properties":{"nom":"Anatole France","ag":["Réseau urbain R'Bus"],"lt":1,"dept":"17"}},{"type":"Feature","geometry":{"type":"Point","coordinates":[-0.9696,45.9395]},"properties":{"nom":"Champlain","ag":["Réseau urbain R'Bus"],"lt":1,"dept":"17"}},{"type":"Feature","geometry":{"type":"Point","coordinates":[-0.9775,45.9399]},"properties":{"nom":"Piscine","ag":["Réseau urbain R'Bus"],"lt":1,"dept":"17"}},{"type":"Feature","geometry":{"type":"Point","coordinates":[-0.9823,45.94175]},"properties":{"nom":"Hebert","ag":["Réseau urbain R'Bus"],"lt":1,"dept":"17"}},{"type":"Feature","geometry":{"type":"Point","coordinates":[-0.97975,45.91155]},"properties":{"nom":"La Noraudière","ag":["Réseau urbain R'Bus"],"lt":1,"dept":"17"}},{"type":"Feature","geometry":{"type":"Point","coordinates":[-0.9656,45.94005]},"properties":{"nom":"Denfert-Rochereau","ag":["Réseau urbain R'Bus"],"lt":1,"dept":"17"}},{"type":"Feature","geometry":{"type":"Point","coordinates":[-1.051,45.9359]},"properties":{"nom":"Mairie","ag":["Réseau urbain R'Bus"],"lt":1,"dept":"17"}},{"type":"Feature","geometry":{"type":"Point","coordinates":[-0.96735,45.94935]},"properties":{"nom":"Guérineau","ag":["Réseau urbain R'Bus"],"lt":1,"dept":"17"}},{"type":"Feature","geometry":{"type":"Point","coordinates":[-1.0186,45.9264]},"properties":{"nom":"Les Lauriers","ag":["Réseau urbain R'Bus"],"lt":1,"dept":"17"}},{"type":"Feature","geometry":{"type":"Point","coordinates":[-0.96855,45.95825]},"properties":{"nom":"La Forêt","ag":["Réseau urbain R'Bus"],"lt":1,"dept":"17"}},{"type":"Feature","geometry":{"type":"Point","coordinates":[-1.0167,45.9224]},"properties":{"nom":"Chatelet","ag":["Réseau urbain R'Bus"],"lt":1,"dept":"17"}},{"type":"Feature","geometry":{"type":"Point","coordinates":[-0.9625,45.9467]},"properties":{"nom":"Gare SNCF","ag":["Réseau urbain R'Bus"],"lt":1,"dept":"17"}},{"type":"Feature","geometry":{"type":"Point","coordinates":[-1.00965,45.92615]},"properties":{"nom":"Église","ag":["Réseau urbain R'Bus"],"lt":1,"dept":"17"}},{"type":"Feature","geometry":{"type":"Point","coordinates":[-0.96515,45.95855]},"properties":{"nom":"AFPA","ag":["Réseau urbain R'Bus"],"lt":1,"dept":"17"}},{"type":"Feature","geometry":{"type":"Point","coordinates":[-1.00485,45.9235]},"properties":{"nom":"Jean Moulin","ag":["Réseau urbain R'Bus"],"lt":1,"dept":"17"}},{"type":"Feature","geometry":{"type":"Point","coordinates":[-0.9608,45.95865]},"properties":{"nom":"Bernadotte","ag":["Réseau urbain R'Bus"],"lt":1,"dept":"17"}},{"type":"Feature","geometry":{"type":"Point","coordinates":[-1.04275,45.93285]},"properties":{"nom":"La Source","ag":["Réseau urbain R'Bus"],"lt":1,"dept":"17"}},{"type":"Feature","geometry":{"type":"Point","coordinates":[-0.9921,45.9491]},"properties":{"nom":"Hendaye","ag":["Réseau urbain R'Bus"],"lt":1,"dept":"17"}},{"type":"Feature","geometry":{"type":"Point","coordinates":[-0.9524,45.9556]},"properties":{"nom":"La Vacherie","ag":["Réseau urbain R'Bus"],"lt":1,"dept":"17"}},{"type":"Feature","geometry":{"type":"Point","coordinates":[-0.9767,45.9423]},"properties":{"nom":"Baril","ag":["Réseau urbain R'Bus"],"lt":1,"dept":"17"}},{"type":"Feature","geometry":{"type":"Point","coordinates":[-0.9482,45.95465]},"properties":{"nom":"Pont Neuf","ag":["Réseau urbain R'Bus"],"lt":1,"dept":"17"}},{"type":"Feature","geometry":{"type":"Point","coordinates":[-0.97157,45.95229]},"properties":{"nom":"RFT Merleau / Grimaux","ag":["Réseau urbain R'Bus"],"lt":1,"dept":"17"}},{"type":"Feature","geometry":{"type":"Point","coordinates":[-0.96216,45.94237]},"properties":{"nom":"RFT Thermes","ag":["Réseau urbain R'Bus"],"lt":1,"dept":"17"}},{"type":"Feature","geometry":{"type":"Point","coordinates":[-0.95225,45.89825]},"properties":{"nom":"Mairie","ag":["Réseau urbain R'Bus"],"lt":1,"dept":"17"}},{"type":"Feature","geometry":{"type":"Point","coordinates":[-0.94605,45.9517]},"properties":{"nom":"Libération","ag":["Réseau urbain R'Bus"],"lt":1,"dept":"17"}},{"type":"Feature","geometry":{"type":"Point","coordinates":[-0.9597,45.9053]},"properties":{"nom":"Maison Blanche","ag":["Réseau urbain R'Bus"],"lt":1,"dept":"17"}},{"type":"Feature","geometry":{"type":"Point","coordinates":[-0.9721,45.9544]},"properties":{"nom":"Casse aux Prêtres","ag":["Réseau urbain R'Bus"],"lt":1,"dept":"17"}},{"type":"Feature","geometry":{"type":"Point","coordinates":[-0.95805,45.8988]},"properties":{"nom":"Les Castors","ag":["Réseau urbain R'Bus"],"lt":1,"dept":"17"}},{"type":"Feature","geometry":{"type":"Point","coordinates":[-0.9693,45.9573]},"properties":{"nom":"8 Mai 1945","ag":["Réseau urbain R'Bus"],"lt":1,"dept":"17"}},{"type":"Feature","geometry":{"type":"Point","coordinates":[-0.9754,45.8956]},"properties":{"nom":"BA 721","ag":["Réseau urbain R'Bus"],"lt":1,"dept":"17"}},{"type":"Feature","geometry":{"type":"Point","coordinates":[-0.9556,45.902]},"properties":{"nom":"La Tourasse","ag":["Réseau urbain R'Bus"],"lt":1,"dept":"17"}},{"type":"Feature","geometry":{"type":"Point","coordinates":[-0.9625,45.9042]},"properties":{"nom":"La Pimale","ag":["Réseau urbain R'Bus"],"lt":1,"dept":"17"}},{"type":"Feature","geometry":{"type":"Point","coordinates":[-0.96187,45.87027]},"properties":{"nom":"Jean Monnet","ag":["Réseau urbain R'Bus"],"lt":1,"dept":"17"}},{"type":"Feature","geometry":{"type":"Point","coordinates":[-0.9499,45.90035]},"properties":{"nom":"Les Ouches","ag":["Réseau urbain R'Bus"],"lt":1,"dept":"17"}},{"type":"Feature","geometry":{"type":"Point","coordinates":[-0.95205,45.909]},"properties":{"nom":"Route de Monthérault","ag":["Réseau urbain R'Bus"],"lt":1,"dept":"17"}},{"type":"Feature","geometry":{"type":"Point","coordinates":[-0.9606,45.8669]},"properties":{"nom":"Les Cordries","ag":["Réseau urbain R'Bus"],"lt":1,"dept":"17"}},{"type":"Feature","geometry":{"type":"Point","coordinates":[-0.96137,45.87257]},"properties":{"nom":"La Bridoire","ag":["Réseau urbain R'Bus"],"lt":1,"dept":"17"}},{"type":"Feature","geometry":{"type":"Point","coordinates":[-0.9822,45.94745]},"properties":{"nom":"Acadiens","ag":["Réseau urbain R'Bus"],"lt":1,"dept":"17"}},{"type":"Feature","geometry":{"type":"Point","coordinates":[-0.97735,45.93405]},"properties":{"nom":"Ledru Rollin","ag":["Réseau urbain R'Bus"],"lt":1,"dept":"17"}},{"type":"Feature","geometry":{"type":"Point","coordinates":[-0.972,45.9544]},"properties":{"nom":"Casse aux Prêtres","ag":["Réseau urbain R'Bus"],"lt":0,"dept":"17"}},{"type":"Feature","geometry":{"type":"Point","coordinates":[-0.975,45.9485]},"properties":{"nom":"Mermoz","ag":["Réseau urbain R'Bus"],"lt":0,"dept":"17"}},{"type":"Feature","geometry":{"type":"Point","coordinates":[-0.9768,45.9534]},"properties":{"nom":"Maréchal Leclerc Rochefort","ag":["Réseau urbain R'Bus"],"lt":0,"dept":"17"}},{"type":"Feature","geometry":{"type":"Point","coordinates":[-0.9766,45.9538]},"properties":{"nom":"Maréchal Leclerc Rochefort","ag":["Réseau urbain R'Bus"],"lt":0,"dept":"17"}},{"type":"Feature","geometry":{"type":"Point","coordinates":[-0.9769,45.9534]},"properties":{"nom":"Maréchal Leclerc Rochefort","ag":["Réseau urbain R'Bus"],"lt":0,"dept":"17"}},{"type":"Feature","geometry":{"type":"Point","coordinates":[-1.0935,45.9886]},"properties":{"nom":"Mairie Fouras","ag":["Réseau urbain R'Bus"],"lt":0,"dept":"17"}},{"type":"Feature","geometry":{"type":"Point","coordinates":[-0.96,45.9427]},"properties":{"nom":"Maison du Curiste","ag":["Réseau urbain R'Bus"],"lt":0,"dept":"17"}},{"type":"Feature","geometry":{"type":"Point","coordinates":[-1.0933,45.9884]},"properties":{"nom":"Mairie Fouras","ag":["Réseau urbain R'Bus"],"lt":0,"dept":"17"}},{"type":"Feature","geometry":{"type":"Point","coordinates":[-0.9769,45.9472]},"properties":{"nom":"Belle Judith","ag":["Réseau urbain R'Bus"],"lt":0,"dept":"17"}},{"type":"Feature","geometry":{"type":"Point","coordinates":[-0.9768,45.9473]},"properties":{"nom":"Belle Judith","ag":["Réseau urbain R'Bus"],"lt":0,"dept":"17"}},{"type":"Feature","geometry":{"type":"Point","coordinates":[-0.9596,45.9656]},"properties":{"nom":"Béligon","ag":["Réseau urbain R'Bus"],"lt":0,"dept":"17"}},{"type":"Feature","geometry":{"type":"Point","coordinates":[-0.9748,45.9485]},"properties":{"nom":"Mermoz","ag":["Réseau urbain R'Bus"],"lt":0,"dept":"17"}},{"type":"Feature","geometry":{"type":"Point","coordinates":[-0.9595,45.9652]},"properties":{"nom":"Béligon","ag":["Réseau urbain R'Bus"],"lt":0,"dept":"17"}},{"type":"Feature","geometry":{"type":"Point","coordinates":[-1.0826,45.989]},"properties":{"nom":"Stade Fouras","ag":["Réseau urbain R'Bus"],"lt":0,"dept":"17"}},{"type":"Feature","geometry":{"type":"Point","coordinates":[-1.0827,45.9888]},"properties":{"nom":"Stade Fouras","ag":["Réseau urbain R'Bus"],"lt":0,"dept":"17"}},{"type":"Feature","geometry":{"type":"Point","coordinates":[-0.9581,45.9402]},"properties":{"nom":"Jardins de la Marine","ag":["Réseau urbain R'Bus"],"lt":0,"dept":"17"}},{"type":"Feature","geometry":{"type":"Point","coordinates":[-0.96,45.9426]},"properties":{"nom":"Maison du Curiste","ag":["Réseau urbain R'Bus"],"lt":0,"dept":"17"}},{"type":"Feature","geometry":{"type":"Point","coordinates":[-1.0916,45.9838]},"properties":{"nom":"Plage Sud","ag":["Réseau urbain R'Bus"],"lt":0,"dept":"17"}},{"type":"Feature","geometry":{"type":"Point","coordinates":[-1.0917,45.9838]},"properties":{"nom":"Plage Sud","ag":["Réseau urbain R'Bus"],"lt":0,"dept":"17"}},{"type":"Feature","geometry":{"type":"Point","coordinates":[-1.0534,45.9863]},"properties":{"nom":"Les Charmilles 2","ag":["Réseau urbain R'Bus"],"lt":0,"dept":"17"}},{"type":"Feature","geometry":{"type":"Point","coordinates":[-1.0533,45.9864]},"properties":{"nom":"Les Charmilles 2","ag":["Réseau urbain R'Bus"],"lt":0,"dept":"17"}},{"type":"Feature","geometry":{"type":"Point","coordinates":[-1.0763,45.9907]},"properties":{"nom":"Centre Commercial Fouras","ag":["Réseau urbain R'Bus"],"lt":0,"dept":"17"}},{"type":"Feature","geometry":{"type":"Point","coordinates":[-1.0455,45.9836]},"properties":{"nom":"Les Deux Moulins St Laurent","ag":["Réseau urbain R'Bus"],"lt":0,"dept":"17"}},{"type":"Feature","geometry":{"type":"Point","coordinates":[-1.0462,45.984]},"properties":{"nom":"Les Deux Moulins St Laurent","ag":["Réseau urbain R'Bus"],"lt":0,"dept":"17"}},{"type":"Feature","geometry":{"type":"Point","coordinates":[-1.0769,45.9929]},"properties":{"nom":"Pierre Loti","ag":["Réseau urbain R'Bus"],"lt":0,"dept":"17"}},{"type":"Feature","geometry":{"type":"Point","coordinates":[-1.0767,45.9928]},"properties":{"nom":"Pierre Loti","ag":["Réseau urbain R'Bus"],"lt":0,"dept":"17"}},{"type":"Feature","geometry":{"type":"Point","coordinates":[-1.04,45.9813]},"properties":{"nom":"Bourg St Laurent","ag":["Réseau urbain R'Bus"],"lt":0,"dept":"17"}},{"type":"Feature","geometry":{"type":"Point","coordinates":[-1.0402,45.9812]},"properties":{"nom":"Bourg St Laurent","ag":["Réseau urbain R'Bus"],"lt":0,"dept":"17"}},{"type":"Feature","geometry":{"type":"Point","coordinates":[-1.0336,45.9854]},"properties":{"nom":"Le Coteau","ag":["Réseau urbain R'Bus"],"lt":0,"dept":"17"}},{"type":"Feature","geometry":{"type":"Point","coordinates":[-1.0876,45.9854]},"properties":{"nom":"Brossolette","ag":["Réseau urbain R'Bus"],"lt":0,"dept":"17"}},{"type":"Feature","geometry":{"type":"Point","coordinates":[-1.0875,45.9854]},"properties":{"nom":"Brossolette","ag":["Réseau urbain R'Bus"],"lt":0,"dept":"17"}},{"type":"Feature","geometry":{"type":"Point","coordinates":[-1.0344,45.9841]},"properties":{"nom":"Le Coteau","ag":["Réseau urbain R'Bus"],"lt":0,"dept":"17"}},{"type":"Feature","geometry":{"type":"Point","coordinates":[-1.0273,45.9925]},"properties":{"nom":"Halte TER","ag":["Réseau urbain R'Bus"],"lt":0,"dept":"17"}},{"type":"Feature","geometry":{"type":"Point","coordinates":[-1.0264,45.9926]},"properties":{"nom":"Halte TER","ag":["Réseau urbain R'Bus"],"lt":0,"dept":"17"}},{"type":"Feature","geometry":{"type":"Point","coordinates":[-1.0745,45.9885]},"properties":{"nom":"Le Colombier","ag":["Réseau urbain R'Bus"],"lt":0,"dept":"17"}},{"type":"Feature","geometry":{"type":"Point","coordinates":[-1.0742,45.9884]},"properties":{"nom":"Le Colombier","ag":["Réseau urbain R'Bus"],"lt":0,"dept":"17"}},{"type":"Feature","geometry":{"type":"Point","coordinates":[-0.969,45.9312]},"properties":{"nom":"Paul Morchain","ag":["Réseau urbain R'Bus"],"lt":0,"dept":"17"}},{"type":"Feature","geometry":{"type":"Point","coordinates":[-0.9604,45.9317]},"properties":{"nom":"Conservatoire","ag":["Réseau urbain R'Bus"],"lt":0,"dept":"17"}},{"type":"Feature","geometry":{"type":"Point","coordinates":[-0.9605,45.9318]},"properties":{"nom":"Conservatoire","ag":["Réseau urbain R'Bus"],"lt":0,"dept":"17"}},{"type":"Feature","geometry":{"type":"Point","coordinates":[-0.9588,45.9347]},"properties":{"nom":"Palais des Congrès","ag":["Réseau urbain R'Bus"],"lt":0,"dept":"17"}},{"type":"Feature","geometry":{"type":"Point","coordinates":[-0.9732,45.9497]},"properties":{"nom":"Saint Exupéry / Merleau Ponty","ag":["Réseau urbain R'Bus"],"lt":0,"dept":"17"}},{"type":"Feature","geometry":{"type":"Point","coordinates":[-0.9838,45.9378]},"properties":{"nom":"École de Gendarmerie","ag":["Réseau urbain R'Bus"],"lt":0,"dept":"17"}},{"type":"Feature","geometry":{"type":"Point","coordinates":[-0.984,45.9377]},"properties":{"nom":"École de Gendarmerie","ag":["Réseau urbain R'Bus"],"lt":0,"dept":"17"}},{"type":"Feature","geometry":{"type":"Point","coordinates":[-0.9691,45.9311]},"properties":{"nom":"Paul Morchain","ag":["Réseau urbain R'Bus"],"lt":0,"dept":"17"}},{"type":"Feature","geometry":{"type":"Point","coordinates":[-0.9588,45.9344]},"properties":{"nom":"Palais des Congrès","ag":["Réseau urbain R'Bus"],"lt":0,"dept":"17"}},{"type":"Feature","geometry":{"type":"Point","coordinates":[-0.958,45.9403]},"properties":{"nom":"Jardins de la Marine","ag":["Réseau urbain R'Bus"],"lt":0,"dept":"17"}},{"type":"Feature","geometry":{"type":"Point","coordinates":[-0.9789,45.9492]},"properties":{"nom":"La Mauratière","ag":["Réseau urbain R'Bus"],"lt":0,"dept":"17"}},{"type":"Feature","geometry":{"type":"Point","coordinates":[-0.9789,45.9493]},"properties":{"nom":"La Mauratière","ag":["Réseau urbain R'Bus"],"lt":0,"dept":"17"}},{"type":"Feature","geometry":{"type":"Point","coordinates":[-0.9578,45.93]},"properties":{"nom":"Fosse aux Mâts","ag":["Réseau urbain R'Bus"],"lt":0,"dept":"17"}},{"type":"Feature","geometry":{"type":"Point","coordinates":[-0.9565,45.9289]},"properties":{"nom":"Fosse aux Mâts","ag":["Réseau urbain R'Bus"],"lt":0,"dept":"17"}},{"type":"Feature","geometry":{"type":"Point","coordinates":[-0.9776,45.9342]},"properties":{"nom":"Ledru Rollin","ag":["Réseau urbain R'Bus"],"lt":0,"dept":"17"}},{"type":"Feature","geometry":{"type":"Point","coordinates":[-0.9728,45.932]},"properties":{"nom":"Chante Alouette","ag":["Réseau urbain R'Bus"],"lt":0,"dept":"17"}},{"type":"Feature","geometry":{"type":"Point","coordinates":[-0.973,45.9322]},"properties":{"nom":"Chante Alouette","ag":["Réseau urbain R'Bus"],"lt":0,"dept":"17"}},{"type":"Feature","geometry":{"type":"Point","coordinates":[-0.9816,45.9361]},"properties":{"nom":"Stade Rochefort","ag":["Réseau urbain R'Bus"],"lt":0,"dept":"17"}},{"type":"Feature","geometry":{"type":"Point","coordinates":[-0.9817,45.9363]},"properties":{"nom":"Stade Rochefort","ag":["Réseau urbain R'Bus"],"lt":0,"dept":"17"}},{"type":"Feature","geometry":{"type":"Point","coordinates":[-0.9733,45.9496]},"properties":{"nom":"Saint Exupéry / Merleau Ponty","ag":["Réseau urbain R'Bus"],"lt":0,"dept":"17"}},{"type":"Feature","geometry":{"type":"Point","coordinates":[-0.9599,45.9249]},"properties":{"nom":"Centre Commercial Rochefort","ag":["Réseau urbain R'Bus"],"lt":0,"dept":"17"}},{"type":"Feature","geometry":{"type":"Point","coordinates":[-0.9517,45.9091]},"properties":{"nom":"Route de Monthérault","ag":["Réseau urbain R'Bus"],"lt":0,"dept":"17"}},{"type":"Feature","geometry":{"type":"Point","coordinates":[-0.9604,45.9249]},"properties":{"nom":"Centre Commercial Rochefort","ag":["Réseau urbain R'Bus"],"lt":0,"dept":"17"}},{"type":"Feature","geometry":{"type":"Point","coordinates":[-0.9524,45.9089]},"properties":{"nom":"Route de Monthérault","ag":["Réseau urbain R'Bus"],"lt":0,"dept":"17"}},{"type":"Feature","geometry":{"type":"Point","coordinates":[-0.9578,45.9253]},"properties":{"nom":"Le Sphinx","ag":["Réseau urbain R'Bus"],"lt":0,"dept":"17"}},{"type":"Feature","geometry":{"type":"Point","coordinates":[-0.9573,45.9253]},"properties":{"nom":"Le Sphinx","ag":["Réseau urbain R'Bus"],"lt":0,"dept":"17"}},{"type":"Feature","geometry":{"type":"Point","coordinates":[-0.9615,45.8726]},"properties":{"nom":"La Bridoire","ag":["Réseau urbain R'Bus"],"lt":0,"dept":"17"}},{"type":"Feature","geometry":{"type":"Point","coordinates":[-0.9597,45.9295]},"properties":{"nom":"11 Novembre Rochefort","ag":["Réseau urbain R'Bus"],"lt":0,"dept":"17"}},{"type":"Feature","geometry":{"type":"Point","coordinates":[-0.966,45.9318]},"properties":{"nom":"Avenue des Déportés","ag":["Réseau urbain R'Bus"],"lt":0,"dept":"17"}},{"type":"Feature","geometry":{"type":"Point","coordinates":[-0.95,45.9002]},"properties":{"nom":"Les Ouches","ag":["Réseau urbain R'Bus"],"lt":0,"dept":"17"}},{"type":"Feature","geometry":{"type":"Point","coordinates":[-0.9658,45.9319]},"properties":{"nom":"Avenue des Déportés","ag":["Réseau urbain R'Bus"],"lt":0,"dept":"17"}},{"type":"Feature","geometry":{"type":"Point","coordinates":[-0.9498,45.9005]},"properties":{"nom":"Les Ouches","ag":["Réseau urbain R'Bus"],"lt":0,"dept":"17"}},{"type":"Feature","geometry":{"type":"Point","coordinates":[-0.9615,45.8728]},"properties":{"nom":"La Bridoire","ag":["Réseau urbain R'Bus"],"lt":0,"dept":"17"}},{"type":"Feature","geometry":{"type":"Point","coordinates":[-0.9823,45.9474]},"properties":{"nom":"Acadiens","ag":["Réseau urbain R'Bus"],"lt":0,"dept":"17"}},{"type":"Feature","geometry":{"type":"Point","coordinates":[-0.9821,45.9475]},"properties":{"nom":"Acadiens","ag":["Réseau urbain R'Bus"],"lt":0,"dept":"17"}},{"type":"Feature","geometry":{"type":"Point","coordinates":[-0.9771,45.9339]},"properties":{"nom":"Ledru Rollin","ag":["Réseau urbain R'Bus"],"lt":0,"dept":"17"}},{"type":"Feature","geometry":{"type":"Point","coordinates":[-0.9576,45.8987]},"properties":{"nom":"Les Castors","ag":["Réseau urbain R'Bus"],"lt":0,"dept":"17"}},{"type":"Feature","geometry":{"type":"Point","coordinates":[-0.9559,45.902]},"properties":{"nom":"La Tourasse","ag":["Réseau urbain R'Bus"],"lt":0,"dept":"17"}},{"type":"Feature","geometry":{"type":"Point","coordinates":[-0.9553,45.902]},"properties":{"nom":"La Tourasse","ag":["Réseau urbain R'Bus"],"lt":0,"dept":"17"}},{"type":"Feature","geometry":{"type":"Point","coordinates":[-0.9585,45.8989]},"properties":{"nom":"Les Castors","ag":["Réseau urbain R'Bus"],"lt":0,"dept":"17"}},{"type":"Feature","geometry":{"type":"Point","coordinates":[-0.962,45.8703]},"properties":{"nom":"Jean Monnet","ag":["Réseau urbain R'Bus"],"lt":0,"dept":"17"}},{"type":"Feature","geometry":{"type":"Point","coordinates":[-0.9619,45.9307]},"properties":{"nom":"La Fayette","ag":["Réseau urbain R'Bus"],"lt":0,"dept":"17"}},{"type":"Feature","geometry":{"type":"Point","coordinates":[-0.9629,45.9041]},"properties":{"nom":"La Pimale","ag":["Réseau urbain R'Bus"],"lt":0,"dept":"17"}},{"type":"Feature","geometry":{"type":"Point","coordinates":[-0.9621,45.9043]},"properties":{"nom":"La Pimale","ag":["Réseau urbain R'Bus"],"lt":0,"dept":"17"}},{"type":"Feature","geometry":{"type":"Point","coordinates":[-0.9628,45.9306]},"properties":{"nom":"La Fayette Parking","ag":["Réseau urbain R'Bus"],"lt":0,"dept":"17"}},{"type":"Feature","geometry":{"type":"Point","coordinates":[-0.962,45.9308]},"properties":{"nom":"La Fayette","ag":["Réseau urbain R'Bus"],"lt":0,"dept":"17"}},{"type":"Feature","geometry":{"type":"Point","coordinates":[-0.9618,45.8702]},"properties":{"nom":"Jean Monnet Parking","ag":["Réseau urbain R'Bus"],"lt":0,"dept":"17"}},{"type":"Feature","geometry":{"type":"Point","coordinates":[-0.96,45.9293]},"properties":{"nom":"11 Novembre Rochefort","ag":["Réseau urbain R'Bus"],"lt":0,"dept":"17"}},{"type":"Feature","geometry":{"type":"Point","coordinates":[-0.9618,45.8703]},"properties":{"nom":"Jean Monnet","ag":["Réseau urbain R'Bus"],"lt":0,"dept":"17"}},{"type":"Feature","geometry":{"type":"Point","coordinates":[-1.0048,45.9234]},"properties":{"nom":"Jean Moulin","ag":["Réseau urbain R'Bus"],"lt":0,"dept":"17"}},{"type":"Feature","geometry":{"type":"Point","coordinates":[-0.9574,45.9806]},"properties":{"nom":"Église Breuil Magne","ag":["Réseau urbain R'Bus"],"lt":0,"dept":"17"}},{"type":"Feature","geometry":{"type":"Point","coordinates":[-1.0424,45.9327]},"properties":{"nom":"La Source","ag":["Réseau urbain R'Bus"],"lt":0,"dept":"17"}},{"type":"Feature","geometry":{"type":"Point","coordinates":[-1.0431,45.933]},"properties":{"nom":"La Source","ag":["Réseau urbain R'Bus"],"lt":0,"dept":"17"}},{"type":"Feature","geometry":{"type":"Point","coordinates":[-0.9575,45.9809]},"properties":{"nom":"Église Breuil Magne","ag":["Réseau urbain R'Bus"],"lt":0,"dept":"17"}},{"type":"Feature","geometry":{"type":"Point","coordinates":[-0.9598,45.9052]},"properties":{"nom":"Maison Blanche","ag":["Réseau urbain R'Bus"],"lt":0,"dept":"17"}},{"type":"Feature","geometry":{"type":"Point","coordinates":[-0.9596,45.9054]},"properties":{"nom":"Maison Blanche","ag":["Réseau urbain R'Bus"],"lt":0,"dept":"17"}},{"type":"Feature","geometry":{"type":"Point","coordinates":[-0.9521,45.8982]},"properties":{"nom":"Mairie Echillais","ag":["Réseau urbain R'Bus"],"lt":0,"dept":"17"}},{"type":"Feature","geometry":{"type":"Point","coordinates":[-0.9524,45.8983]},"properties":{"nom":"Mairie Echillais","ag":["Réseau urbain R'Bus"],"lt":0,"dept":"17"}},{"type":"Feature","geometry":{"type":"Point","coordinates":[-0.9694,45.9576]},"properties":{"nom":"8 Mai 1945","ag":["Réseau urbain R'Bus"],"lt":0,"dept":"17"}},{"type":"Feature","geometry":{"type":"Point","coordinates":[-0.9806,45.9117]},"properties":{"nom":"La Noraudière","ag":["Réseau urbain R'Bus"],"lt":0,"dept":"17"}},{"type":"Feature","geometry":{"type":"Point","coordinates":[-0.9692,45.957]},"properties":{"nom":"8 Mai 1945","ag":["Réseau urbain R'Bus"],"lt":0,"dept":"17"}},{"type":"Feature","geometry":{"type":"Point","coordinates":[-1.052,45.9359]},"properties":{"nom":"Mairie Saint Nazaire","ag":["Réseau urbain R'Bus"],"lt":0,"dept":"17"}},{"type":"Feature","geometry":{"type":"Point","coordinates":[-0.9589,45.9838]},"properties":{"nom":"Poste Breuil Magne","ag":["Réseau urbain R'Bus"],"lt":0,"dept":"17"}},{"type":"Feature","geometry":{"type":"Point","coordinates":[-1.05,45.9359]},"properties":{"nom":"Mairie Saint Nazaire","ag":["Réseau urbain R'Bus"],"lt":0,"dept":"17"}},{"type":"Feature","geometry":{"type":"Point","coordinates":[-0.9588,45.9839]},"properties":{"nom":"Poste Breuil Magne","ag":["Réseau urbain R'Bus"],"lt":0,"dept":"17"}},{"type":"Feature","geometry":{"type":"Point","coordinates":[-0.9722,45.9544]},"properties":{"nom":"Casse aux Prêtres","ag":["Réseau urbain R'Bus"],"lt":0,"dept":"17"}},{"type":"Feature","geometry":{"type":"Point","coordinates":[-1.0097,45.9262]},"properties":{"nom":"Église Soubise","ag":["Réseau urbain R'Bus"],"lt":0,"dept":"17"}},{"type":"Feature","geometry":{"type":"Point","coordinates":[-1.0096,45.9261]},"properties":{"nom":"Église Soubise","ag":["Réseau urbain R'Bus"],"lt":0,"dept":"17"}},{"type":"Feature","geometry":{"type":"Point","coordinates":[-1.0049,45.9236]},"properties":{"nom":"Jean Moulin","ag":["Réseau urbain R'Bus"],"lt":0,"dept":"17"}},{"type":"Feature","geometry":{"type":"Point","coordinates":[-1.0167,45.9223]},"properties":{"nom":"Chatelet","ag":["Réseau urbain R'Bus"],"lt":0,"dept":"17"}},{"type":"Feature","geometry":{"type":"Point","coordinates":[-1.0167,45.9225]},"properties":{"nom":"Chatelet","ag":["Réseau urbain R'Bus"],"lt":0,"dept":"17"}},{"type":"Feature","geometry":{"type":"Point","coordinates":[-0.9523,45.9556]},"properties":{"nom":"La Vacherie","ag":["Réseau urbain R'Bus"],"lt":0,"dept":"17"}},{"type":"Feature","geometry":{"type":"Point","coordinates":[-0.9482,45.9546]},"properties":{"nom":"Pont Neuf","ag":["Réseau urbain R'Bus"],"lt":0,"dept":"17"}},{"type":"Feature","geometry":{"type":"Point","coordinates":[-0.9482,45.9547]},"properties":{"nom":"Pont Neuf","ag":["Réseau urbain R'Bus"],"lt":0,"dept":"17"}},{"type":"Feature","geometry":{"type":"Point","coordinates":[-0.9626,45.9421]},"properties":{"nom":"Thermes","ag":["Réseau urbain R'Bus"],"lt":0,"dept":"17"}},{"type":"Feature","geometry":{"type":"Point","coordinates":[-0.9716,45.9523]},"properties":{"nom":"Merleau Grimaux","ag":["Réseau urbain R'Bus"],"lt":0,"dept":"17"}},{"type":"Feature","geometry":{"type":"Point","coordinates":[-0.9711,45.9526]},"properties":{"nom":"Merleau Grimaux","ag":["Réseau urbain R'Bus"],"lt":0,"dept":"17"}},{"type":"Feature","geometry":{"type":"Point","coordinates":[-0.961,45.9872]},"properties":{"nom":"La Croix Breuil Magne","ag":["Réseau urbain R'Bus"],"lt":0,"dept":"17"}},{"type":"Feature","geometry":{"type":"Point","coordinates":[-0.9789,45.9114]},"properties":{"nom":"La Noraudière","ag":["Réseau urbain R'Bus"],"lt":0,"dept":"17"}},{"type":"Feature","geometry":{"type":"Point","coordinates":[-0.9616,45.9427]},"properties":{"nom":"Thermes","ag":["Réseau urbain R'Bus"],"lt":0,"dept":"17"}},{"type":"Feature","geometry":{"type":"Point","coordinates":[-1.0679,45.9408]},"properties":{"nom":"Le Maréchat","ag":["Réseau urbain R'Bus"],"lt":0,"dept":"17"}},{"type":"Feature","geometry":{"type":"Point","coordinates":[-0.946,45.9518]},"properties":{"nom":"Libération Rochefort","ag":["Réseau urbain R'Bus"],"lt":0,"dept":"17"}},{"type":"Feature","geometry":{"type":"Point","coordinates":[-1.069,45.9422]},"properties":{"nom":"Le Maréchat","ag":["Réseau urbain R'Bus"],"lt":0,"dept":"17"}},{"type":"Feature","geometry":{"type":"Point","coordinates":[-0.9461,45.9516]},"properties":{"nom":"Libération Rochefort","ag":["Réseau urbain R'Bus"],"lt":0,"dept":"17"}},{"type":"Feature","geometry":{"type":"Point","coordinates":[-0.9719,45.9522]},"properties":{"nom":"Merleau Grimaux G.R.","ag":["Réseau urbain R'Bus"],"lt":0,"dept":"17"}},{"type":"Feature","geometry":{"type":"Point","coordinates":[-0.9673,45.9492]},"properties":{"nom":"Guérineau","ag":["Réseau urbain R'Bus"],"lt":0,"dept":"17"}},{"type":"Feature","geometry":{"type":"Point","coordinates":[-0.9674,45.9495]},"properties":{"nom":"Guérineau","ag":["Réseau urbain R'Bus"],"lt":0,"dept":"17"}},{"type":"Feature","geometry":{"type":"Point","coordinates":[-0.9802,45.9585]},"properties":{"nom":"Brillouet","ag":["Réseau urbain R'Bus"],"lt":0,"dept":"17"}},{"type":"Feature","geometry":{"type":"Point","coordinates":[-0.9686,45.9583]},"properties":{"nom":"La Forêt","ag":["Réseau urbain R'Bus"],"lt":0,"dept":"17"}},{"type":"Feature","geometry":{"type":"Point","coordinates":[-0.9609,45.9586]},"properties":{"nom":"Bernadotte","ag":["Réseau urbain R'Bus"],"lt":0,"dept":"17"}},{"type":"Feature","geometry":{"type":"Point","coordinates":[-1.0732,45.9376]},"properties":{"nom":"Font Renaud","ag":["Réseau urbain R'Bus"],"lt":0,"dept":"17"}},{"type":"Feature","geometry":{"type":"Point","coordinates":[-0.9607,45.9587]},"properties":{"nom":"Bernadotte","ag":["Réseau urbain R'Bus"],"lt":0,"dept":"17"}},{"type":"Feature","geometry":{"type":"Point","coordinates":[-1.0735,45.9378]},"properties":{"nom":"Font Renaud","ag":["Réseau urbain R'Bus"],"lt":0,"dept":"17"}},{"type":"Feature","geometry":{"type":"Point","coordinates":[-0.9525,45.9556]},"properties":{"nom":"La Vacherie","ag":["Réseau urbain R'Bus"],"lt":0,"dept":"17"}},{"type":"Feature","geometry":{"type":"Point","coordinates":[-0.9801,45.9586]},"properties":{"nom":"Brillouet","ag":["Réseau urbain R'Bus"],"lt":0,"dept":"17"}},{"type":"Feature","geometry":{"type":"Point","coordinates":[-0.9685,45.9582]},"properties":{"nom":"La Forêt","ag":["Réseau urbain R'Bus"],"lt":0,"dept":"17"}},{"type":"Feature","geometry":{"type":"Point","coordinates":[-1.0934,45.9906]},"properties":{"nom":"Gare Routière","ag":["Réseau urbain R'Bus"],"lt":0,"dept":"17"}},{"type":"Feature","geometry":{"type":"Point","coordinates":[-0.9654,45.9586]},"properties":{"nom":"AFPA","ag":["Réseau urbain R'Bus"],"lt":0,"dept":"17"}},{"type":"Feature","geometry":{"type":"Point","coordinates":[-0.9649,45.9585]},"properties":{"nom":"AFPA","ag":["Réseau urbain R'Bus"],"lt":0,"dept":"17"}},{"type":"Feature","geometry":{"type":"Point","coordinates":[-1.069,45.9742]},"properties":{"nom":"Soumard","ag":["Réseau urbain R'Bus"],"lt":0,"dept":"17"}},{"type":"Feature","geometry":{"type":"Point","coordinates":[-0.9238,45.9499]},"properties":{"nom":"Les Fontaines","ag":["Réseau urbain R'Bus"],"lt":0,"dept":"17"}},{"type":"Feature","geometry":{"type":"Point","coordinates":[-0.8838,45.9395]},"properties":{"nom":"Jardin des Capucins","ag":["Réseau urbain R'Bus"],"lt":0,"dept":"17"}},{"type":"Feature","geometry":{"type":"Point","coordinates":[-1.0091,45.9854]},"properties":{"nom":"Golf","ag":["Réseau urbain R'Bus"],"lt":0,"dept":"17"}},{"type":"Feature","geometry":{"type":"Point","coordinates":[-0.9386,45.9505]},"properties":{"nom":"Pont Rouge","ag":["Réseau urbain R'Bus"],"lt":0,"dept":"17"}},{"type":"Feature","geometry":{"type":"Point","coordinates":[-1.0206,45.9906]},"properties":{"nom":"Petit Loire","ag":["Réseau urbain R'Bus"],"lt":0,"dept":"17"}},{"type":"Feature","geometry":{"type":"Point","coordinates":[-0.9655,45.9401]},"properties":{"nom":"Denfert Rochereau","ag":["Réseau urbain R'Bus"],"lt":0,"dept":"17"}},{"type":"Feature","geometry":{"type":"Point","coordinates":[-1.0205,45.9906]},"properties":{"nom":"Petit Loire","ag":["Réseau urbain R'Bus"],"lt":0,"dept":"17"}},{"type":"Feature","geometry":{"type":"Point","coordinates":[-0.9657,45.94]},"properties":{"nom":"Denfert Rochereau","ag":["Réseau urbain R'Bus"],"lt":0,"dept":"17"}},{"type":"Feature","geometry":{"type":"Point","coordinates":[-1.0695,45.973]},"properties":{"nom":"Soumard","ag":["Réseau urbain R'Bus"],"lt":0,"dept":"17"}},{"type":"Feature","geometry":{"type":"Point","coordinates":[-1.0177,45.993]},"properties":{"nom":"La Michelière","ag":["Réseau urbain R'Bus"],"lt":0,"dept":"17"}},{"type":"Feature","geometry":{"type":"Point","coordinates":[-0.9822,45.9417]},"properties":{"nom":"Hebert","ag":["Réseau urbain R'Bus"],"lt":0,"dept":"17"}},{"type":"Feature","geometry":{"type":"Point","coordinates":[-0.8838,45.9396]},"properties":{"nom":"Jardin des Capucins","ag":["Réseau urbain R'Bus"],"lt":0,"dept":"17"}},{"type":"Feature","geometry":{"type":"Point","coordinates":[-0.9827,45.9697]},"properties":{"nom":"Route de La Rochelle","ag":["Réseau urbain R'Bus"],"lt":0,"dept":"17"}},{"type":"Feature","geometry":{"type":"Point","coordinates":[-0.9824,45.9418]},"properties":{"nom":"Hebert","ag":["Réseau urbain R'Bus"],"lt":0,"dept":"17"}},{"type":"Feature","geometry":{"type":"Point","coordinates":[-0.9145,45.9485]},"properties":{"nom":"Avenue d'Aunis","ag":["Réseau urbain R'Bus"],"lt":0,"dept":"17"}},{"type":"Feature","geometry":{"type":"Point","coordinates":[-0.9828,45.9696]},"properties":{"nom":"Route de La Rochelle","ag":["Réseau urbain R'Bus"],"lt":0,"dept":"17"}},{"type":"Feature","geometry":{"type":"Point","coordinates":[-0.9137,45.9482]},"properties":{"nom":"Avenue d'Aunis","ag":["Réseau urbain R'Bus"],"lt":0,"dept":"17"}},{"type":"Feature","geometry":{"type":"Point","coordinates":[-1.0088,45.9853]},"properties":{"nom":"Golf","ag":["Réseau urbain R'Bus"],"lt":0,"dept":"17"}},{"type":"Feature","geometry":{"type":"Point","coordinates":[-0.939,45.9506]},"properties":{"nom":"Pont Rouge","ag":["Réseau urbain R'Bus"],"lt":0,"dept":"17"}},{"type":"Feature","geometry":{"type":"Point","coordinates":[-0.9695,45.9394]},"properties":{"nom":"Champlain","ag":["Réseau urbain R'Bus"],"lt":0,"dept":"17"}},{"type":"Feature","geometry":{"type":"Point","coordinates":[-0.9223,45.9495]},"properties":{"nom":"Les Fontaines","ag":["Réseau urbain R'Bus"],"lt":0,"dept":"17"}},{"type":"Feature","geometry":{"type":"Point","coordinates":[-0.9697,45.9396]},"properties":{"nom":"Champlain","ag":["Réseau urbain R'Bus"],"lt":0,"dept":"17"}},{"type":"Feature","geometry":{"type":"Point","coordinates":[-1.0176,45.993]},"properties":{"nom":"La Michelière","ag":["Réseau urbain R'Bus"],"lt":0,"dept":"17"}},{"type":"Feature","geometry":{"type":"Point","coordinates":[-0.8916,45.9425]},"properties":{"nom":"Quais","ag":["Réseau urbain R'Bus"],"lt":0,"dept":"17"}},{"type":"Feature","geometry":{"type":"Point","coordinates":[-0.9847,45.946]},"properties":{"nom":"Albert Bignon","ag":["Réseau urbain R'Bus"],"lt":0,"dept":"17"}},{"type":"Feature","geometry":{"type":"Point","coordinates":[-0.8803,45.9478]},"properties":{"nom":"Fontsèche","ag":["Réseau urbain R'Bus"],"lt":0,"dept":"17"}},{"type":"Feature","geometry":{"type":"Point","coordinates":[-1.076,45.9919]},"properties":{"nom":"Centre Commercial Fouras","ag":["Réseau urbain R'Bus"],"lt":0,"dept":"17"}},{"type":"Feature","geometry":{"type":"Point","coordinates":[-0.9845,45.9459]},"properties":{"nom":"Albert Bignon","ag":["Réseau urbain R'Bus"],"lt":0,"dept":"17"}},{"type":"Feature","geometry":{"type":"Point","coordinates":[-0.8827,45.944]},"properties":{"nom":"Rue du Parc","ag":["Réseau urbain R'Bus"],"lt":0,"dept":"17"}},{"type":"Feature","geometry":{"type":"Point","coordinates":[-0.9863,45.9614]},"properties":{"nom":"Mairie Vergeroux","ag":["Réseau urbain R'Bus"],"lt":0,"dept":"17"}},{"type":"Feature","geometry":{"type":"Point","coordinates":[-0.9739,45.9416]},"properties":{"nom":"Anatole France","ag":["Réseau urbain R'Bus"],"lt":0,"dept":"17"}},{"type":"Feature","geometry":{"type":"Point","coordinates":[-0.8829,45.9439]},"properties":{"nom":"Rue du Parc","ag":["Réseau urbain R'Bus"],"lt":0,"dept":"17"}},{"type":"Feature","geometry":{"type":"Point","coordinates":[-0.9865,45.9612]},"properties":{"nom":"Mairie Vergeroux","ag":["Réseau urbain R'Bus"],"lt":0,"dept":"17"}},{"type":"Feature","geometry":{"type":"Point","coordinates":[-0.9745,45.9415]},"properties":{"nom":"Anatole France","ag":["Réseau urbain R'Bus"],"lt":0,"dept":"17"}},{"type":"Feature","geometry":{"type":"Point","coordinates":[-0.8915,45.9461]},"properties":{"nom":"Joliot Curie","ag":["Réseau urbain R'Bus"],"lt":0,"dept":"17"}},{"type":"Feature","geometry":{"type":"Point","coordinates":[-0.9839,45.9447]},"properties":{"nom":"Gallissonniere","ag":["Réseau urbain R'Bus"],"lt":0,"dept":"17"}},{"type":"Feature","geometry":{"type":"Point","coordinates":[-0.9652,45.9368]},"properties":{"nom":"Roy Bry Quai 2","ag":["Réseau urbain R'Bus"],"lt":0,"dept":"17"}},{"type":"Feature","geometry":{"type":"Point","coordinates":[-0.9836,45.9448]},"properties":{"nom":"Gallissonniere","ag":["Réseau urbain R'Bus"],"lt":0,"dept":"17"}},{"type":"Feature","geometry":{"type":"Point","coordinates":[-0.9652,45.9372]},"properties":{"nom":"Roy Bry Quai 1","ag":["Réseau urbain R'Bus"],"lt":0,"dept":"17"}},{"type":"Feature","geometry":{"type":"Point","coordinates":[-0.9845,45.9404]},"properties":{"nom":"Boulevard Buisson","ag":["Réseau urbain R'Bus"],"lt":0,"dept":"17"}},{"type":"Feature","geometry":{"type":"Point","coordinates":[-0.9846,45.9403]},"properties":{"nom":"Boulevard Buisson","ag":["Réseau urbain R'Bus"],"lt":0,"dept":"17"}},{"type":"Feature","geometry":{"type":"Point","coordinates":[-0.8796,45.9483]},"properties":{"nom":"Fontsèche","ag":["Réseau urbain R'Bus"],"lt":0,"dept":"17"}},{"type":"Feature","geometry":{"type":"Point","coordinates":[-0.8791,45.9429]},"properties":{"nom":"Le Pas Lolet","ag":["Réseau urbain R'Bus"],"lt":0,"dept":"17"}},{"type":"Feature","geometry":{"type":"Point","coordinates":[-0.9856,45.9434]},"properties":{"nom":"Petit Marseille","ag":["Réseau urbain R'Bus"],"lt":0,"dept":"17"}},{"type":"Feature","geometry":{"type":"Point","coordinates":[-0.8883,45.9419]},"properties":{"nom":"Quais","ag":["Réseau urbain R'Bus"],"lt":0,"dept":"17"}},{"type":"Feature","geometry":{"type":"Point","coordinates":[-0.9854,45.9434]},"properties":{"nom":"Petit Marseille","ag":["Réseau urbain R'Bus"],"lt":0,"dept":"17"}},{"type":"Feature","geometry":{"type":"Point","coordinates":[-0.9757,45.9516]},"properties":{"nom":"Bois Bernard","ag":["Réseau urbain R'Bus"],"lt":0,"dept":"17"}},{"type":"Feature","geometry":{"type":"Point","coordinates":[-0.9025,45.9474]},"properties":{"nom":"Saint Léonard","ag":["Réseau urbain R'Bus"],"lt":0,"dept":"17"}},{"type":"Feature","geometry":{"type":"Point","coordinates":[-0.9756,45.9516]},"properties":{"nom":"Bois Bernard","ag":["Réseau urbain R'Bus"],"lt":0,"dept":"17"}},{"type":"Feature","geometry":{"type":"Point","coordinates":[-0.9026,45.947]},"properties":{"nom":"Saint Léonard","ag":["Réseau urbain R'Bus"],"lt":0,"dept":"17"}},{"type":"Feature","geometry":{"type":"Point","coordinates":[-0.9299,45.9504]},"properties":{"nom":"Fraternité","ag":["Réseau urbain R'Bus"],"lt":0,"dept":"17"}},{"type":"Feature","geometry":{"type":"Point","coordinates":[-0.8792,45.9428]},"properties":{"nom":"Le Pas Lolet","ag":["Réseau urbain R'Bus"],"lt":0,"dept":"17"}},{"type":"Feature","geometry":{"type":"Point","coordinates":[-0.8929,45.9494]},"properties":{"nom":"Rue des Érables","ag":["Réseau urbain R'Bus"],"lt":0,"dept":"17"}},{"type":"Feature","geometry":{"type":"Point","coordinates":[-0.9765,45.9537]},"properties":{"nom":"Maréchal Leclerc Rochefort","ag":["Réseau urbain R'Bus"],"lt":0,"dept":"17"}},{"type":"Feature","geometry":{"type":"Point","coordinates":[-0.8926,45.9495]},"properties":{"nom":"Rue des Érables","ag":["Réseau urbain R'Bus"],"lt":0,"dept":"17"}},{"type":"Feature","geometry":{"type":"Point","coordinates":[-0.9581,45.9379]},"properties":{"nom":"Corderie Royale","ag":["Réseau urbain R'Bus"],"lt":0,"dept":"17"}},{"type":"Feature","geometry":{"type":"Point","coordinates":[-0.9062,45.9472]},"properties":{"nom":"Avenue de Gaulle","ag":["Réseau urbain R'Bus"],"lt":0,"dept":"17"}},{"type":"Feature","geometry":{"type":"Point","coordinates":[-0.9582,45.9379]},"properties":{"nom":"Corderie Royale","ag":["Réseau urbain R'Bus"],"lt":0,"dept":"17"}},{"type":"Feature","geometry":{"type":"Point","coordinates":[-0.9063,45.9471]},"properties":{"nom":"Avenue de Gaulle","ag":["Réseau urbain R'Bus"],"lt":0,"dept":"17"}},{"type":"Feature","geometry":{"type":"Point","coordinates":[-1.14174,46.15889]},"properties":{"nom":"Boulevard Joffre","ag":["Réseau interurbain Aléop - Pays de la Loire","Agrégat des réseaux urbains et interurbains des Pays de la Loire"],"lt":1,"dept":"17"}},{"type":"Feature","geometry":{"type":"Point","coordinates":[-1.14266,46.1524]},"properties":{"nom":"Gare Routière","ag":["Réseau interurbain Aléop - Pays de la Loire","Agrégat des réseaux urbains et interurbains des Pays de la Loire"],"lt":1,"dept":"17"}},{"type":"Feature","geometry":{"type":"Point","coordinates":[-1.14236,46.15805]},"properties":{"nom":"Hôpital","ag":["Réseau interurbain Aléop - Pays de la Loire","Agrégat des réseaux urbains et interurbains des Pays de la Loire"],"lt":1,"dept":"17"}},{"type":"Feature","geometry":{"type":"Point","coordinates":[-1.13645,46.16681]},"properties":{"nom":"Patte d'Oie","ag":["Réseau interurbain Aléop - Pays de la Loire"],"lt":1,"dept":"17"}},{"type":"Feature","geometry":{"type":"Point","coordinates":[-0.99156,46.3073]},"properties":{"nom":"Place du Marquis d'Aligré","ag":["Réseau interurbain Aléop - Pays de la Loire"],"lt":1,"dept":"17"}},{"type":"Feature","geometry":{"type":"Point","coordinates":[-1.11668,46.17489]},"properties":{"nom":"Puilboreau ZA","ag":["Réseau interurbain Aléop - Pays de la Loire"],"lt":1,"dept":"17"}},{"type":"Feature","geometry":{"type":"Point","coordinates":[-1.14046,46.15262]},"properties":{"nom":"Gare Routière","ag":["Réseau interurbain Aléop - Pays de la Loire","Agrégat des réseaux urbains et interurbains des Pays de la Loire"],"lt":0,"dept":"17"}},{"type":"Feature","geometry":{"type":"Point","coordinates":[-1.14185,46.15914]},"properties":{"nom":"Hôpital","ag":["Réseau interurbain Aléop - Pays de la Loire","Agrégat des réseaux urbains et interurbains des Pays de la Loire"],"lt":0,"dept":"17"}},{"type":"Feature","geometry":{"type":"Point","coordinates":[-1.14397,46.15821]},"properties":{"nom":"Hôpital","ag":["Réseau interurbain Aléop - Pays de la Loire","Agrégat des réseaux urbains et interurbains des Pays de la Loire"],"lt":0,"dept":"17"}},{"type":"Feature","geometry":{"type":"Point","coordinates":[-0.99152,46.30732]},"properties":{"nom":"Marquis d'Aligré","ag":["Réseau interurbain Aléop - Pays de la Loire","Agrégat des réseaux urbains et interurbains des Pays de la Loire"],"lt":0,"dept":"17"}},{"type":"Feature","geometry":{"type":"Point","coordinates":[-0.99145,46.30733]},"properties":{"nom":"Marquis d'Aligré","ag":["Réseau interurbain Aléop - Pays de la Loire","Agrégat des réseaux urbains et interurbains des Pays de la Loire"],"lt":0,"dept":"17"}},{"type":"Feature","geometry":{"type":"Point","coordinates":[-1.13655,46.16683]},"properties":{"nom":"Patte d'Oie","ag":["Réseau interurbain Aléop - Pays de la Loire","Agrégat des réseaux urbains et interurbains des Pays de la Loire"],"lt":0,"dept":"17"}},{"type":"Feature","geometry":{"type":"Point","coordinates":[-1.13638,46.16677]},"properties":{"nom":"Patte d'Oie","ag":["Réseau interurbain Aléop - Pays de la Loire"],"lt":0,"dept":"17"}},{"type":"Feature","geometry":{"type":"Point","coordinates":[-0.61802,45.74895]},"properties":{"nom":"Gare SNCF","ag":["Réseau urbain Buss","Réseau urbain BUSS"],"lt":0,"dept":"17"}},{"type":"Feature","geometry":{"type":"Point","coordinates":[-0.62132,45.74656]},"properties":{"nom":"Lemercier","ag":["Réseau urbain Buss","Réseau urbain BUSS"],"lt":0,"dept":"17"}},{"type":"Feature","geometry":{"type":"Point","coordinates":[-0.62313,45.74666]},"properties":{"nom":"Pérat","ag":["Réseau urbain Buss","Réseau urbain BUSS"],"lt":0,"dept":"17"}},{"type":"Feature","geometry":{"type":"Point","coordinates":[-0.62653,45.74685]},"properties":{"nom":"Sainte Claire","ag":["Réseau urbain Buss","Réseau urbain BUSS"],"lt":0,"dept":"17"}},{"type":"Feature","geometry":{"type":"Point","coordinates":[-0.63155,45.74714]},"properties":{"nom":"Poste","ag":["Réseau urbain Buss","Réseau urbain BUSS"],"lt":0,"dept":"17"}},{"type":"Feature","geometry":{"type":"Point","coordinates":[-0.63391,45.74728]},"properties":{"nom":"Théâtre","ag":["Réseau urbain Buss","Réseau urbain BUSS"],"lt":0,"dept":"17"}},{"type":"Feature","geometry":{"type":"Point","coordinates":[-0.6379,45.74679]},"properties":{"nom":"Gare Routière","ag":["Réseau urbain Buss","Réseau urbain BUSS"],"lt":0,"dept":"17"}},{"type":"Feature","geometry":{"type":"Point","coordinates":[-0.63963,45.74387]},"properties":{"nom":"Reverseaux","ag":["Réseau urbain Buss","Réseau urbain BUSS"],"lt":0,"dept":"17"}},{"type":"Feature","geometry":{"type":"Point","coordinates":[-0.64273,45.73919]},"properties":{"nom":"Vélodrome","ag":["Réseau urbain Buss","Réseau urbain BUSS"],"lt":0,"dept":"17"}},{"type":"Feature","geometry":{"type":"Point","coordinates":[-0.64443,45.73642]},"properties":{"nom":"Lycée Bellevue","ag":["Réseau urbain Buss","Réseau urbain BUSS"],"lt":0,"dept":"17"}},{"type":"Feature","geometry":{"type":"Point","coordinates":[-0.64372,45.73431]},"properties":{"nom":"Allende","ag":["Réseau urbain Buss","Réseau urbain BUSS"],"lt":0,"dept":"17"}},{"type":"Feature","geometry":{"type":"Point","coordinates":[-0.64331,45.7322]},"properties":{"nom":"Bellevue","ag":["Réseau urbain Buss","Réseau urbain BUSS"],"lt":0,"dept":"17"}},{"type":"Feature","geometry":{"type":"Point","coordinates":[-0.64438,45.73169]},"properties":{"nom":"Rabannières","ag":["Réseau urbain Buss","Réseau urbain BUSS"],"lt":0,"dept":"17"}},{"type":"Feature","geometry":{"type":"Point","coordinates":[-0.64694,45.73302]},"properties":{"nom":"Sainte Eustelle","ag":["Réseau urbain Buss"],"lt":0,"dept":"17"}},{"type":"Feature","geometry":{"type":"Point","coordinates":[-0.64913,45.73199]},"properties":{"nom":"Gendarmerie","ag":["Réseau urbain Buss","Réseau urbain BUSS"],"lt":0,"dept":"17"}},{"type":"Feature","geometry":{"type":"Point","coordinates":[-0.6491,45.73407]},"properties":{"nom":"P-H. Simon","ag":["Réseau urbain Buss","Réseau urbain BUSS"],"lt":0,"dept":"17"}},{"type":"Feature","geometry":{"type":"Point","coordinates":[-0.6487,45.73706]},"properties":{"nom":"Foyer Soleil","ag":["Réseau urbain Buss","Réseau urbain BUSS"],"lt":0,"dept":"17"}},{"type":"Feature","geometry":{"type":"Point","coordinates":[-0.64965,45.73794]},"properties":{"nom":"Debussy","ag":["Réseau urbain Buss","Réseau urbain BUSS"],"lt":0,"dept":"17"}},{"type":"Feature","geometry":{"type":"Point","coordinates":[-0.6506,45.73664]},"properties":{"nom":"Collège Quinet","ag":["Réseau urbain Buss","Réseau urbain BUSS"],"lt":0,"dept":"17"}},{"type":"Feature","geometry":{"type":"Point","coordinates":[-0.65346,45.73783]},"properties":{"nom":"Tombouctou","ag":["Réseau urbain Buss","Réseau urbain BUSS"],"lt":0,"dept":"17"}},{"type":"Feature","geometry":{"type":"Point","coordinates":[-0.65052,45.74166]},"properties":{"nom":"Centre de Secours","ag":["Réseau urbain Buss"],"lt":0,"dept":"17"}},{"type":"Feature","geometry":{"type":"Point","coordinates":[-0.64836,45.7441]},"properties":{"nom":"Bouvard","ag":["Réseau urbain Buss","Réseau urbain BUSS"],"lt":0,"dept":"17"}},{"type":"Feature","geometry":{"type":"Point","coordinates":[-0.65052,45.74416]},"properties":{"nom":"Arènes","ag":["Réseau urbain Buss","Réseau urbain BUSS"],"lt":0,"dept":"17"}},{"type":"Feature","geometry":{"type":"Point","coordinates":[-0.65523,45.74478]},"properties":{"nom":"Département","ag":["Réseau urbain Buss","Réseau urbain BUSS"],"lt":0,"dept":"17"}},{"type":"Feature","geometry":{"type":"Point","coordinates":[-0.6583,45.74552]},"properties":{"nom":"Doumer","ag":["Réseau urbain Buss","Réseau urbain BUSS"],"lt":0,"dept":"17"}},{"type":"Feature","geometry":{"type":"Point","coordinates":[-0.65881,45.74713]},"properties":{"nom":"Hôpital","ag":["Réseau urbain Buss","Réseau urbain BUSS"],"lt":0,"dept":"17"}},{"type":"Feature","geometry":{"type":"Point","coordinates":[-0.65953,45.74914]},"properties":{"nom":"Cours Genêt","ag":["Réseau urbain Buss","Réseau urbain BUSS"],"lt":0,"dept":"17"}},{"type":"Feature","geometry":{"type":"Point","coordinates":[-0.66729,45.74997]},"properties":{"nom":"Enclouse","ag":["Réseau urbain Buss","Réseau urbain BUSS"],"lt":0,"dept":"17"}},{"type":"Feature","geometry":{"type":"Point","coordinates":[-0.66926,45.7472]},"properties":{"nom":"Hôtels","ag":["Réseau urbain Buss","Réseau urbain BUSS"],"lt":0,"dept":"17"}},{"type":"Feature","geometry":{"type":"Point","coordinates":[-0.67317,45.74585]},"properties":{"nom":"Champagne","ag":["Réseau urbain Buss","Réseau urbain BUSS"],"lt":0,"dept":"17"}},{"type":"Feature","geometry":{"type":"Point","coordinates":[-0.67617,45.74831]},"properties":{"nom":"Coteaux","ag":["Réseau urbain Buss","Réseau urbain BUSS"],"lt":0,"dept":"17"}},{"type":"Feature","geometry":{"type":"Point","coordinates":[-0.6147,45.7364]},"properties":{"nom":"Lycée Palissy","ag":["Réseau urbain Buss","Réseau urbain BUSS"],"lt":0,"dept":"17"}},{"type":"Feature","geometry":{"type":"Point","coordinates":[-0.6175,45.73874]},"properties":{"nom":"Gide","ag":["Réseau urbain Buss","Réseau urbain BUSS"],"lt":0,"dept":"17"}},{"type":"Feature","geometry":{"type":"Point","coordinates":[-0.62018,45.74015]},"properties":{"nom":"Gautier","ag":["Réseau urbain Buss","Réseau urbain BUSS"],"lt":0,"dept":"17"}},{"type":"Feature","geometry":{"type":"Point","coordinates":[-0.62427,45.74206]},"properties":{"nom":"Abbaye","ag":["Réseau urbain Buss","Réseau urbain BUSS"],"lt":0,"dept":"17"}},{"type":"Feature","geometry":{"type":"Point","coordinates":[-0.62709,45.74434]},"properties":{"nom":"Jardin Public","ag":["Réseau urbain Buss","Réseau urbain BUSS"],"lt":0,"dept":"17"}},{"type":"Feature","geometry":{"type":"Point","coordinates":[-0.6287,45.74638]},"properties":{"nom":"Bassompierre","ag":["Réseau urbain Buss","Réseau urbain BUSS"],"lt":0,"dept":"17"}},{"type":"Feature","geometry":{"type":"Point","coordinates":[-0.63799,45.74752]},"properties":{"nom":"Banque de France","ag":["Réseau urbain Buss","Réseau urbain BUSS"],"lt":0,"dept":"17"}},{"type":"Feature","geometry":{"type":"Point","coordinates":[-0.64046,45.74774]},"properties":{"nom":"Pasteur","ag":["Réseau urbain Buss","Réseau urbain BUSS"],"lt":0,"dept":"17"}},{"type":"Feature","geometry":{"type":"Point","coordinates":[-0.64255,45.74821]},"properties":{"nom":"Richelieu","ag":["Réseau urbain Buss","Réseau urbain BUSS"],"lt":0,"dept":"17"}},{"type":"Feature","geometry":{"type":"Point","coordinates":[-0.6466,45.74995]},"properties":{"nom":"Loti","ag":["Réseau urbain Buss","Réseau urbain BUSS"],"lt":0,"dept":"17"}},{"type":"Feature","geometry":{"type":"Point","coordinates":[-0.64902,45.75121]},"properties":{"nom":"Stade","ag":["Réseau urbain Buss","Réseau urbain BUSS"],"lt":0,"dept":"17"}},{"type":"Feature","geometry":{"type":"Point","coordinates":[-0.65066,45.75203]},"properties":{"nom":"Notre-Dame","ag":["Réseau urbain Buss","Réseau urbain BUSS"],"lt":0,"dept":"17"}},{"type":"Feature","geometry":{"type":"Point","coordinates":[-0.65506,45.75442]},"properties":{"nom":"MSA","ag":["Réseau urbain Buss","Réseau urbain BUSS"],"lt":0,"dept":"17"}},{"type":"Feature","geometry":{"type":"Point","coordinates":[-0.65703,45.75279]},"properties":{"nom":"ZAC","ag":["Réseau urbain Buss","Réseau urbain BUSS"],"lt":0,"dept":"17"}},{"type":"Feature","geometry":{"type":"Point","coordinates":[-0.65844,45.75076]},"properties":{"nom":"Recouvrance","ag":["Réseau urbain Buss","Réseau urbain BUSS"],"lt":0,"dept":"17"}},{"type":"Feature","geometry":{"type":"Point","coordinates":[-0.65884,45.74945]},"properties":{"nom":"Cours Genêt","ag":["Réseau urbain Buss","Réseau urbain BUSS"],"lt":0,"dept":"17"}},{"type":"Feature","geometry":{"type":"Point","coordinates":[-0.65898,45.74699]},"properties":{"nom":"Hôpital","ag":["Réseau urbain Buss","Réseau urbain BUSS"],"lt":0,"dept":"17"}},{"type":"Feature","geometry":{"type":"Point","coordinates":[-0.66417,45.7463]},"properties":{"nom":"Clos Fleuri","ag":["Réseau urbain Buss","Réseau urbain BUSS"],"lt":0,"dept":"17"}},{"type":"Feature","geometry":{"type":"Point","coordinates":[-0.66462,45.74445]},"properties":{"nom":"Chemin Ferré","ag":["Réseau urbain Buss","Réseau urbain BUSS"],"lt":0,"dept":"17"}},{"type":"Feature","geometry":{"type":"Point","coordinates":[-0.66605,45.74322]},"properties":{"nom":"CFA","ag":["Réseau urbain Buss","Réseau urbain BUSS"],"lt":0,"dept":"17"}},{"type":"Feature","geometry":{"type":"Point","coordinates":[-0.67516,45.74909]},"properties":{"nom":"Coteaux","ag":["Réseau urbain Buss","Réseau urbain BUSS"],"lt":0,"dept":"17"}},{"type":"Feature","geometry":{"type":"Point","coordinates":[-0.67753,45.75284]},"properties":{"nom":"Bellegarde","ag":["Réseau urbain Buss","Réseau urbain BUSS"],"lt":0,"dept":"17"}},{"type":"Feature","geometry":{"type":"Point","coordinates":[-0.67583,45.75549]},"properties":{"nom":"Parc Atlantique 1","ag":["Réseau urbain Buss","Réseau urbain BUSS"],"lt":0,"dept":"17"}},{"type":"Feature","geometry":{"type":"Point","coordinates":[-0.67581,45.75803]},"properties":{"nom":"Parc Atlantique 2","ag":["Réseau urbain Buss","Réseau urbain BUSS"],"lt":0,"dept":"17"}},{"type":"Feature","geometry":{"type":"Point","coordinates":[-0.6754,45.75976]},"properties":{"nom":"Parc Atlantique 3","ag":["Réseau urbain Buss"],"lt":0,"dept":"17"}},{"type":"Feature","geometry":{"type":"Point","coordinates":[-0.67488,45.78309]},"properties":{"nom":"Ecurat","ag":["Réseau urbain Buss","Réseau urbain BUSS"],"lt":0,"dept":"17"}},{"type":"Feature","geometry":{"type":"Point","coordinates":[-0.612,45.74941]},"properties":{"nom":"Scolaire Collège Agrippa","ag":["Réseau urbain Buss"],"lt":0,"dept":"17"}},{"type":"Feature","geometry":{"type":"Point","coordinates":[-0.58548,45.74791]},"properties":{"nom":"Chez Natier","ag":["Réseau urbain Buss"],"lt":0,"dept":"17"}},{"type":"Feature","geometry":{"type":"Point","coordinates":[-0.57966,45.74896]},"properties":{"nom":"Chez Labbé","ag":["Réseau urbain Buss"],"lt":0,"dept":"17"}},{"type":"Feature","geometry":{"type":"Point","coordinates":[-0.56344,45.75612]},"properties":{"nom":"Chez Corbineau","ag":["Réseau urbain Buss"],"lt":0,"dept":"17"}},{"type":"Feature","geometry":{"type":"Point","coordinates":[-0.55227,45.76018]},"properties":{"nom":"Les Landes","ag":["Réseau urbain Buss"],"lt":0,"dept":"17"}},{"type":"Feature","geometry":{"type":"Point","coordinates":[-0.54687,45.77113]},"properties":{"nom":"Maison Blanche","ag":["Réseau urbain Buss"],"lt":0,"dept":"17"}},{"type":"Feature","geometry":{"type":"Point","coordinates":[-0.54837,45.77925]},"properties":{"nom":"Gros Bonnet","ag":["Réseau urbain Buss"],"lt":0,"dept":"17"}},{"type":"Feature","geometry":{"type":"Point","coordinates":[-0.51262,45.77907]},"properties":{"nom":"Chez Portier","ag":["Réseau urbain Buss"],"lt":0,"dept":"17"}},{"type":"Feature","geometry":{"type":"Point","coordinates":[-0.50446,45.77679]},"properties":{"nom":"Chez Lorrain","ag":["Réseau urbain Buss"],"lt":0,"dept":"17"}},{"type":"Feature","geometry":{"type":"Point","coordinates":[-0.68592,45.69652]},"properties":{"nom":"Les Treuillons","ag":["Réseau urbain Buss"],"lt":0,"dept":"17"}},{"type":"Feature","geometry":{"type":"Point","coordinates":[-0.69656,45.70088]},"properties":{"nom":"Les Drugeons","ag":["Réseau urbain Buss"],"lt":0,"dept":"17"}},{"type":"Feature","geometry":{"type":"Point","coordinates":[-0.6929,45.7108]},"properties":{"nom":"Les Renaudins","ag":["Réseau urbain Buss"],"lt":0,"dept":"17"}},{"type":"Feature","geometry":{"type":"Point","coordinates":[-0.69345,45.71655]},"properties":{"nom":"Champs de l'Etourneau","ag":["Réseau urbain Buss"],"lt":0,"dept":"17"}},{"type":"Feature","geometry":{"type":"Point","coordinates":[-0.6963,45.71859]},"properties":{"nom":"Carrefour Puits Neuf","ag":["Réseau urbain Buss"],"lt":0,"dept":"17"}},{"type":"Feature","geometry":{"type":"Point","coordinates":[-0.7007,45.72382]},"properties":{"nom":"Les Grands","ag":["Réseau urbain Buss"],"lt":0,"dept":"17"}},{"type":"Feature","geometry":{"type":"Point","coordinates":[-0.69569,45.72734]},"properties":{"nom":"Les Benoits","ag":["Réseau urbain Buss"],"lt":0,"dept":"17"}},{"type":"Feature","geometry":{"type":"Point","coordinates":[-0.69208,45.7241]},"properties":{"nom":"Les Mouchets","ag":["Réseau urbain Buss"],"lt":0,"dept":"17"}},{"type":"Feature","geometry":{"type":"Point","coordinates":[-0.68126,45.72489]},"properties":{"nom":"La Grande Charbonnière","ag":["Réseau urbain Buss"],"lt":0,"dept":"17"}},{"type":"Feature","geometry":{"type":"Point","coordinates":[-0.68075,45.73287]},"properties":{"nom":"Les Tourneurs","ag":["Réseau urbain Buss"],"lt":0,"dept":"17"}},{"type":"Feature","geometry":{"type":"Point","coordinates":[-0.6907,45.7405]},"properties":{"nom":"Les Montgougnons","ag":["Réseau urbain Buss"],"lt":0,"dept":"17"}},{"type":"Feature","geometry":{"type":"Point","coordinates":[-0.67319,45.73871]},"properties":{"nom":"Les Pinauds","ag":["Réseau urbain Buss"],"lt":0,"dept":"17"}},{"type":"Feature","geometry":{"type":"Point","coordinates":[-0.67184,45.73682]},"properties":{"nom":"La Motte à l'Oeuf","ag":["Réseau urbain Buss"],"lt":0,"dept":"17"}},{"type":"Feature","geometry":{"type":"Point","coordinates":[-0.65815,45.73713]},"properties":{"nom":"Les Ballandreaux","ag":["Réseau urbain Buss"],"lt":0,"dept":"17"}},{"type":"Feature","geometry":{"type":"Point","coordinates":[-0.65049,45.73676]},"properties":{"nom":"Collège Quinet","ag":["Réseau urbain Buss","Réseau urbain BUSS"],"lt":0,"dept":"17"}},{"type":"Feature","geometry":{"type":"Point","coordinates":[-0.65082,45.75195]},"properties":{"nom":"Notre-Dame","ag":["Réseau urbain Buss","Réseau urbain BUSS"],"lt":0,"dept":"17"}},{"type":"Feature","geometry":{"type":"Point","coordinates":[-0.64816,45.76033]},"properties":{"nom":"Lycée Desclaude","ag":["Réseau urbain Buss"],"lt":0,"dept":"17"}},{"type":"Feature","geometry":{"type":"Point","coordinates":[-0.63779,45.74626]},"properties":{"nom":"Gare Routière","ag":["Réseau urbain Buss","Réseau urbain BUSS"],"lt":0,"dept":"17"}},{"type":"Feature","geometry":{"type":"Point","coordinates":[-0.54056,45.75901]},"properties":{"nom":"Ecole","ag":["Réseau urbain Buss"],"lt":0,"dept":"17"}},{"type":"Feature","geometry":{"type":"Point","coordinates":[-0.51838,45.75446]},"properties":{"nom":"La Turpaudière","ag":["Réseau urbain Buss"],"lt":0,"dept":"17"}},{"type":"Feature","geometry":{"type":"Point","coordinates":[-0.50659,45.75353]},"properties":{"nom":"Eglise","ag":["Réseau urbain Buss"],"lt":0,"dept":"17"}},{"type":"Feature","geometry":{"type":"Point","coordinates":[-0.49906,45.76216]},"properties":{"nom":"Les Chaumes","ag":["Réseau urbain Buss"],"lt":0,"dept":"17"}},{"type":"Feature","geometry":{"type":"Point","coordinates":[-0.49344,45.76634]},"properties":{"nom":"Les Bujoliers","ag":["Réseau urbain Buss"],"lt":0,"dept":"17"}},{"type":"Feature","geometry":{"type":"Point","coordinates":[-0.49064,45.76643]},"properties":{"nom":"Commerce","ag":["Réseau urbain Buss"],"lt":0,"dept":"17"}},{"type":"Feature","geometry":{"type":"Point","coordinates":[-0.46102,45.77848]},"properties":{"nom":"Chez Corsin","ag":["Réseau urbain Buss"],"lt":0,"dept":"17"}},{"type":"Feature","geometry":{"type":"Point","coordinates":[-0.42144,45.77444]},"properties":{"nom":"Mairie Burie","ag":["Réseau urbain Buss"],"lt":0,"dept":"17"}},{"type":"Feature","geometry":{"type":"Point","coordinates":[-0.43663,45.7906]},"properties":{"nom":"Pouvet","ag":["Réseau urbain Buss"],"lt":0,"dept":"17"}},{"type":"Feature","geometry":{"type":"Point","coordinates":[-0.43687,45.79845]},"properties":{"nom":"Mairie Villars","ag":["Réseau urbain Buss"],"lt":0,"dept":"17"}},{"type":"Feature","geometry":{"type":"Point","coordinates":[-0.39659,45.80293]},"properties":{"nom":"Le Bourg","ag":["Réseau urbain Buss"],"lt":0,"dept":"17"}},{"type":"Feature","geometry":{"type":"Point","coordinates":[-0.40065,45.81592]},"properties":{"nom":"Tournay","ag":["Réseau urbain Buss"],"lt":0,"dept":"17"}},{"type":"Feature","geometry":{"type":"Point","coordinates":[-0.40656,45.82242]},"properties":{"nom":"Azac","ag":["Réseau urbain Buss"],"lt":0,"dept":"17"}},{"type":"Feature","geometry":{"type":"Point","coordinates":[-0.66328,45.72086]},"properties":{"nom":"Le Petit Chadignac","ag":["Réseau urbain Buss"],"lt":0,"dept":"17"}},{"type":"Feature","geometry":{"type":"Point","coordinates":[-0.65125,45.72933]},"properties":{"nom":"EREA","ag":["Réseau urbain Buss"],"lt":0,"dept":"17"}},{"type":"Feature","geometry":{"type":"Point","coordinates":[-0.51619,45.69676]},"properties":{"nom":"Ecole","ag":["Réseau urbain Buss"],"lt":0,"dept":"17"}},{"type":"Feature","geometry":{"type":"Point","coordinates":[-0.50966,45.69465]},"properties":{"nom":"Chemin Vert","ag":["Réseau urbain Buss"],"lt":0,"dept":"17"}},{"type":"Feature","geometry":{"type":"Point","coordinates":[-0.49584,45.68504]},"properties":{"nom":"Le Pradeau","ag":["Réseau urbain Buss"],"lt":0,"dept":"17"}},{"type":"Feature","geometry":{"type":"Point","coordinates":[-0.48982,45.68442]},"properties":{"nom":"Mairie - Parking","ag":["Réseau urbain Buss"],"lt":0,"dept":"17"}},{"type":"Feature","geometry":{"type":"Point","coordinates":[-0.51632,45.69686]},"properties":{"nom":"Ecole","ag":["Réseau urbain Buss"],"lt":0,"dept":"17"}},{"type":"Feature","geometry":{"type":"Point","coordinates":[-0.40663,45.8223]},"properties":{"nom":"Azac","ag":["Réseau urbain Buss"],"lt":0,"dept":"17"}},{"type":"Feature","geometry":{"type":"Point","coordinates":[-0.40065,45.81582]},"properties":{"nom":"Tournay","ag":["Réseau urbain Buss"],"lt":0,"dept":"17"}},{"type":"Feature","geometry":{"type":"Point","coordinates":[-0.39653,45.80301]},"properties":{"nom":"Le Bourg","ag":["Réseau urbain Buss"],"lt":0,"dept":"17"}},{"type":"Feature","geometry":{"type":"Point","coordinates":[-0.43699,45.79858]},"properties":{"nom":"Mairie Villars","ag":["Réseau urbain Buss"],"lt":0,"dept":"17"}},{"type":"Feature","geometry":{"type":"Point","coordinates":[-0.43709,45.79088]},"properties":{"nom":"Pouvet","ag":["Réseau urbain Buss"],"lt":0,"dept":"17"}},{"type":"Feature","geometry":{"type":"Point","coordinates":[-0.46103,45.7781]},"properties":{"nom":"Chez Corsin","ag":["Réseau urbain Buss"],"lt":0,"dept":"17"}},{"type":"Feature","geometry":{"type":"Point","coordinates":[-0.49076,45.76653]},"properties":{"nom":"Commerce","ag":["Réseau urbain Buss"],"lt":0,"dept":"17"}},{"type":"Feature","geometry":{"type":"Point","coordinates":[-0.4935,45.76643]},"properties":{"nom":"Les Bujoliers","ag":["Réseau urbain Buss"],"lt":0,"dept":"17"}},{"type":"Feature","geometry":{"type":"Point","coordinates":[-0.49925,45.76213]},"properties":{"nom":"Les Chaumes","ag":["Réseau urbain Buss"],"lt":0,"dept":"17"}},{"type":"Feature","geometry":{"type":"Point","coordinates":[-0.50695,45.75337]},"properties":{"nom":"Eglise","ag":["Réseau urbain Buss"],"lt":0,"dept":"17"}},{"type":"Feature","geometry":{"type":"Point","coordinates":[-0.5185,45.75459]},"properties":{"nom":"La Turpaudière","ag":["Réseau urbain Buss"],"lt":0,"dept":"17"}},{"type":"Feature","geometry":{"type":"Point","coordinates":[-0.54064,45.75908]},"properties":{"nom":"Ecole","ag":["Réseau urbain Buss"],"lt":0,"dept":"17"}},{"type":"Feature","geometry":{"type":"Point","coordinates":[-0.54397,45.71173]},"properties":{"nom":"La Baine","ag":["Réseau urbain Buss"],"lt":0,"dept":"17"}},{"type":"Feature","geometry":{"type":"Point","coordinates":[-0.53803,45.71]},"properties":{"nom":"Bisseuil","ag":["Réseau urbain Buss"],"lt":0,"dept":"17"}},{"type":"Feature","geometry":{"type":"Point","coordinates":[-0.55706,45.71889]},"properties":{"nom":"La Poste Chaniers 2","ag":["Réseau urbain Buss"],"lt":0,"dept":"17"}},{"type":"Feature","geometry":{"type":"Point","coordinates":[-0.55779,45.73262]},"properties":{"nom":"Les Essarts","ag":["Réseau urbain Buss"],"lt":0,"dept":"17"}},{"type":"Feature","geometry":{"type":"Point","coordinates":[-0.5611,45.74351]},"properties":{"nom":"Jumelage","ag":["Réseau urbain Buss"],"lt":0,"dept":"17"}},{"type":"Feature","geometry":{"type":"Point","coordinates":[-0.57338,45.74279]},"properties":{"nom":"Bergeronnettes","ag":["Réseau urbain Buss"],"lt":0,"dept":"17"}},{"type":"Feature","geometry":{"type":"Point","coordinates":[-0.57605,45.74094]},"properties":{"nom":"Corbin","ag":["Réseau urbain Buss"],"lt":0,"dept":"17"}},{"type":"Feature","geometry":{"type":"Point","coordinates":[-0.5939,45.7416]},"properties":{"nom":"Terrefort Haut","ag":["Réseau urbain Buss"],"lt":0,"dept":"17"}},{"type":"Feature","geometry":{"type":"Point","coordinates":[-0.59666,45.74339]},"properties":{"nom":"Terrefort Bas","ag":["Réseau urbain Buss"],"lt":0,"dept":"17"}},{"type":"Feature","geometry":{"type":"Point","coordinates":[-0.61591,45.77928]},"properties":{"nom":"Le Jarry","ag":["Réseau urbain Buss"],"lt":0,"dept":"17"}},{"type":"Feature","geometry":{"type":"Point","coordinates":[-0.60573,45.77848]},"properties":{"nom":"Chez Tessier","ag":["Réseau urbain Buss"],"lt":0,"dept":"17"}},{"type":"Feature","geometry":{"type":"Point","coordinates":[-0.59314,45.77678]},"properties":{"nom":"Route du Puy Gibaud","ag":["Réseau urbain Buss"],"lt":0,"dept":"17"}},{"type":"Feature","geometry":{"type":"Point","coordinates":[-0.59147,45.77044]},"properties":{"nom":"Ecole Primaire","ag":["Réseau urbain Buss"],"lt":0,"dept":"17"}},{"type":"Feature","geometry":{"type":"Point","coordinates":[-0.58406,45.76836]},"properties":{"nom":"Terrain de Sport","ag":["Réseau urbain Buss"],"lt":0,"dept":"17"}},{"type":"Feature","geometry":{"type":"Point","coordinates":[-0.57751,45.77003]},"properties":{"nom":"La Sauzaie","ag":["Réseau urbain Buss"],"lt":0,"dept":"17"}},{"type":"Feature","geometry":{"type":"Point","coordinates":[-0.56625,45.76978]},"properties":{"nom":"Chez Thoreau","ag":["Réseau urbain Buss"],"lt":0,"dept":"17"}},{"type":"Feature","geometry":{"type":"Point","coordinates":[-0.57641,45.76171]},"properties":{"nom":"Le Charenton","ag":["Réseau urbain Buss"],"lt":0,"dept":"17"}},{"type":"Feature","geometry":{"type":"Point","coordinates":[-0.5831,45.75692]},"properties":{"nom":"Beausseuil","ag":["Réseau urbain Buss"],"lt":0,"dept":"17"}},{"type":"Feature","geometry":{"type":"Point","coordinates":[-0.58735,45.76342]},"properties":{"nom":"Le Plantis","ag":["Réseau urbain Buss"],"lt":0,"dept":"17"}},{"type":"Feature","geometry":{"type":"Point","coordinates":[-0.59971,45.76354]},"properties":{"nom":"Golf/ La Grange","ag":["Réseau urbain Buss"],"lt":0,"dept":"17"}},{"type":"Feature","geometry":{"type":"Point","coordinates":[-0.60789,45.7654]},"properties":{"nom":"Montpensé","ag":["Réseau urbain Buss"],"lt":0,"dept":"17"}},{"type":"Feature","geometry":{"type":"Point","coordinates":[-0.62903,45.70895]},"properties":{"nom":"BA 722","ag":["Réseau urbain Buss"],"lt":0,"dept":"17"}},{"type":"Feature","geometry":{"type":"Point","coordinates":[-0.62677,45.7083]},"properties":{"nom":"Cerisiers","ag":["Réseau urbain Buss"],"lt":0,"dept":"17"}},{"type":"Feature","geometry":{"type":"Point","coordinates":[-0.62598,45.70633]},"properties":{"nom":"ZA - Chêne","ag":["Réseau urbain Buss"],"lt":0,"dept":"17"}},{"type":"Feature","geometry":{"type":"Point","coordinates":[-0.64123,45.72145]},"properties":{"nom":"ZA - Brandes","ag":["Réseau urbain Buss"],"lt":0,"dept":"17"}},{"type":"Feature","geometry":{"type":"Point","coordinates":[-0.64249,45.71882]},"properties":{"nom":"ZA - Moulin","ag":["Réseau urbain Buss"],"lt":0,"dept":"17"}},{"type":"Feature","geometry":{"type":"Point","coordinates":[-0.6389,45.71998]},"properties":{"nom":"ZA - Brandes 2","ag":["Réseau urbain Buss"],"lt":0,"dept":"17"}},{"type":"Feature","geometry":{"type":"Point","coordinates":[-0.64874,45.71894]},"properties":{"nom":"ZA - Perches","ag":["Réseau urbain Buss"],"lt":0,"dept":"17"}},{"type":"Feature","geometry":{"type":"Point","coordinates":[-0.65216,45.71661]},"properties":{"nom":"ZA - Chermignac","ag":["Réseau urbain Buss"],"lt":0,"dept":"17"}},{"type":"Feature","geometry":{"type":"Point","coordinates":[-0.65029,45.7294]},"properties":{"nom":"Clinique du Moreau","ag":["Réseau urbain Buss"],"lt":0,"dept":"17"}},{"type":"Feature","geometry":{"type":"Point","coordinates":[-0.64612,45.73341]},"properties":{"nom":"Sainte Eustelle","ag":["Réseau urbain Buss","Réseau urbain BUSS"],"lt":0,"dept":"17"}},{"type":"Feature","geometry":{"type":"Point","coordinates":[-0.64407,45.73663]},"properties":{"nom":"Lycée Bellevue","ag":["Réseau urbain Buss","Réseau urbain BUSS"],"lt":0,"dept":"17"}},{"type":"Feature","geometry":{"type":"Point","coordinates":[-0.63388,45.74717]},"properties":{"nom":"Théâtre","ag":["Réseau urbain Buss","Réseau urbain BUSS"],"lt":0,"dept":"17"}},{"type":"Feature","geometry":{"type":"Point","coordinates":[-0.48975,45.68456]},"properties":{"nom":"Mairie - Parking","ag":["Réseau urbain Buss"],"lt":0,"dept":"17"}},{"type":"Feature","geometry":{"type":"Point","coordinates":[-0.49584,45.68513]},"properties":{"nom":"Le Pradeau","ag":["Réseau urbain Buss"],"lt":0,"dept":"17"}},{"type":"Feature","geometry":{"type":"Point","coordinates":[-0.51,45.69491]},"properties":{"nom":"Chemin Vert","ag":["Réseau urbain Buss"],"lt":0,"dept":"17"}},{"type":"Feature","geometry":{"type":"Point","coordinates":[-0.52742,45.69644]},"properties":{"nom":"Crf. des Quatre Routes","ag":["Réseau urbain Buss"],"lt":0,"dept":"17"}},{"type":"Feature","geometry":{"type":"Point","coordinates":[-0.54307,45.69873]},"properties":{"nom":"Chez Berne","ag":["Réseau urbain Buss"],"lt":0,"dept":"17"}},{"type":"Feature","geometry":{"type":"Point","coordinates":[-0.55031,45.70156]},"properties":{"nom":"Chez Fruger","ag":["Réseau urbain Buss"],"lt":0,"dept":"17"}},{"type":"Feature","geometry":{"type":"Point","coordinates":[-0.57332,45.70954]},"properties":{"nom":"Chez Deschamps","ag":["Réseau urbain Buss"],"lt":0,"dept":"17"}},{"type":"Feature","geometry":{"type":"Point","coordinates":[-0.5776,45.71081]},"properties":{"nom":"Ecole Elémentaire","ag":["Réseau urbain Buss"],"lt":0,"dept":"17"}},{"type":"Feature","geometry":{"type":"Point","coordinates":[-0.58106,45.71257]},"properties":{"nom":"Chemin du Printemps","ag":["Réseau urbain Buss"],"lt":0,"dept":"17"}},{"type":"Feature","geometry":{"type":"Point","coordinates":[-0.59719,45.69788]},"properties":{"nom":"L'Anglade","ag":["Réseau urbain Buss"],"lt":0,"dept":"17"}},{"type":"Feature","geometry":{"type":"Point","coordinates":[-0.64277,45.73871]},"properties":{"nom":"Lycée Bellevue Parvis","ag":["Réseau urbain Buss"],"lt":0,"dept":"17"}},{"type":"Feature","geometry":{"type":"Point","coordinates":[-0.46875,45.70252]},"properties":{"nom":"Bois des Prêtres","ag":["Réseau urbain Buss"],"lt":0,"dept":"17"}},{"type":"Feature","geometry":{"type":"Point","coordinates":[-0.43805,45.70395]},"properties":{"nom":"Place de la Mairie","ag":["Réseau urbain Buss"],"lt":0,"dept":"17"}},{"type":"Feature","geometry":{"type":"Point","coordinates":[-0.45269,45.68546]},"properties":{"nom":"Le Treuil","ag":["Réseau urbain Buss"],"lt":0,"dept":"17"}},{"type":"Feature","geometry":{"type":"Point","coordinates":[-0.4938,45.70101]},"properties":{"nom":"P. du Pré St. Jean","ag":["Réseau urbain Buss"],"lt":0,"dept":"17"}},{"type":"Feature","geometry":{"type":"Point","coordinates":[-0.52127,45.70771]},"properties":{"nom":"Orlac","ag":["Réseau urbain Buss"],"lt":0,"dept":"17"}},{"type":"Feature","geometry":{"type":"Point","coordinates":[-0.55653,45.71792]},"properties":{"nom":"Gare","ag":["Réseau urbain Buss"],"lt":0,"dept":"17"}},{"type":"Feature","geometry":{"type":"Point","coordinates":[-0.5622,45.71952]},"properties":{"nom":"Chez Fazilleau","ag":["Réseau urbain Buss"],"lt":0,"dept":"17"}},{"type":"Feature","geometry":{"type":"Point","coordinates":[-0.57187,45.72439]},"properties":{"nom":"Chez Périneau","ag":["Réseau urbain Buss"],"lt":0,"dept":"17"}},{"type":"Feature","geometry":{"type":"Point","coordinates":[-0.58454,45.728]},"properties":{"nom":"Port Hublé Haut","ag":["Réseau urbain Buss"],"lt":0,"dept":"17"}},{"type":"Feature","geometry":{"type":"Point","coordinates":[-0.60115,45.73752]},"properties":{"nom":"Les Metrelles","ag":["Réseau urbain Buss"],"lt":0,"dept":"17"}},{"type":"Feature","geometry":{"type":"Point","coordinates":[-0.50533,45.73853]},"properties":{"nom":"Monument aux Morts","ag":["Réseau urbain Buss"],"lt":0,"dept":"17"}},{"type":"Feature","geometry":{"type":"Point","coordinates":[-0.55245,45.7604]},"properties":{"nom":"Les Landes","ag":["Réseau urbain Buss"],"lt":0,"dept":"17"}},{"type":"Feature","geometry":{"type":"Point","coordinates":[-0.56354,45.75614]},"properties":{"nom":"Chez Corbineau","ag":["Réseau urbain Buss"],"lt":0,"dept":"17"}},{"type":"Feature","geometry":{"type":"Point","coordinates":[-0.56115,45.74556]},"properties":{"nom":"Maine Alain","ag":["Réseau urbain Buss"],"lt":0,"dept":"17"}},{"type":"Feature","geometry":{"type":"Point","coordinates":[-0.58472,45.74472]},"properties":{"nom":"Chemin Bertaud","ag":["Réseau urbain Buss"],"lt":0,"dept":"17"}},{"type":"Feature","geometry":{"type":"Point","coordinates":[-0.60537,45.74348]},"properties":{"nom":"Vallon","ag":["Réseau urbain Buss"],"lt":0,"dept":"17"}},{"type":"Feature","geometry":{"type":"Point","coordinates":[-0.60622,45.7416]},"properties":{"nom":"Récluse","ag":["Réseau urbain Buss","Réseau urbain BUSS"],"lt":0,"dept":"17"}},{"type":"Feature","geometry":{"type":"Point","coordinates":[-0.61069,45.74241]},"properties":{"nom":"Rabelais","ag":["Réseau urbain Buss"],"lt":0,"dept":"17"}},{"type":"Feature","geometry":{"type":"Point","coordinates":[-0.61214,45.74086]},"properties":{"nom":"Montplaisir","ag":["Réseau urbain Buss"],"lt":0,"dept":"17"}},{"type":"Feature","geometry":{"type":"Point","coordinates":[-0.65043,45.72942]},"properties":{"nom":"Clinique du Moreau","ag":["Réseau urbain Buss"],"lt":0,"dept":"17"}},{"type":"Feature","geometry":{"type":"Point","coordinates":[-0.65228,45.71664]},"properties":{"nom":"ZA - Chermignac","ag":["Réseau urbain Buss"],"lt":0,"dept":"17"}},{"type":"Feature","geometry":{"type":"Point","coordinates":[-0.64876,45.71883]},"properties":{"nom":"ZA - Perches","ag":["Réseau urbain Buss"],"lt":0,"dept":"17"}},{"type":"Feature","geometry":{"type":"Point","coordinates":[-0.62597,45.70626]},"properties":{"nom":"ZA - Chêne","ag":["Réseau urbain Buss"],"lt":0,"dept":"17"}},{"type":"Feature","geometry":{"type":"Point","coordinates":[-0.63174,45.74953]},"properties":{"nom":"Bois d'Amour","ag":["Réseau urbain Buss"],"lt":0,"dept":"17"}},{"type":"Feature","geometry":{"type":"Point","coordinates":[-0.63083,45.75256]},"properties":{"nom":"Port Larousselle","ag":["Réseau urbain Buss"],"lt":0,"dept":"17"}},{"type":"Feature","geometry":{"type":"Point","coordinates":[-0.63224,45.75483]},"properties":{"nom":"Abattoir","ag":["Réseau urbain Buss"],"lt":0,"dept":"17"}},{"type":"Feature","geometry":{"type":"Point","coordinates":[-0.63604,45.76008]},"properties":{"nom":"Magézy","ag":["Réseau urbain Buss","Réseau urbain BUSS"],"lt":0,"dept":"17"}},{"type":"Feature","geometry":{"type":"Point","coordinates":[-0.63505,45.75985]},"properties":{"nom":"Bergerie","ag":["Réseau urbain Buss"],"lt":0,"dept":"17"}},{"type":"Feature","geometry":{"type":"Point","coordinates":[-0.62833,45.76235]},"properties":{"nom":"Courbiac","ag":["Réseau urbain Buss"],"lt":0,"dept":"17"}},{"type":"Feature","geometry":{"type":"Point","coordinates":[-0.62915,45.76549]},"properties":{"nom":"Chemin de la Conseillé","ag":["Réseau urbain Buss"],"lt":0,"dept":"17"}},{"type":"Feature","geometry":{"type":"Point","coordinates":[-0.63626,45.76384]},"properties":{"nom":"Les Essarties","ag":["Réseau urbain Buss"],"lt":0,"dept":"17"}},{"type":"Feature","geometry":{"type":"Point","coordinates":[-0.63971,45.76221]},"properties":{"nom":"Croix Lagord","ag":["Réseau urbain Buss"],"lt":0,"dept":"17"}},{"type":"Feature","geometry":{"type":"Point","coordinates":[-0.64852,45.76062]},"properties":{"nom":"Lycée Agricole","ag":["Réseau urbain Buss"],"lt":0,"dept":"17"}},{"type":"Feature","geometry":{"type":"Point","coordinates":[-0.65607,45.76689]},"properties":{"nom":"Les Marsais","ag":["Réseau urbain Buss"],"lt":0,"dept":"17"}},{"type":"Feature","geometry":{"type":"Point","coordinates":[-0.64973,45.76962]},"properties":{"nom":"Préan","ag":["Réseau urbain Buss"],"lt":0,"dept":"17"}},{"type":"Feature","geometry":{"type":"Point","coordinates":[-0.64435,45.77082]},"properties":{"nom":"Le Patillou","ag":["Réseau urbain Buss"],"lt":0,"dept":"17"}},{"type":"Feature","geometry":{"type":"Point","coordinates":[-0.6419,45.77452]},"properties":{"nom":"Les Denis","ag":["Réseau urbain Buss"],"lt":0,"dept":"17"}},{"type":"Feature","geometry":{"type":"Point","coordinates":[-0.64282,45.77909]},"properties":{"nom":"Narcejac","ag":["Réseau urbain Buss"],"lt":0,"dept":"17"}},{"type":"Feature","geometry":{"type":"Point","coordinates":[-0.65672,45.78386]},"properties":{"nom":"Gabillonerie","ag":["Réseau urbain Buss"],"lt":0,"dept":"17"}},{"type":"Feature","geometry":{"type":"Point","coordinates":[-0.66228,45.78341]},"properties":{"nom":"Bellivet","ag":["Réseau urbain Buss"],"lt":0,"dept":"17"}},{"type":"Feature","geometry":{"type":"Point","coordinates":[-0.50472,45.77694]},"properties":{"nom":"Chez Lorrain","ag":["Réseau urbain Buss"],"lt":0,"dept":"17"}},{"type":"Feature","geometry":{"type":"Point","coordinates":[-0.51284,45.77927]},"properties":{"nom":"Chez Portier","ag":["Réseau urbain Buss"],"lt":0,"dept":"17"}},{"type":"Feature","geometry":{"type":"Point","coordinates":[-0.55536,45.79288]},"properties":{"nom":"Mairie - Ecole","ag":["Réseau urbain Buss"],"lt":0,"dept":"17"}},{"type":"Feature","geometry":{"type":"Point","coordinates":[-0.54857,45.77949]},"properties":{"nom":"Gros Bonnet","ag":["Réseau urbain Buss"],"lt":0,"dept":"17"}},{"type":"Feature","geometry":{"type":"Point","coordinates":[-0.58426,45.7683]},"properties":{"nom":"Terrain de Sport","ag":["Réseau urbain Buss"],"lt":0,"dept":"17"}},{"type":"Feature","geometry":{"type":"Point","coordinates":[-0.59113,45.77049]},"properties":{"nom":"Ecole Primaire","ag":["Réseau urbain Buss"],"lt":0,"dept":"17"}},{"type":"Feature","geometry":{"type":"Point","coordinates":[-0.58587,45.74787]},"properties":{"nom":"Chez Natier","ag":["Réseau urbain Buss"],"lt":0,"dept":"17"}},{"type":"Feature","geometry":{"type":"Point","coordinates":[-0.55716,45.71892]},"properties":{"nom":"La Poste","ag":["Réseau urbain Buss"],"lt":0,"dept":"17"}},{"type":"Feature","geometry":{"type":"Point","coordinates":[-0.49038,45.70065]},"properties":{"nom":"Mairie Dompierre","ag":["Réseau urbain Buss"],"lt":0,"dept":"17"}},{"type":"Feature","geometry":{"type":"Point","coordinates":[-0.55719,45.71881]},"properties":{"nom":"La Poste Chaniers 3","ag":["Réseau urbain Buss"],"lt":0,"dept":"17"}},{"type":"Feature","geometry":{"type":"Point","coordinates":[-0.5572,45.71879]},"properties":{"nom":"DEPART La Poste Chaniers 3","ag":["Réseau urbain Buss"],"lt":0,"dept":"17"}},{"type":"Feature","geometry":{"type":"Point","coordinates":[-0.56123,45.74555]},"properties":{"nom":"DEPART Maine Alain","ag":["Réseau urbain Buss"],"lt":0,"dept":"17"}},{"type":"Feature","geometry":{"type":"Point","coordinates":[-0.63877,45.82149]},"properties":{"nom":"Port la Pierre","ag":["Réseau urbain Buss"],"lt":0,"dept":"17"}},{"type":"Feature","geometry":{"type":"Point","coordinates":[-0.63609,45.81655]},"properties":{"nom":"Chemin des Carrières","ag":["Réseau urbain Buss"],"lt":0,"dept":"17"}},{"type":"Feature","geometry":{"type":"Point","coordinates":[-0.63259,45.81227]},"properties":{"nom":"Ecole R. Port la Pierre","ag":["Réseau urbain Buss"],"lt":0,"dept":"17"}},{"type":"Feature","geometry":{"type":"Point","coordinates":[-0.63224,45.80698]},"properties":{"nom":"Choisy","ag":["Réseau urbain Buss"],"lt":0,"dept":"17"}},{"type":"Feature","geometry":{"type":"Point","coordinates":[-0.63725,45.7996]},"properties":{"nom":"Les Mailleaux","ag":["Réseau urbain Buss"],"lt":0,"dept":"17"}},{"type":"Feature","geometry":{"type":"Point","coordinates":[-0.63858,45.79481]},"properties":{"nom":"Le Pontreau","ag":["Réseau urbain Buss"],"lt":0,"dept":"17"}},{"type":"Feature","geometry":{"type":"Point","coordinates":[-0.61756,45.77068]},"properties":{"nom":"Jérusalem","ag":["Réseau urbain Buss"],"lt":0,"dept":"17"}},{"type":"Feature","geometry":{"type":"Point","coordinates":[-0.61759,45.7618]},"properties":{"nom":"Lormont Bas","ag":["Réseau urbain Buss"],"lt":0,"dept":"17"}},{"type":"Feature","geometry":{"type":"Point","coordinates":[-0.61148,45.74963]},"properties":{"nom":"Scolaire Collège Agrippa SCOL TAD","ag":["Réseau urbain Buss"],"lt":0,"dept":"17"}},{"type":"Feature","geometry":{"type":"Point","coordinates":[-0.60121,45.73746]},"properties":{"nom":"Les Metrelles","ag":["Réseau urbain Buss"],"lt":0,"dept":"17"}},{"type":"Feature","geometry":{"type":"Point","coordinates":[-0.60812,45.73272]},"properties":{"nom":"Les Arcivaux","ag":["Réseau urbain Buss"],"lt":0,"dept":"17"}},{"type":"Feature","geometry":{"type":"Point","coordinates":[-0.58446,45.72793]},"properties":{"nom":"Port Hublé Haut","ag":["Réseau urbain Buss"],"lt":0,"dept":"17"}},{"type":"Feature","geometry":{"type":"Point","coordinates":[-0.55587,45.71759]},"properties":{"nom":"Gare","ag":["Réseau urbain Buss"],"lt":0,"dept":"17"}},{"type":"Feature","geometry":{"type":"Point","coordinates":[-0.52096,45.70756]},"properties":{"nom":"Orlac","ag":["Réseau urbain Buss"],"lt":0,"dept":"17"}},{"type":"Feature","geometry":{"type":"Point","coordinates":[-0.49322,45.70065]},"properties":{"nom":"P. du Pré St. Jean","ag":["Réseau urbain Buss"],"lt":0,"dept":"17"}},{"type":"Feature","geometry":{"type":"Point","coordinates":[-0.45274,45.68539]},"properties":{"nom":"Le Treuil","ag":["Réseau urbain Buss"],"lt":0,"dept":"17"}},{"type":"Feature","geometry":{"type":"Point","coordinates":[-0.5162,45.72771]},"properties":{"nom":"Coran","ag":["Réseau urbain Buss"],"lt":0,"dept":"17"}},{"type":"Feature","geometry":{"type":"Point","coordinates":[-0.62028,45.74247]},"properties":{"nom":"Square Bubeck","ag":["Réseau urbain Buss"],"lt":0,"dept":"17"}},{"type":"Feature","geometry":{"type":"Point","coordinates":[-0.6209,45.74127]},"properties":{"nom":"Emile Zola","ag":["Réseau urbain Buss"],"lt":0,"dept":"17"}},{"type":"Feature","geometry":{"type":"Point","coordinates":[-0.62351,45.73765]},"properties":{"nom":"Champboudeau","ag":["Réseau urbain Buss"],"lt":0,"dept":"17"}},{"type":"Feature","geometry":{"type":"Point","coordinates":[-0.62099,45.7342]},"properties":{"nom":"Provence","ag":["Réseau urbain Buss"],"lt":0,"dept":"17"}},{"type":"Feature","geometry":{"type":"Point","coordinates":[-0.61807,45.7336]},"properties":{"nom":"Gascogne","ag":["Réseau urbain Buss","Réseau urbain BUSS"],"lt":0,"dept":"17"}},{"type":"Feature","geometry":{"type":"Point","coordinates":[-0.61207,45.74086]},"properties":{"nom":"Montplaisir","ag":["Réseau urbain Buss"],"lt":0,"dept":"17"}},{"type":"Feature","geometry":{"type":"Point","coordinates":[-0.61033,45.7423]},"properties":{"nom":"Rabelais","ag":["Réseau urbain Buss"],"lt":0,"dept":"17"}},{"type":"Feature","geometry":{"type":"Point","coordinates":[-0.6055,45.74353]},"properties":{"nom":"Vallon","ag":["Réseau urbain Buss"],"lt":0,"dept":"17"}},{"type":"Feature","geometry":{"type":"Point","coordinates":[-0.61497,45.74529]},"properties":{"nom":"Haras","ag":["Réseau urbain Buss"],"lt":0,"dept":"17"}},{"type":"Feature","geometry":{"type":"Point","coordinates":[-0.56092,45.74581]},"properties":{"nom":"Maine Alain 2","ag":["Réseau urbain Buss"],"lt":0,"dept":"17"}},{"type":"Feature","geometry":{"type":"Point","coordinates":[-0.56723,45.82261]},"properties":{"nom":"Château","ag":["Réseau urbain Buss"],"lt":0,"dept":"17"}},{"type":"Feature","geometry":{"type":"Point","coordinates":[-0.56914,45.81915]},"properties":{"nom":"Ecole","ag":["Réseau urbain Buss"],"lt":0,"dept":"17"}},{"type":"Feature","geometry":{"type":"Point","coordinates":[-0.54227,45.80865]},"properties":{"nom":"Chez Richad-Marot","ag":["Réseau urbain Buss"],"lt":0,"dept":"17"}},{"type":"Feature","geometry":{"type":"Point","coordinates":[-0.52782,45.79898]},"properties":{"nom":"Chez Mervaud","ag":["Réseau urbain Buss"],"lt":0,"dept":"17"}},{"type":"Feature","geometry":{"type":"Point","coordinates":[-0.50322,45.81722]},"properties":{"nom":"Chez Giet Cité","ag":["Réseau urbain Buss"],"lt":0,"dept":"17"}},{"type":"Feature","geometry":{"type":"Point","coordinates":[-0.50385,45.82144]},"properties":{"nom":"Rue de l'Avenir","ag":["Réseau urbain Buss"],"lt":0,"dept":"17"}},{"type":"Feature","geometry":{"type":"Point","coordinates":[-0.74152,45.68814]},"properties":{"nom":"La Petite Romade","ag":["Réseau urbain Buss"],"lt":0,"dept":"17"}},{"type":"Feature","geometry":{"type":"Point","coordinates":[-0.74729,45.69111]},"properties":{"nom":"La Grande Romade","ag":["Réseau urbain Buss"],"lt":0,"dept":"17"}},{"type":"Feature","geometry":{"type":"Point","coordinates":[-0.76482,45.71709]},"properties":{"nom":"Ecole - Garderie","ag":["Réseau urbain Buss"],"lt":0,"dept":"17"}},{"type":"Feature","geometry":{"type":"Point","coordinates":[-0.76349,45.71498]},"properties":{"nom":"Chez Guichard","ag":["Réseau urbain Buss"],"lt":0,"dept":"17"}},{"type":"Feature","geometry":{"type":"Point","coordinates":[-0.75673,45.71492]},"properties":{"nom":"Chez Bouraud","ag":["Réseau urbain Buss"],"lt":0,"dept":"17"}},{"type":"Feature","geometry":{"type":"Point","coordinates":[-0.74761,45.70734]},"properties":{"nom":"La Martinière","ag":["Réseau urbain Buss"],"lt":0,"dept":"17"}},{"type":"Feature","geometry":{"type":"Point","coordinates":[-0.73517,45.70512]},"properties":{"nom":"Mairie - Ecole Maternelle","ag":["Réseau urbain Buss"],"lt":0,"dept":"17"}},{"type":"Feature","geometry":{"type":"Point","coordinates":[-0.72934,45.71198]},"properties":{"nom":"Les Brunauds","ag":["Réseau urbain Buss"],"lt":0,"dept":"17"}},{"type":"Feature","geometry":{"type":"Point","coordinates":[-0.63438,45.7554]},"properties":{"nom":"Massiou","ag":["Réseau urbain Buss","Réseau urbain BUSS"],"lt":0,"dept":"17"}},{"type":"Feature","geometry":{"type":"Point","coordinates":[-0.63608,45.75486]},"properties":{"nom":"Fenêtre","ag":["Réseau urbain Buss","Réseau urbain BUSS"],"lt":0,"dept":"17"}},{"type":"Feature","geometry":{"type":"Point","coordinates":[-0.63791,45.75332]},"properties":{"nom":"Santones","ag":["Réseau urbain Buss","Réseau urbain BUSS"],"lt":0,"dept":"17"}},{"type":"Feature","geometry":{"type":"Point","coordinates":[-0.63897,45.75182]},"properties":{"nom":"Cimetière","ag":["Réseau urbain Buss","Réseau urbain BUSS"],"lt":0,"dept":"17"}},{"type":"Feature","geometry":{"type":"Point","coordinates":[-0.64305,45.75605]},"properties":{"nom":"Guyarderie","ag":["Réseau urbain Buss","Réseau urbain BUSS"],"lt":0,"dept":"17"}},{"type":"Feature","geometry":{"type":"Point","coordinates":[-0.64715,45.75528]},"properties":{"nom":"Aquarelle","ag":["Réseau urbain Buss","Réseau urbain BUSS"],"lt":0,"dept":"17"}},{"type":"Feature","geometry":{"type":"Point","coordinates":[-0.65122,45.75459]},"properties":{"nom":"Brûlerie","ag":["Réseau urbain Buss","Réseau urbain BUSS"],"lt":0,"dept":"17"}},{"type":"Feature","geometry":{"type":"Point","coordinates":[-0.65468,45.7486]},"properties":{"nom":"Carrières","ag":["Réseau urbain Buss","Réseau urbain BUSS"],"lt":0,"dept":"17"}},{"type":"Feature","geometry":{"type":"Point","coordinates":[-0.65034,45.74863]},"properties":{"nom":"Séminaires","ag":["Réseau urbain Buss","Réseau urbain BUSS"],"lt":0,"dept":"17"}},{"type":"Feature","geometry":{"type":"Point","coordinates":[-0.64621,45.74832]},"properties":{"nom":"Cité Saint Georges","ag":["Réseau urbain Buss"],"lt":0,"dept":"17"}},{"type":"Feature","geometry":{"type":"Point","coordinates":[-0.64232,45.74803]},"properties":{"nom":"Richelieu","ag":["Réseau urbain Buss","Réseau urbain BUSS"],"lt":0,"dept":"17"}},{"type":"Feature","geometry":{"type":"Point","coordinates":[-0.64018,45.7476]},"properties":{"nom":"Pasteur","ag":["Réseau urbain Buss","Réseau urbain BUSS"],"lt":0,"dept":"17"}},{"type":"Feature","geometry":{"type":"Point","coordinates":[-0.63826,45.74742]},"properties":{"nom":"Banque de France","ag":["Réseau urbain Buss","Réseau urbain BUSS"],"lt":0,"dept":"17"}},{"type":"Feature","geometry":{"type":"Point","coordinates":[-0.63152,45.74705]},"properties":{"nom":"Poste","ag":["Réseau urbain Buss","Réseau urbain BUSS"],"lt":0,"dept":"17"}},{"type":"Feature","geometry":{"type":"Point","coordinates":[-0.6256,45.7482]},"properties":{"nom":"Cité entrepreunariale","ag":["Réseau urbain Buss","Réseau urbain BUSS"],"lt":0,"dept":"17"}},{"type":"Feature","geometry":{"type":"Point","coordinates":[-0.62138,45.7485]},"properties":{"nom":"Gustave Fort","ag":["Réseau urbain Buss","Réseau urbain BUSS"],"lt":0,"dept":"17"}},{"type":"Feature","geometry":{"type":"Point","coordinates":[-0.62003,45.74647]},"properties":{"nom":"Lemercier","ag":["Réseau urbain Buss"],"lt":0,"dept":"17"}},{"type":"Feature","geometry":{"type":"Point","coordinates":[-0.61544,45.74643]},"properties":{"nom":"Malakoff","ag":["Réseau urbain Buss","Réseau urbain BUSS"],"lt":0,"dept":"17"}},{"type":"Feature","geometry":{"type":"Point","coordinates":[-0.6126,45.74753]},"properties":{"nom":"Dufaure","ag":["Réseau urbain Buss","Réseau urbain BUSS"],"lt":0,"dept":"17"}},{"type":"Feature","geometry":{"type":"Point","coordinates":[-0.60962,45.74866]},"properties":{"nom":"Collège Agrippa","ag":["Réseau urbain Buss"],"lt":0,"dept":"17"}},{"type":"Feature","geometry":{"type":"Point","coordinates":[-0.60516,45.75046]},