{"type":"FeatureCollection","features":[{"type":"Feature","geometry":{"type":"Point","coordinates":[0.47988,44.83973]},"properties":{"nom":"LA BEYLIVE LOTISSEMENT 1","ag":["Réseau urbain TUB"],"lt":1,"dept":"24"}},{"type":"Feature","geometry":{"type":"Point","coordinates":[0.48007,44.83994]},"properties":{"nom":"LA BEYLIVE LOTISSEMENT 2","ag":["Réseau urbain TUB"],"lt":1,"dept":"24"}},{"type":"Feature","geometry":{"type":"Point","coordinates":[0.4534,44.83658]},"properties":{"nom":"RTE DE BORDEAUX A","ag":["Réseau urbain TUB"],"lt":1,"dept":"24"}},{"type":"Feature","geometry":{"type":"Point","coordinates":[0.4846,44.84974]},"properties":{"nom":"MAIRIE","ag":["Réseau urbain TUB"],"lt":1,"dept":"24"}},{"type":"Feature","geometry":{"type":"Point","coordinates":[0.47064,44.84404]},"properties":{"nom":"CHATEAUBRIAND R","ag":["Réseau urbain TUB"],"lt":1,"dept":"24"}},{"type":"Feature","geometry":{"type":"Point","coordinates":[0.4979,44.84631]},"properties":{"nom":"ANATOLE FRANCE D","ag":["Réseau urbain TUB"],"lt":1,"dept":"24"}},{"type":"Feature","geometry":{"type":"Point","coordinates":[0.46727,44.85196]},"properties":{"nom":"ANDRE MAUROIS","ag":["Réseau urbain TUB"],"lt":1,"dept":"24"}},{"type":"Feature","geometry":{"type":"Point","coordinates":[0.48395,44.85572]},"properties":{"nom":"JULES FERRY","ag":["Réseau urbain TUB"],"lt":1,"dept":"24"}},{"type":"Feature","geometry":{"type":"Point","coordinates":[0.48129,44.85286]},"properties":{"nom":"BELLEGARDE","ag":["Réseau urbain TUB"],"lt":1,"dept":"24"}},{"type":"Feature","geometry":{"type":"Point","coordinates":[0.46024,44.85259]},"properties":{"nom":"RENE DESMAISON","ag":["Réseau urbain TUB"],"lt":1,"dept":"24"}},{"type":"Feature","geometry":{"type":"Point","coordinates":[0.48727,44.85282]},"properties":{"nom":"REPUBLIQUE","ag":["Réseau urbain TUB"],"lt":1,"dept":"24"}},{"type":"Feature","geometry":{"type":"Point","coordinates":[0.49813,44.84311]},"properties":{"nom":"ALBA","ag":["Réseau urbain TUB"],"lt":1,"dept":"24"}},{"type":"Feature","geometry":{"type":"Point","coordinates":[0.45926,44.83915]},"properties":{"nom":"CROZES A","ag":["Réseau urbain TUB"],"lt":1,"dept":"24"}},{"type":"Feature","geometry":{"type":"Point","coordinates":[0.48068,44.84515]},"properties":{"nom":"ESPACE FRANCOIS MITTERAND 1","ag":["Réseau urbain TUB"],"lt":1,"dept":"24"}},{"type":"Feature","geometry":{"type":"Point","coordinates":[0.48047,44.84514]},"properties":{"nom":"ESPACE FRANCOIS MITTERAND 2","ag":["Réseau urbain TUB"],"lt":1,"dept":"24"}},{"type":"Feature","geometry":{"type":"Point","coordinates":[0.48666,44.85323]},"properties":{"nom":"LES CARMES","ag":["Réseau urbain TUB"],"lt":1,"dept":"24"}},{"type":"Feature","geometry":{"type":"Point","coordinates":[0.47545,44.84355]},"properties":{"nom":"LR BERGERAC-Lyc. Prof. Capelle (2)","ag":["Réseau urbain TUB"],"lt":1,"dept":"24"}},{"type":"Feature","geometry":{"type":"Point","coordinates":[0.50971,44.84983]},"properties":{"nom":"GRANDS DUCS","ag":["Réseau urbain TUB"],"lt":1,"dept":"24"}},{"type":"Feature","geometry":{"type":"Point","coordinates":[0.51043,44.84743]},"properties":{"nom":"GRANDS DUCS 2","ag":["Réseau urbain TUB"],"lt":1,"dept":"24"}},{"type":"Feature","geometry":{"type":"Point","coordinates":[0.49682,44.85125]},"properties":{"nom":"HOPITAL 1","ag":["Réseau urbain TUB"],"lt":1,"dept":"24"}},{"type":"Feature","geometry":{"type":"Point","coordinates":[0.49676,44.85126]},"properties":{"nom":"HOPITAL 2","ag":["Réseau urbain TUB"],"lt":1,"dept":"24"}},{"type":"Feature","geometry":{"type":"Point","coordinates":[0.48953,44.85329]},"properties":{"nom":"LR BERGERAC-Jardin Perdoux (2)","ag":["Réseau urbain TUB"],"lt":1,"dept":"24"}},{"type":"Feature","geometry":{"type":"Point","coordinates":[0.50956,44.85273]},"properties":{"nom":"BD CLAVEILLE1","ag":["Réseau urbain TUB"],"lt":1,"dept":"24"}},{"type":"Feature","geometry":{"type":"Point","coordinates":[0.53204,44.85189]},"properties":{"nom":"3 VALLEES","ag":["Réseau urbain TUB"],"lt":1,"dept":"24"}},{"type":"Feature","geometry":{"type":"Point","coordinates":[0.47052,44.84412]},"properties":{"nom":"CHATEAUBRIAND A","ag":["Réseau urbain TUB"],"lt":1,"dept":"24"}},{"type":"Feature","geometry":{"type":"Point","coordinates":[0.50844,44.85336]},"properties":{"nom":"BD CLAVEILLE  2","ag":["Réseau urbain TUB"],"lt":1,"dept":"24"}},{"type":"Feature","geometry":{"type":"Point","coordinates":[0.45357,44.83645]},"properties":{"nom":"RTE DE BORDEAUX R","ag":["Réseau urbain TUB"],"lt":1,"dept":"24"}},{"type":"Feature","geometry":{"type":"Point","coordinates":[0.44557,44.83611]},"properties":{"nom":"LA CAVAILLE","ag":["Réseau urbain TUB"],"lt":1,"dept":"24"}},{"type":"Feature","geometry":{"type":"Point","coordinates":[0.47858,44.84436]},"properties":{"nom":"POLE EMPLOI","ag":["Réseau urbain TUB"],"lt":1,"dept":"24"}},{"type":"Feature","geometry":{"type":"Point","coordinates":[0.49452,44.85433]},"properties":{"nom":"LR BERGERAC-Lyc. Métiers H. Duc (2)","ag":["Réseau urbain TUB"],"lt":1,"dept":"24"}},{"type":"Feature","geometry":{"type":"Point","coordinates":[0.46987,44.83098]},"properties":{"nom":"SAID ESCOLLA","ag":["Réseau urbain TUB"],"lt":1,"dept":"24"}},{"type":"Feature","geometry":{"type":"Point","coordinates":[0.48371,44.84428]},"properties":{"nom":"PAUL PAINLEVE","ag":["Réseau urbain TUB"],"lt":1,"dept":"24"}},{"type":"Feature","geometry":{"type":"Point","coordinates":[0.46795,44.8339]},"properties":{"nom":"LE TOUNET","ag":["Réseau urbain TUB"],"lt":1,"dept":"24"}},{"type":"Feature","geometry":{"type":"Point","coordinates":[0.46697,44.84251]},"properties":{"nom":"GENERAL DE  GAULLE A","ag":["Réseau urbain TUB"],"lt":1,"dept":"24"}},{"type":"Feature","geometry":{"type":"Point","coordinates":[0.467,44.84245]},"properties":{"nom":"GENERAL DE GAULLE R","ag":["Réseau urbain TUB"],"lt":1,"dept":"24"}},{"type":"Feature","geometry":{"type":"Point","coordinates":[0.4792,44.84518]},"properties":{"nom":"POLE EMPLOI","ag":["Réseau urbain TUB"],"lt":1,"dept":"24"}},{"type":"Feature","geometry":{"type":"Point","coordinates":[0.48577,44.82571]},"properties":{"nom":"VALLADE SUD","ag":["Réseau urbain TUB"],"lt":1,"dept":"24"}},{"type":"Feature","geometry":{"type":"Point","coordinates":[0.47415,44.83525]},"properties":{"nom":"RTE DU COMBAL","ag":["Réseau urbain TUB"],"lt":1,"dept":"24"}},{"type":"Feature","geometry":{"type":"Point","coordinates":[0.48834,44.85694]},"properties":{"nom":"POLE MULTIMODAL SNCF","ag":["Réseau urbain TUB"],"lt":1,"dept":"24"}},{"type":"Feature","geometry":{"type":"Point","coordinates":[0.48854,44.85693]},"properties":{"nom":"GARE SNCF","ag":["Réseau urbain TUB"],"lt":1,"dept":"24"}},{"type":"Feature","geometry":{"type":"Point","coordinates":[0.40205,44.85658]},"properties":{"nom":"PRIGONRIEUX EGLISE A","ag":["Réseau urbain TUB"],"lt":1,"dept":"24"}},{"type":"Feature","geometry":{"type":"Point","coordinates":[0.37581,44.86733]},"properties":{"nom":"PLACE DE LA MAIRIE","ag":["Réseau urbain TUB"],"lt":1,"dept":"24"}},{"type":"Feature","geometry":{"type":"Point","coordinates":[0.3797,44.86962]},"properties":{"nom":"RUE DU PARC","ag":["Réseau urbain TUB"],"lt":1,"dept":"24"}},{"type":"Feature","geometry":{"type":"Point","coordinates":[0.46872,44.82874]},"properties":{"nom":"LES SARDINES","ag":["Réseau urbain TUB"],"lt":1,"dept":"24"}},{"type":"Feature","geometry":{"type":"Point","coordinates":[0.48218,44.84655]},"properties":{"nom":"LA MADELEINE BERGREEN","ag":["Réseau urbain TUB"],"lt":1,"dept":"24"}},{"type":"Feature","geometry":{"type":"Point","coordinates":[0.48142,44.84621]},"properties":{"nom":"LA MADELEINE G.CLEMENCEAU","ag":["Réseau urbain TUB"],"lt":1,"dept":"24"}},{"type":"Feature","geometry":{"type":"Point","coordinates":[0.48334,44.85347]},"properties":{"nom":"PLACE DE LATTRE DE TASSIGNY","ag":["Réseau urbain TUB"],"lt":1,"dept":"24"}},{"type":"Feature","geometry":{"type":"Point","coordinates":[0.45938,44.83905]},"properties":{"nom":"CROZES R","ag":["Réseau urbain TUB"],"lt":1,"dept":"24"}},{"type":"Feature","geometry":{"type":"Point","coordinates":[0.48318,44.8535]},"properties":{"nom":"MARCHE","ag":["Réseau urbain TUB"],"lt":1,"dept":"24"}},{"type":"Feature","geometry":{"type":"Point","coordinates":[0.47906,44.85551]},"properties":{"nom":"BD BEAUSOLEIL","ag":["Réseau urbain TUB"],"lt":1,"dept":"24"}},{"type":"Feature","geometry":{"type":"Point","coordinates":[0.49247,44.84405]},"properties":{"nom":"ESPACE J LAGABRIELLE","ag":["Réseau urbain TUB"],"lt":1,"dept":"24"}},{"type":"Feature","geometry":{"type":"Point","coordinates":[0.49794,44.84625]},"properties":{"nom":"Anatole France A","ag":["Réseau urbain TUB"],"lt":1,"dept":"24"}},{"type":"Feature","geometry":{"type":"Point","coordinates":[0.47866,44.83326]},"properties":{"nom":"LES MAURIGOUX","ag":["Réseau urbain TUB"],"lt":1,"dept":"24"}},{"type":"Feature","geometry":{"type":"Point","coordinates":[0.47613,44.85247]},"properties":{"nom":"AV A.BRIAND","ag":["Réseau urbain TUB"],"lt":1,"dept":"24"}},{"type":"Feature","geometry":{"type":"Point","coordinates":[0.48165,44.85055]},"properties":{"nom":"QUAI SALVETTE","ag":["Réseau urbain TUB"],"lt":1,"dept":"24"}},{"type":"Feature","geometry":{"type":"Point","coordinates":[0.48076,44.85576]},"properties":{"nom":"JEAN MOULIN","ag":["Réseau urbain TUB"],"lt":1,"dept":"24"}},{"type":"Feature","geometry":{"type":"Point","coordinates":[0.40213,44.85654]},"properties":{"nom":"PRIGONRIEUX EGLISE R","ag":["Réseau urbain TUB"],"lt":1,"dept":"24"}},{"type":"Feature","geometry":{"type":"Point","coordinates":[0.49539,44.84878]},"properties":{"nom":"GUILBAUD","ag":["Réseau urbain TUB"],"lt":1,"dept":"24"}},{"type":"Feature","geometry":{"type":"Point","coordinates":[0.47044,44.85233]},"properties":{"nom":"AV A.BRIAND","ag":["Réseau urbain TUB"],"lt":1,"dept":"24"}},{"type":"Feature","geometry":{"type":"Point","coordinates":[0.48751,44.84944]},"properties":{"nom":"LR BERGERAC-Place du Foirail (2)","ag":["Réseau urbain TUB"],"lt":1,"dept":"24"}},{"type":"Feature","geometry":{"type":"Point","coordinates":[0.48323,44.85569]},"properties":{"nom":"PLACE DE L'EUROPE","ag":["Réseau urbain TUB"],"lt":1,"dept":"24"}},{"type":"Feature","geometry":{"type":"Point","coordinates":[0.48092,44.84479]},"properties":{"nom":"ESPACE FRANCOIS MITTERAND D 933 3","ag":["Réseau urbain TUB"],"lt":1,"dept":"24"}},{"type":"Feature","geometry":{"type":"Point","coordinates":[0.38221,44.87388]},"properties":{"nom":"TIBERIADE","ag":["Réseau urbain TUB"],"lt":1,"dept":"24"}},{"type":"Feature","geometry":{"type":"Point","coordinates":[0.49136,44.8473]},"properties":{"nom":"M.BARRAT","ag":["Réseau urbain TUB"],"lt":1,"dept":"24"}},{"type":"Feature","geometry":{"type":"Point","coordinates":[0.54054,44.85102]},"properties":{"nom":"MAISON DE SANTE BERGERAC EST","ag":["Réseau urbain TUB"],"lt":1,"dept":"24"}},{"type":"Feature","geometry":{"type":"Point","coordinates":[0.47613,44.85247]},"properties":{"nom":"AV A.BRIAND (Loupias)","ag":["Réseau urbain TUB"],"lt":0,"dept":"24"}},{"type":"Feature","geometry":{"type":"Point","coordinates":[0.48318,44.8535]},"properties":{"nom":"MARCHE (place de Lattre)","ag":["Réseau urbain TUB"],"lt":0,"dept":"24"}},{"type":"Feature","geometry":{"type":"Point","coordinates":[0.47437,44.83509]},"properties":{"nom":"RTE DU COMBAL","ag":["Réseau urbain TUB"],"lt":0,"dept":"24"}},{"type":"Feature","geometry":{"type":"Point","coordinates":[0.46797,44.83395]},"properties":{"nom":"LE TOUNET","ag":["Réseau urbain TUB"],"lt":0,"dept":"24"}},{"type":"Feature","geometry":{"type":"Point","coordinates":[0.47545,44.84355]},"properties":{"nom":"JEAN CAPELLE","ag":["Réseau urbain TUB"],"lt":0,"dept":"24"}},{"type":"Feature","geometry":{"type":"Point","coordinates":[0.47534,44.84364]},"properties":{"nom":"JEAN CAPELLE","ag":["Réseau urbain TUB"],"lt":0,"dept":"24"}},{"type":"Feature","geometry":{"type":"Point","coordinates":[0.47892,44.83362]},"properties":{"nom":"LES MAURIGOUX","ag":["Réseau urbain TUB"],"lt":0,"dept":"24"}},{"type":"Feature","geometry":{"type":"Point","coordinates":[0.48953,44.85329]},"properties":{"nom":"JARDIN PERDOUX","ag":["Réseau urbain TUB"],"lt":0,"dept":"24"}},{"type":"Feature","geometry":{"type":"Point","coordinates":[0.46963,44.83111]},"properties":{"nom":"SAID ESCOLLA","ag":["Réseau urbain TUB"],"lt":0,"dept":"24"}},{"type":"Feature","geometry":{"type":"Point","coordinates":[0.49452,44.85433]},"properties":{"nom":"H.DUC","ag":["Réseau urbain TUB"],"lt":0,"dept":"24"}},{"type":"Feature","geometry":{"type":"Point","coordinates":[0.46794,44.83386]},"properties":{"nom":"LE TOUNET","ag":["Réseau urbain TUB"],"lt":0,"dept":"24"}},{"type":"Feature","geometry":{"type":"Point","coordinates":[0.48751,44.84944]},"properties":{"nom":"FOIRAIL 2","ag":["Réseau urbain TUB"],"lt":0,"dept":"24"}},{"type":"Feature","geometry":{"type":"Point","coordinates":[0.48826,44.84999]},"properties":{"nom":"FOIRAIL 1","ag":["Réseau urbain TUB"],"lt":0,"dept":"24"}},{"type":"Feature","geometry":{"type":"Point","coordinates":[0.47044,44.85233]},"properties":{"nom":"AV A.BRIAND (pharmacie)","ag":["Réseau urbain TUB"],"lt":0,"dept":"24"}},{"type":"Feature","geometry":{"type":"Point","coordinates":[0.48414,44.85564]},"properties":{"nom":"JULES FERRY","ag":["Réseau urbain TUB"],"lt":0,"dept":"24"}},{"type":"Feature","geometry":{"type":"Point","coordinates":[1.20559,44.90926]},"properties":{"nom":"Péchauriol - Pôle emploi","ag":["Réseau urbain Sarlat Bus"],"lt":0,"dept":"24"}},{"type":"Feature","geometry":{"type":"Point","coordinates":[1.20745,44.90554]},"properties":{"nom":"Le Périer","ag":["Réseau urbain Sarlat Bus"],"lt":0,"dept":"24"}},{"type":"Feature","geometry":{"type":"Point","coordinates":[1.21062,44.90031]},"properties":{"nom":"La Croix Rouge","ag":["Réseau urbain Sarlat Bus"],"lt":0,"dept":"24"}},{"type":"Feature","geometry":{"type":"Point","coordinates":[1.21287,44.89668]},"properties":{"nom":"La Poulgue","ag":["Réseau urbain Sarlat Bus"],"lt":0,"dept":"24"}},{"type":"Feature","geometry":{"type":"Point","coordinates":[1.21261,44.89449]},"properties":{"nom":"Cimetière","ag":["Réseau urbain Sarlat Bus"],"lt":0,"dept":"24"}},{"type":"Feature","geometry":{"type":"Point","coordinates":[1.21163,44.89122]},"properties":{"nom":"La Calprenède","ag":["Réseau urbain Sarlat Bus"],"lt":0,"dept":"24"}},{"type":"Feature","geometry":{"type":"Point","coordinates":[1.21482,44.89454]},"properties":{"nom":"Avenue de Selves","ag":["Réseau urbain Sarlat Bus"],"lt":0,"dept":"24"}},{"type":"Feature","geometry":{"type":"Point","coordinates":[1.21534,44.89249]},"properties":{"nom":"Place Marc Busson","ag":["Réseau urbain Sarlat Bus"],"lt":0,"dept":"24"}},{"type":"Feature","geometry":{"type":"Point","coordinates":[1.21442,44.88981]},"properties":{"nom":"Jules Ferry","ag":["Réseau urbain Sarlat Bus"],"lt":0,"dept":"24"}},{"type":"Feature","geometry":{"type":"Point","coordinates":[1.21575,44.88752]},"properties":{"nom":"Place du 14 Juillet","ag":["Réseau urbain Sarlat Bus"],"lt":0,"dept":"24"}},{"type":"Feature","geometry":{"type":"Point","coordinates":[1.21639,44.88539]},"properties":{"nom":"Résidence La Boétie","ag":["Réseau urbain Sarlat Bus"],"lt":0,"dept":"24"}},{"type":"Feature","geometry":{"type":"Point","coordinates":[1.21579,44.88243]},"properties":{"nom":"Collège La Boétie","ag":["Réseau urbain Sarlat Bus"],"lt":0,"dept":"24"}},{"type":"Feature","geometry":{"type":"Point","coordinates":[1.22011,44.87732]},"properties":{"nom":"La Gare","ag":["Réseau urbain Sarlat Bus"],"lt":0,"dept":"24"}},{"type":"Feature","geometry":{"type":"Point","coordinates":[1.21723,44.87785]},"properties":{"nom":"Le Pontet","ag":["Réseau urbain Sarlat Bus"],"lt":0,"dept":"24"}},{"type":"Feature","geometry":{"type":"Point","coordinates":[1.22196,44.87569]},"properties":{"nom":"Route du Lot","ag":["Réseau urbain Sarlat Bus"],"lt":0,"dept":"24"}},{"type":"Feature","geometry":{"type":"Point","coordinates":[1.2182,44.87298]},"properties":{"nom":"Roc Bayard","ag":["Réseau urbain Sarlat Bus"],"lt":0,"dept":"24"}},{"type":"Feature","geometry":{"type":"Point","coordinates":[1.22141,44.87228]},"properties":{"nom":"Le Sablou","ag":["Réseau urbain Sarlat Bus"],"lt":0,"dept":"24"}},{"type":"Feature","geometry":{"type":"Point","coordinates":[1.22501,44.87018]},"properties":{"nom":"La Giragne","ag":["Réseau urbain Sarlat Bus"],"lt":0,"dept":"24"}},{"type":"Feature","geometry":{"type":"Point","coordinates":[1.22859,44.86844]},"properties":{"nom":"Les Chênes Verts hauts","ag":["Réseau urbain Sarlat Bus"],"lt":0,"dept":"24"}},{"type":"Feature","geometry":{"type":"Point","coordinates":[1.2289,44.86956]},"properties":{"nom":"Les Chênes Verts bas","ag":["Réseau urbain Sarlat Bus"],"lt":0,"dept":"24"}},{"type":"Feature","geometry":{"type":"Point","coordinates":[1.23157,44.87008]},"properties":{"nom":"Avenue de la Canéda","ag":["Réseau urbain Sarlat Bus"],"lt":0,"dept":"24"}},{"type":"Feature","geometry":{"type":"Point","coordinates":[1.23127,44.86877]},"properties":{"nom":"Roc Laumier","ag":["Réseau urbain Sarlat Bus"],"lt":0,"dept":"24"}},{"type":"Feature","geometry":{"type":"Point","coordinates":[1.21423,44.90001]},"properties":{"nom":"La Brande Basse","ag":["Réseau urbain Sarlat Bus"],"lt":0,"dept":"24"}},{"type":"Feature","geometry":{"type":"Point","coordinates":[1.21565,44.89931]},"properties":{"nom":"La Brande Place","ag":["Réseau urbain Sarlat Bus"],"lt":0,"dept":"24"}},{"type":"Feature","geometry":{"type":"Point","coordinates":[1.21664,44.90023]},"properties":{"nom":"La Brande - Côte de Ravat","ag":["Réseau urbain Sarlat Bus"],"lt":0,"dept":"24"}},{"type":"Feature","geometry":{"type":"Point","coordinates":[1.21664,44.89771]},"properties":{"nom":"Place Sarrazin","ag":["Réseau urbain Sarlat Bus"],"lt":0,"dept":"24"}},{"type":"Feature","geometry":{"type":"Point","coordinates":[1.22124,44.89815]},"properties":{"nom":"Grogeac","ag":["Réseau urbain Sarlat Bus"],"lt":0,"dept":"24"}},{"type":"Feature","geometry":{"type":"Point","coordinates":[1.22051,44.89956]},"properties":{"nom":"Hôpital Psy","ag":["Réseau urbain Sarlat Bus"],"lt":0,"dept":"24"}},{"type":"Feature","geometry":{"type":"Point","coordinates":[1.2215,44.90088]},"properties":{"nom":"Le Pouget","ag":["Réseau urbain Sarlat Bus"],"lt":0,"dept":"24"}},{"type":"Feature","geometry":{"type":"Point","coordinates":[1.22341,44.90017]},"properties":{"nom":"Hôpital","ag":["Réseau urbain Sarlat Bus"],"lt":0,"dept":"24"}},{"type":"Feature","geometry":{"type":"Point","coordinates":[1.22369,44.90261]},"properties":{"nom":"La Garissade","ag":["Réseau urbain Sarlat Bus"],"lt":0,"dept":"24"}},{"type":"Feature","geometry":{"type":"Point","coordinates":[1.21513,44.89783]},"properties":{"nom":"Place Sarrazin","ag":["Réseau urbain Sarlat Bus"],"lt":0,"dept":"24"}},{"type":"Feature","geometry":{"type":"Point","coordinates":[1.22952,44.86544]},"properties":{"nom":"La Giragne Est","ag":["Réseau urbain Sarlat Bus"],"lt":0,"dept":"24"}},{"type":"Feature","geometry":{"type":"Point","coordinates":[1.22981,44.86002]},"properties":{"nom":"Coste rouge","ag":["Réseau urbain Sarlat Bus"],"lt":0,"dept":"24"}},{"type":"Feature","geometry":{"type":"Point","coordinates":[1.23252,44.85942]},"properties":{"nom":"Le Canebal","ag":["Réseau urbain Sarlat Bus"],"lt":0,"dept":"24"}},{"type":"Feature","geometry":{"type":"Point","coordinates":[1.23827,44.85809]},"properties":{"nom":"La Canéda","ag":["Réseau urbain Sarlat Bus"],"lt":0,"dept":"24"}},{"type":"Feature","geometry":{"type":"Point","coordinates":[1.23796,44.86016]},"properties":{"nom":"Lot Adenac","ag":["Réseau urbain Sarlat Bus"],"lt":0,"dept":"24"}},{"type":"Feature","geometry":{"type":"Point","coordinates":[1.23762,44.86292]},"properties":{"nom":"Gymnase","ag":["Réseau urbain Sarlat Bus"],"lt":0,"dept":"24"}},{"type":"Feature","geometry":{"type":"Point","coordinates":[1.23564,44.86601]},"properties":{"nom":"Maison Blanche","ag":["Réseau urbain Sarlat Bus"],"lt":0,"dept":"24"}},{"type":"Feature","geometry":{"type":"Point","coordinates":[1.20981,44.87233]},"properties":{"nom":"Vignéras","ag":["Réseau urbain Sarlat Bus"],"lt":0,"dept":"24"}},{"type":"Feature","geometry":{"type":"Point","coordinates":[1.20653,44.8705]},"properties":{"nom":"Lycée Pré de Cordy","ag":["Réseau urbain Sarlat Bus"],"lt":0,"dept":"24"}},{"type":"Feature","geometry":{"type":"Point","coordinates":[1.21207,44.87452]},"properties":{"nom":"Avenue de la Dordogne","ag":["Réseau urbain Sarlat Bus"],"lt":0,"dept":"24"}},{"type":"Feature","geometry":{"type":"Point","coordinates":[1.23169,44.86998]},"properties":{"nom":"Avenue de la Canéda","ag":["Réseau urbain Sarlat Bus"],"lt":0,"dept":"24"}},{"type":"Feature","geometry":{"type":"Point","coordinates":[1.2175,44.87798]},"properties":{"nom":"Le Pontet","ag":["Réseau urbain Sarlat Bus"],"lt":0,"dept":"24"}},{"type":"Feature","geometry":{"type":"Point","coordinates":[1.21703,44.88084]},"properties":{"nom":"Avenue A. Briand","ag":["Réseau urbain Sarlat Bus"],"lt":0,"dept":"24"}},{"type":"Feature","geometry":{"type":"Point","coordinates":[1.2176,44.88257]},"properties":{"nom":"Avenue Thiers","ag":["Réseau urbain Sarlat Bus"],"lt":0,"dept":"24"}},{"type":"Feature","geometry":{"type":"Point","coordinates":[1.21683,44.88662]},"properties":{"nom":"Place Pasteur","ag":["Réseau urbain Sarlat Bus"],"lt":0,"dept":"24"}},{"type":"Feature","geometry":{"type":"Point","coordinates":[1.21853,44.88769]},"properties":{"nom":"Le Plantier","ag":["Réseau urbain Sarlat Bus"],"lt":0,"dept":"24"}},{"type":"Feature","geometry":{"type":"Point","coordinates":[1.21888,44.89043]},"properties":{"nom":"La Bouquerie","ag":["Réseau urbain Sarlat Bus"],"lt":0,"dept":"24"}},{"type":"Feature","geometry":{"type":"Point","coordinates":[1.21306,44.89774]},"properties":{"nom":"La Poulgue","ag":["Réseau urbain Sarlat Bus"],"lt":0,"dept":"24"}},{"type":"Feature","geometry":{"type":"Point","coordinates":[1.2257,44.88172]},"properties":{"nom":"Chemin de la Trappe","ag":["Réseau urbain Sarlat Bus"],"lt":0,"dept":"24"}},{"type":"Feature","geometry":{"type":"Point","coordinates":[1.22867,44.88451]},"properties":{"nom":"Les Pechs","ag":["Réseau urbain Sarlat Bus"],"lt":0,"dept":"24"}},{"type":"Feature","geometry":{"type":"Point","coordinates":[1.23024,44.88679]},"properties":{"nom":"Croisement des Pechs","ag":["Réseau urbain Sarlat Bus"],"lt":0,"dept":"24"}},{"type":"Feature","geometry":{"type":"Point","coordinates":[1.23517,44.88959]},"properties":{"nom":"Château Trompette","ag":["Réseau urbain Sarlat Bus"],"lt":0,"dept":"24"}},{"type":"Feature","geometry":{"type":"Point","coordinates":[1.23428,44.88733]},"properties":{"nom":"La Croix","ag":["Réseau urbain Sarlat Bus"],"lt":0,"dept":"24"}},{"type":"Feature","geometry":{"type":"Point","coordinates":[1.22231,44.89044]},"properties":{"nom":"La Colline","ag":["Réseau urbain Sarlat Bus"],"lt":0,"dept":"24"}},{"type":"Feature","geometry":{"type":"Point","coordinates":[1.22021,44.88964]},"properties":{"nom":"Maison de retraite","ag":["Réseau urbain Sarlat Bus"],"lt":0,"dept":"24"}},{"type":"Feature","geometry":{"type":"Point","coordinates":[1.21926,44.88408]},"properties":{"nom":"Rue Gallière","ag":["Réseau urbain Sarlat Bus"],"lt":0,"dept":"24"}},{"type":"Feature","geometry":{"type":"Point","coordinates":[1.22231,44.88386]},"properties":{"nom":"La Trappe","ag":["Réseau urbain Sarlat Bus"],"lt":0,"dept":"24"}},{"type":"Feature","geometry":{"type":"Point","coordinates":[1.22738,44.89375]},"properties":{"nom":"Camping Les Perrières","ag":["Réseau urbain Sarlat Bus"],"lt":0,"dept":"24"}},{"type":"Feature","geometry":{"type":"Point","coordinates":[1.2305,44.8969]},"properties":{"nom":"La Vigne du Foussat","ag":["Réseau urbain Sarlat Bus"],"lt":0,"dept":"24"}},{"type":"Feature","geometry":{"type":"Point","coordinates":[1.23267,44.90112]},"properties":{"nom":"La Croix d'Allon","ag":["Réseau urbain Sarlat Bus"],"lt":0,"dept":"24"}},{"type":"Feature","geometry":{"type":"Point","coordinates":[1.22213,44.90569]},"properties":{"nom":"Côte de Caubesse","ag":["Réseau urbain Sarlat Bus"],"lt":0,"dept":"24"}},{"type":"Feature","geometry":{"type":"Point","coordinates":[1.21335,44.91104]},"properties":{"nom":"Temniac","ag":["Réseau urbain Sarlat Bus"],"lt":0,"dept":"24"}},{"type":"Feature","geometry":{"type":"Point","coordinates":[1.20704,44.92162]},"properties":{"nom":"Les Presses","ag":["Réseau urbain Sarlat Bus"],"lt":0,"dept":"24"}},{"type":"Feature","geometry":{"type":"Point","coordinates":[1.20564,44.90923]},"properties":{"nom":"Péchauriol","ag":["Réseau urbain Sarlat Bus"],"lt":0,"dept":"24"}},{"type":"Feature","geometry":{"type":"Point","coordinates":[1.21056,44.88831]},"properties":{"nom":"Le Breuil","ag":["Réseau urbain Sarlat Bus"],"lt":0,"dept":"24"}},{"type":"Feature","geometry":{"type":"Point","coordinates":[1.21487,44.89456]},"properties":{"nom":"Avenue de Selves","ag":["Réseau urbain Sarlat Bus"],"lt":0,"dept":"24"}},{"type":"Feature","geometry":{"type":"Point","coordinates":[0.59161,45.17329]},"properties":{"nom":"Annesse et Beaulieu bourg","ag":["Réseau urbain Péribus"],"lt":1,"dept":"24"}},{"type":"Feature","geometry":{"type":"Point","coordinates":[0.63986,45.19754]},"properties":{"nom":"Lespinasse Haute","ag":["Réseau urbain Péribus"],"lt":1,"dept":"24"}},{"type":"Feature","geometry":{"type":"Point","coordinates":[0.66558,45.14541]},"properties":{"nom":"Les Andrieux","ag":["Réseau urbain Péribus"],"lt":1,"dept":"24"}},{"type":"Feature","geometry":{"type":"Point","coordinates":[0.56095,45.22524]},"properties":{"nom":"Mensignac bourg","ag":["Réseau urbain Péribus"],"lt":1,"dept":"24"}},{"type":"Feature","geometry":{"type":"Point","coordinates":[0.64376,45.19673]},"properties":{"nom":"Chem. de Lespinasse","ag":["Réseau urbain Péribus"],"lt":1,"dept":"24"}},{"type":"Feature","geometry":{"type":"Point","coordinates":[0.7999,45.13119]},"properties":{"nom":"Porte Corgne","ag":["Réseau urbain Péribus"],"lt":1,"dept":"24"}},{"type":"Feature","geometry":{"type":"Point","coordinates":[0.66124,45.20679]},"properties":{"nom":"Curille","ag":["Réseau urbain Péribus"],"lt":1,"dept":"24"}},{"type":"Feature","geometry":{"type":"Point","coordinates":[0.55369,45.22142]},"properties":{"nom":"la Croix Blanche","ag":["Réseau urbain Péribus"],"lt":1,"dept":"24"}},{"type":"Feature","geometry":{"type":"Point","coordinates":[0.64757,45.1927]},"properties":{"nom":"Al. des Sports","ag":["Réseau urbain Péribus"],"lt":1,"dept":"24"}},{"type":"Feature","geometry":{"type":"Point","coordinates":[0.69042,45.14516]},"properties":{"nom":"Place du Cerf","ag":["Réseau urbain Péribus"],"lt":1,"dept":"24"}},{"type":"Feature","geometry":{"type":"Point","coordinates":[0.79717,45.1263]},"properties":{"nom":"Le Poureix","ag":["Réseau urbain Péribus"],"lt":1,"dept":"24"}},{"type":"Feature","geometry":{"type":"Point","coordinates":[0.68893,45.15216]},"properties":{"nom":"Les Eglantiers Hauts","ag":["Réseau urbain Péribus"],"lt":1,"dept":"24"}},{"type":"Feature","geometry":{"type":"Point","coordinates":[0.78928,45.15244]},"properties":{"nom":"ZA Grand Font","ag":["Réseau urbain Péribus"],"lt":1,"dept":"24"}},{"type":"Feature","geometry":{"type":"Point","coordinates":[0.63836,45.19574]},"properties":{"nom":"Chancelade Lespinasse","ag":["Réseau urbain Péribus"],"lt":1,"dept":"24"}},{"type":"Feature","geometry":{"type":"Point","coordinates":[0.74574,45.18443]},"properties":{"nom":"Ecole Joliot Curie","ag":["Réseau urbain Péribus"],"lt":1,"dept":"24"}},{"type":"Feature","geometry":{"type":"Point","coordinates":[0.64814,45.21941]},"properties":{"nom":"Le Ligonat","ag":["Réseau urbain Péribus"],"lt":1,"dept":"24"}},{"type":"Feature","geometry":{"type":"Point","coordinates":[0.71179,45.18025]},"properties":{"nom":"Trésorerie Municipale","ag":["Réseau urbain Péribus"],"lt":1,"dept":"24"}},{"type":"Feature","geometry":{"type":"Point","coordinates":[0.65052,45.20596]},"properties":{"nom":"Chem. de Terrassonnie","ag":["Réseau urbain Péribus"],"lt":1,"dept":"24"}},{"type":"Feature","geometry":{"type":"Point","coordinates":[0.83346,45.26854]},"properties":{"nom":"Sorges - Les 4 routes","ag":["Réseau urbain Péribus"],"lt":1,"dept":"24"}},{"type":"Feature","geometry":{"type":"Point","coordinates":[0.69054,45.14839]},"properties":{"nom":"Les Crouchaux","ag":["Réseau urbain Péribus"],"lt":1,"dept":"24"}},{"type":"Feature","geometry":{"type":"Point","coordinates":[0.66598,45.2058]},"properties":{"nom":"Al. des Bois","ag":["Réseau urbain Péribus"],"lt":1,"dept":"24"}},{"type":"Feature","geometry":{"type":"Point","coordinates":[0.61255,45.231]},"properties":{"nom":"La Chapelle Gonaguet - Bourg","ag":["Réseau urbain Péribus"],"lt":1,"dept":"24"}},{"type":"Feature","geometry":{"type":"Point","coordinates":[0.64998,45.19851]},"properties":{"nom":"Majourdin","ag":["Réseau urbain Péribus"],"lt":1,"dept":"24"}},{"type":"Feature","geometry":{"type":"Point","coordinates":[0.86065,45.30065]},"properties":{"nom":"Sorges - Le Clapier","ag":["Réseau urbain Péribus"],"lt":1,"dept":"24"}},{"type":"Feature","geometry":{"type":"Point","coordinates":[0.69806,45.14494]},"properties":{"nom":"Pôle Interconsulaire","ag":["Réseau urbain Péribus"],"lt":1,"dept":"24"}},{"type":"Feature","geometry":{"type":"Point","coordinates":[0.64411,45.20417]},"properties":{"nom":"Terrassonnie Village","ag":["Réseau urbain Péribus"],"lt":1,"dept":"24"}},{"type":"Feature","geometry":{"type":"Point","coordinates":[0.86503,45.30867]},"properties":{"nom":"Sorges - Les Palissous","ag":["Réseau urbain Péribus"],"lt":1,"dept":"24"}},{"type":"Feature","geometry":{"type":"Point","coordinates":[0.73016,45.18728]},"properties":{"nom":"Les Prés","ag":["Réseau urbain Péribus"],"lt":1,"dept":"24"}},{"type":"Feature","geometry":{"type":"Point","coordinates":[0.6794,45.20971]},"properties":{"nom":"Puy Ferrat","ag":["Réseau urbain Péribus"],"lt":1,"dept":"24"}},{"type":"Feature","geometry":{"type":"Point","coordinates":[0.81995,45.25957]},"properties":{"nom":"Sorges - Les Potences 2","ag":["Réseau urbain Péribus"],"lt":1,"dept":"24"}},{"type":"Feature","geometry":{"type":"Point","coordinates":[0.7337,45.18815]},"properties":{"nom":"Charnay Frachet","ag":["Réseau urbain Péribus"],"lt":1,"dept":"24"}},{"type":"Feature","geometry":{"type":"Point","coordinates":[0.8267,45.26245]},"properties":{"nom":"Sorges - Les Potences","ag":["Réseau urbain Péribus"],"lt":1,"dept":"24"}},{"type":"Feature","geometry":{"type":"Point","coordinates":[0.67766,45.21617]},"properties":{"nom":"Lavaure Haute","ag":["Réseau urbain Péribus"],"lt":1,"dept":"24"}},{"type":"Feature","geometry":{"type":"Point","coordinates":[0.73857,45.18538]},"properties":{"nom":"Parmentier","ag":["Réseau urbain Péribus"],"lt":1,"dept":"24"}},{"type":"Feature","geometry":{"type":"Point","coordinates":[0.65299,45.21975]},"properties":{"nom":"Al. des Fauvettes","ag":["Réseau urbain Péribus"],"lt":1,"dept":"24"}},{"type":"Feature","geometry":{"type":"Point","coordinates":[0.81139,45.25231]},"properties":{"nom":"Les Piles","ag":["Réseau urbain Péribus"],"lt":1,"dept":"24"}},{"type":"Feature","geometry":{"type":"Point","coordinates":[0.73822,45.18618]},"properties":{"nom":"Le Gué de Barnabé","ag":["Réseau urbain Péribus"],"lt":1,"dept":"24"}},{"type":"Feature","geometry":{"type":"Point","coordinates":[0.66765,45.2131]},"properties":{"nom":"Parricot","ag":["Réseau urbain Péribus"],"lt":1,"dept":"24"}},{"type":"Feature","geometry":{"type":"Point","coordinates":[0.65366,45.1968]},"properties":{"nom":"Rte de Ribérac","ag":["Réseau urbain Péribus"],"lt":1,"dept":"24"}},{"type":"Feature","geometry":{"type":"Point","coordinates":[0.7823,45.24198]},"properties":{"nom":"La Luminade","ag":["Réseau urbain Péribus"],"lt":1,"dept":"24"}},{"type":"Feature","geometry":{"type":"Point","coordinates":[0.78307,45.19568]},"properties":{"nom":"LR TRELISSAC - Les Garennes","ag":["Réseau urbain Péribus","Réseau interurbain - Dordogne (24)"],"lt":1,"dept":"24"}},{"type":"Feature","geometry":{"type":"Point","coordinates":[0.66992,45.19792]},"properties":{"nom":"Bd de Saltgourde","ag":["Réseau urbain Péribus"],"lt":1,"dept":"24"}},{"type":"Feature","geometry":{"type":"Point","coordinates":[0.78425,45.23608]},"properties":{"nom":"Lacombe","ag":["Réseau urbain Péribus"],"lt":1,"dept":"24"}},{"type":"Feature","geometry":{"type":"Point","coordinates":[0.68035,45.213]},"properties":{"nom":"Puy de l'Arche","ag":["Réseau urbain Péribus"],"lt":1,"dept":"24"}},{"type":"Feature","geometry":{"type":"Point","coordinates":[0.8503,45.28563]},"properties":{"nom":"Sorges - Les Chabannes","ag":["Réseau urbain Péribus"],"lt":1,"dept":"24"}},{"type":"Feature","geometry":{"type":"Point","coordinates":[0.66605,45.19476]},"properties":{"nom":"Av. du Château","ag":["Réseau urbain Péribus"],"lt":1,"dept":"24"}},{"type":"Feature","geometry":{"type":"Point","coordinates":[0.64657,45.2156]},"properties":{"nom":"Les Alisiers","ag":["Réseau urbain Péribus"],"lt":1,"dept":"24"}},{"type":"Feature","geometry":{"type":"Point","coordinates":[0.871,45.30784]},"properties":{"nom":"Sorges - Bourg Place Mallet","ag":["Réseau urbain Péribus"],"lt":1,"dept":"24"}},{"type":"Feature","geometry":{"type":"Point","coordinates":[0.72853,45.17973]},"properties":{"nom":"Église St-Georges","ag":["Réseau urbain Péribus"],"lt":1,"dept":"24"}},{"type":"Feature","geometry":{"type":"Point","coordinates":[0.65827,45.20905]},"properties":{"nom":"Le Charpré","ag":["Réseau urbain Péribus"],"lt":1,"dept":"24"}},{"type":"Feature","geometry":{"type":"Point","coordinates":[0.67217,45.21769]},"properties":{"nom":"Lavaure Basse","ag":["Réseau urbain Péribus"],"lt":1,"dept":"24"}},{"type":"Feature","geometry":{"type":"Point","coordinates":[0.73011,45.18546]},"properties":{"nom":"Les Mondoux","ag":["Réseau urbain Péribus"],"lt":1,"dept":"24"}},{"type":"Feature","geometry":{"type":"Point","coordinates":[0.65016,45.21376]},"properties":{"nom":"Les Bruyères","ag":["Réseau urbain Péribus"],"lt":1,"dept":"24"}},{"type":"Feature","geometry":{"type":"Point","coordinates":[0.87154,45.32314]},"properties":{"nom":"Sorges - Le Poteau","ag":["Réseau urbain Péribus"],"lt":1,"dept":"24"}},{"type":"Feature","geometry":{"type":"Point","coordinates":[0.73536,45.18589]},"properties":{"nom":"Albert Martin","ag":["Réseau urbain Péribus"],"lt":1,"dept":"24"}},{"type":"Feature","geometry":{"type":"Point","coordinates":[0.64646,45.21334]},"properties":{"nom":"Bois Ouest","ag":["Réseau urbain Péribus"],"lt":1,"dept":"24"}},{"type":"Feature","geometry":{"type":"Point","coordinates":[0.66085,45.18792]},"properties":{"nom":"Marsac Piscine","ag":["Réseau urbain Péribus"],"lt":1,"dept":"24"}},{"type":"Feature","geometry":{"type":"Point","coordinates":[0.71045,45.20176]},"properties":{"nom":"Puyrousseau","ag":["Réseau urbain Péribus"],"lt":1,"dept":"24"}},{"type":"Feature","geometry":{"type":"Point","coordinates":[0.75123,45.26299]},"properties":{"nom":"Les Broudissoux","ag":["Réseau urbain Péribus"],"lt":1,"dept":"24"}},{"type":"Feature","geometry":{"type":"Point","coordinates":[0.72642,45.19842]},"properties":{"nom":"La Rudeille","ag":["Réseau urbain Péribus"],"lt":1,"dept":"24"}},{"type":"Feature","geometry":{"type":"Point","coordinates":[0.74982,45.26782]},"properties":{"nom":"Le Pouliquet","ag":["Réseau urbain Péribus"],"lt":1,"dept":"24"}},{"type":"Feature","geometry":{"type":"Point","coordinates":[0.71446,45.20743]},"properties":{"nom":"Maison Rouge","ag":["Réseau urbain Péribus"],"lt":1,"dept":"24"}},{"type":"Feature","geometry":{"type":"Point","coordinates":[0.73796,44.95904]},"properties":{"nom":"Saint Laurent des Bâtons - Ecole","ag":["Réseau urbain Péribus"],"lt":1,"dept":"24"}},{"type":"Feature","geometry":{"type":"Point","coordinates":[0.75108,45.29132]},"properties":{"nom":"Agonac Bourg","ag":["Réseau urbain Péribus"],"lt":1,"dept":"24"}},{"type":"Feature","geometry":{"type":"Point","coordinates":[0.74363,45.20187]},"properties":{"nom":"Chantecor","ag":["Réseau urbain Péribus"],"lt":1,"dept":"24"}},{"type":"Feature","geometry":{"type":"Point","coordinates":[0.7155,45.20608]},"properties":{"nom":"Les Jaures","ag":["Réseau urbain Péribus"],"lt":1,"dept":"24"}},{"type":"Feature","geometry":{"type":"Point","coordinates":[0.7526,45.28901]},"properties":{"nom":"Agonac - Salle des fetes","ag":["Réseau urbain Péribus"],"lt":1,"dept":"24"}},{"type":"Feature","geometry":{"type":"Point","coordinates":[0.81102,44.94727]},"properties":{"nom":"Saint Alvère - Ecole","ag":["Réseau urbain Péribus"],"lt":1,"dept":"24"}},{"type":"Feature","geometry":{"type":"Point","coordinates":[0.81867,44.99499]},"properties":{"nom":"Cendrieux - Ecole","ag":["Réseau urbain Péribus"],"lt":1,"dept":"24"}},{"type":"Feature","geometry":{"type":"Point","coordinates":[0.74721,45.28701]},"properties":{"nom":"Agonac Gare","ag":["Réseau urbain Péribus"],"lt":1,"dept":"24"}},{"type":"Feature","geometry":{"type":"Point","coordinates":[0.71766,45.18864]},"properties":{"nom":"Victor Hugo","ag":["Réseau urbain Péribus"],"lt":1,"dept":"24"}},{"type":"Feature","geometry":{"type":"Point","coordinates":[0.6294,45.22007]},"properties":{"nom":"Kourlouze","ag":["Réseau urbain Péribus"],"lt":1,"dept":"24"}},{"type":"Feature","geometry":{"type":"Point","coordinates":[0.71813,45.19711]},"properties":{"nom":"Campus","ag":["Réseau urbain Péribus"],"lt":1,"dept":"24"}},{"type":"Feature","geometry":{"type":"Point","coordinates":[0.70591,45.19633]},"properties":{"nom":"Le Cluzeau","ag":["Réseau urbain Péribus"],"lt":1,"dept":"24"}},{"type":"Feature","geometry":{"type":"Point","coordinates":[0.7265,45.24217]},"properties":{"nom":"Sourbarie","ag":["Réseau urbain Péribus"],"lt":1,"dept":"24"}},{"type":"Feature","geometry":{"type":"Point","coordinates":[0.61456,45.212]},"properties":{"nom":"Les Basses Veyrinas","ag":["Réseau urbain Péribus"],"lt":1,"dept":"24"}},{"type":"Feature","geometry":{"type":"Point","coordinates":[0.72323,45.19511]},"properties":{"nom":"L'Ermitage","ag":["Réseau urbain Péribus"],"lt":1,"dept":"24"}},{"type":"Feature","geometry":{"type":"Point","coordinates":[0.70299,45.21603]},"properties":{"nom":"Les Granges","ag":["Réseau urbain Péribus"],"lt":1,"dept":"24"}},{"type":"Feature","geometry":{"type":"Point","coordinates":[0.72139,45.19135]},"properties":{"nom":"Combe des Dames","ag":["Réseau urbain Péribus"],"lt":1,"dept":"24"}},{"type":"Feature","geometry":{"type":"Point","coordinates":[0.69693,45.20355]},"properties":{"nom":"Le Toulon","ag":["Réseau urbain Péribus"],"lt":1,"dept":"24"}},{"type":"Feature","geometry":{"type":"Point","coordinates":[0.72642,45.20887]},"properties":{"nom":"Longueville","ag":["Réseau urbain Péribus"],"lt":1,"dept":"24"}},{"type":"Feature","geometry":{"type":"Point","coordinates":[0.61626,45.23388]},"properties":{"nom":"Hangar Municipal","ag":["Réseau urbain Péribus"],"lt":1,"dept":"24"}},{"type":"Feature","geometry":{"type":"Point","coordinates":[0.72022,45.19448]},"properties":{"nom":"Pôle Universitaire Grenadière","ag":["Réseau urbain Péribus"],"lt":1,"dept":"24"}},{"type":"Feature","geometry":{"type":"Point","coordinates":[0.63704,45.24282]},"properties":{"nom":"Le Puy de Merlande","ag":["Réseau urbain Péribus"],"lt":1,"dept":"24"}},{"type":"Feature","geometry":{"type":"Point","coordinates":[0.72058,45.19835]},"properties":{"nom":"Boisset","ag":["Réseau urbain Péribus"],"lt":1,"dept":"24"}},{"type":"Feature","geometry":{"type":"Point","coordinates":[0.61001,45.23149]},"properties":{"nom":"Chapelle Gonaguet Ecole","ag":["Réseau urbain Péribus"],"lt":1,"dept":"24"}},{"type":"Feature","geometry":{"type":"Point","coordinates":[0.72528,45.20223]},"properties":{"nom":"Barbe","ag":["Réseau urbain Péribus"],"lt":1,"dept":"24"}},{"type":"Feature","geometry":{"type":"Point","coordinates":[0.61996,45.22853]},"properties":{"nom":"Croix de Biras","ag":["Réseau urbain Péribus"],"lt":1,"dept":"24"}},{"type":"Feature","geometry":{"type":"Point","coordinates":[0.63467,45.21635]},"properties":{"nom":"Les Brunies","ag":["Réseau urbain Péribus"],"lt":1,"dept":"24"}},{"type":"Feature","geometry":{"type":"Point","coordinates":[0.71341,45.19152]},"properties":{"nom":"Ludovic Trarieux","ag":["Réseau urbain Péribus"],"lt":1,"dept":"24"}},{"type":"Feature","geometry":{"type":"Point","coordinates":[0.61636,45.22979]},"properties":{"nom":"Epicerie","ag":["Réseau urbain Péribus"],"lt":1,"dept":"24"}},{"type":"Feature","geometry":{"type":"Point","coordinates":[0.8081,45.13812]},"properties":{"nom":"Halte Niversac","ag":["Réseau urbain Péribus"],"lt":1,"dept":"24"}},{"type":"Feature","geometry":{"type":"Point","coordinates":[0.71452,45.1926]},"properties":{"nom":"Ampère","ag":["Réseau urbain Péribus"],"lt":1,"dept":"24"}},{"type":"Feature","geometry":{"type":"Point","coordinates":[0.7389,45.17828]},"properties":{"nom":"La Croix Bertrix","ag":["Réseau urbain Péribus"],"lt":1,"dept":"24"}},{"type":"Feature","geometry":{"type":"Point","coordinates":[0.75612,45.17791]},"properties":{"nom":"Les Hauts de l'Agora","ag":["Réseau urbain Péribus"],"lt":1,"dept":"24"}},{"type":"Feature","geometry":{"type":"Point","coordinates":[0.79802,45.11916]},"properties":{"nom":"Basse Faye","ag":["Réseau urbain Péribus"],"lt":1,"dept":"24"}},{"type":"Feature","geometry":{"type":"Point","coordinates":[0.71718,45.19064]},"properties":{"nom":"Beaulieu","ag":["Réseau urbain Péribus"],"lt":1,"dept":"24"}},{"type":"Feature","geometry":{"type":"Point","coordinates":[0.61805,45.21816]},"properties":{"nom":"Les Genets","ag":["Réseau urbain Péribus"],"lt":1,"dept":"24"}},{"type":"Feature","geometry":{"type":"Point","coordinates":[0.71913,45.19233]},"properties":{"nom":"Blaise Pascal","ag":["Réseau urbain Péribus"],"lt":1,"dept":"24"}},{"type":"Feature","geometry":{"type":"Point","coordinates":[0.62121,45.24311]},"properties":{"nom":"Les Jalajoux","ag":["Réseau urbain Péribus"],"lt":1,"dept":"24"}},{"type":"Feature","geometry":{"type":"Point","coordinates":[0.65688,45.12072]},"properties":{"nom":"Fontaine des Privats","ag":["Réseau urbain Péribus"],"lt":1,"dept":"24"}},{"type":"Feature","geometry":{"type":"Point","coordinates":[0.66657,45.07686]},"properties":{"nom":"Creyssensac - Cimetière","ag":["Réseau urbain Péribus"],"lt":1,"dept":"24"}},{"type":"Feature","geometry":{"type":"Point","coordinates":[0.64928,45.12206]},"properties":{"nom":"Rte des Privats2","ag":["Réseau urbain Péribus"],"lt":1,"dept":"24"}},{"type":"Feature","geometry":{"type":"Point","coordinates":[0.87501,45.30856]},"properties":{"nom":"Sorges - Ecole Place COOP","ag":["Réseau urbain Péribus"],"lt":1,"dept":"24"}},{"type":"Feature","geometry":{"type":"Point","coordinates":[0.72653,45.16384]},"properties":{"nom":"Les Falots","ag":["Réseau urbain Péribus"],"lt":1,"dept":"24"}},{"type":"Feature","geometry":{"type":"Point","coordinates":[0.65025,45.08406]},"properties":{"nom":"Creyssensac - Les Graves","ag":["Réseau urbain Péribus"],"lt":1,"dept":"24"}},{"type":"Feature","geometry":{"type":"Point","coordinates":[0.64128,45.1187]},"properties":{"nom":"Residence la Morine","ag":["Réseau urbain Péribus"],"lt":1,"dept":"24"}},{"type":"Feature","geometry":{"type":"Point","coordinates":[0.87376,45.27011]},"properties":{"nom":"Sorges - Bujadelles","ag":["Réseau urbain Péribus"],"lt":1,"dept":"24"}},{"type":"Feature","geometry":{"type":"Point","coordinates":[0.73448,45.16603]},"properties":{"nom":"Chantelot","ag":["Réseau urbain Péribus"],"lt":1,"dept":"24"}},{"type":"Feature","geometry":{"type":"Point","coordinates":[0.77838,45.20359]},"properties":{"nom":"Paumarélie","ag":["Réseau urbain Péribus"],"lt":1,"dept":"24"}},{"type":"Feature","geometry":{"type":"Point","coordinates":[0.63961,45.14645]},"properties":{"nom":"Le Cerf de Memie","ag":["Réseau urbain Péribus"],"lt":1,"dept":"24"}},{"type":"Feature","geometry":{"type":"Point","coordinates":[0.72785,45.1524]},"properties":{"nom":"Le Lac Blanc","ag":["Réseau urbain Péribus"],"lt":1,"dept":"24"}},{"type":"Feature","geometry":{"type":"Point","coordinates":[0.79619,45.18066]},"properties":{"nom":"Jaunour","ag":["Réseau urbain Péribus"],"lt":1,"dept":"24"}},{"type":"Feature","geometry":{"type":"Point","coordinates":[0.62697,45.1067]},"properties":{"nom":"Coupe-Gorge","ag":["Réseau urbain Péribus"],"lt":1,"dept":"24"}},{"type":"Feature","geometry":{"type":"Point","coordinates":[0.73069,45.15855]},"properties":{"nom":"Duverger","ag":["Réseau urbain Péribus"],"lt":1,"dept":"24"}},{"type":"Feature","geometry":{"type":"Point","coordinates":[0.78737,45.20845]},"properties":{"nom":"Les Maravals","ag":["Réseau urbain Péribus"],"lt":1,"dept":"24"}},{"type":"Feature","geometry":{"type":"Point","coordinates":[0.63498,45.14165]},"properties":{"nom":"Le Lac Rouge","ag":["Réseau urbain Péribus"],"lt":1,"dept":"24"}},{"type":"Feature","geometry":{"type":"Point","coordinates":[0.73476,45.16314]},"properties":{"nom":"Les Hauts de Pommier","ag":["Réseau urbain Péribus"],"lt":1,"dept":"24"}},{"type":"Feature","geometry":{"type":"Point","coordinates":[0.77692,45.20661]},"properties":{"nom":"Les Pinots","ag":["Réseau urbain Péribus"],"lt":1,"dept":"24"}},{"type":"Feature","geometry":{"type":"Point","coordinates":[0.63876,45.11049]},"properties":{"nom":"Volvey","ag":["Réseau urbain Péribus"],"lt":1,"dept":"24"}},{"type":"Feature","geometry":{"type":"Point","coordinates":[0.73607,45.14349]},"properties":{"nom":"Guillaume Apollinaire","ag":["Réseau urbain Péribus"],"lt":1,"dept":"24"}},{"type":"Feature","geometry":{"type":"Point","coordinates":[0.78692,45.17588]},"properties":{"nom":"Bauchaud","ag":["Réseau urbain Péribus"],"lt":1,"dept":"24"}},{"type":"Feature","geometry":{"type":"Point","coordinates":[0.63771,45.11509]},"properties":{"nom":"Maison Jeannette","ag":["Réseau urbain Péribus"],"lt":1,"dept":"24"}},{"type":"Feature","geometry":{"type":"Point","coordinates":[0.74791,45.14021]},"properties":{"nom":"Atur Bourg","ag":["Réseau urbain Péribus"],"lt":1,"dept":"24"}},{"type":"Feature","geometry":{"type":"Point","coordinates":[0.78818,45.17272]},"properties":{"nom":"Combe Neuve","ag":["Réseau urbain Péribus"],"lt":1,"dept":"24"}},{"type":"Feature","geometry":{"type":"Point","coordinates":[0.77387,45.17292]},"properties":{"nom":"Lescure","ag":["Réseau urbain Péribus"],"lt":1,"dept":"24"}},{"type":"Feature","geometry":{"type":"Point","coordinates":[0.64694,45.12212]},"properties":{"nom":"Rte des Privats1","ag":["Réseau urbain Péribus"],"lt":1,"dept":"24"}},{"type":"Feature","geometry":{"type":"Point","coordinates":[0.73361,45.16954]},"properties":{"nom":"La Turcade","ag":["Réseau urbain Péribus"],"lt":1,"dept":"24"}},{"type":"Feature","geometry":{"type":"Point","coordinates":[0.77803,45.18158]},"properties":{"nom":"Campus de la Formation","ag":["Réseau urbain Péribus"],"lt":1,"dept":"24"}},{"type":"Feature","geometry":{"type":"Point","coordinates":[0.64058,45.12536]},"properties":{"nom":"Coursac Ecole","ag":["Réseau urbain Péribus"],"lt":1,"dept":"24"}},{"type":"Feature","geometry":{"type":"Point","coordinates":[0.73241,45.17279]},"properties":{"nom":"Les Pins","ag":["Réseau urbain Péribus"],"lt":1,"dept":"24"}},{"type":"Feature","geometry":{"type":"Point","coordinates":[0.79205,45.20977]},"properties":{"nom":"Gabriel Péri","ag":["Réseau urbain Péribus"],"lt":1,"dept":"24"}},{"type":"Feature","geometry":{"type":"Point","coordinates":[0.72916,45.15673]},"properties":{"nom":"Pommier","ag":["Réseau urbain Péribus"],"lt":1,"dept":"24"}},{"type":"Feature","geometry":{"type":"Point","coordinates":[0.79194,45.21261]},"properties":{"nom":"La Berthonie","ag":["Réseau urbain Péribus"],"lt":1,"dept":"24"}},{"type":"Feature","geometry":{"type":"Point","coordinates":[0.63389,45.18597]},"properties":{"nom":"Ecole Maternelle","ag":["Réseau urbain Péribus"],"lt":1,"dept":"24"}},{"type":"Feature","geometry":{"type":"Point","coordinates":[0.71197,45.02428]},"properties":{"nom":"Vergt - Collège","ag":["Réseau urbain Péribus"],"lt":1,"dept":"24"}},{"type":"Feature","geometry":{"type":"Point","coordinates":[0.7296,45.14658]},"properties":{"nom":"Puycorbeau","ag":["Réseau urbain Péribus"],"lt":1,"dept":"24"}},{"type":"Feature","geometry":{"type":"Point","coordinates":[0.78715,45.20341]},"properties":{"nom":"Cavillac","ag":["Réseau urbain Péribus"],"lt":1,"dept":"24"}},{"type":"Feature","geometry":{"type":"Point","coordinates":[0.72287,44.97012]},"properties":{"nom":"Saint Laurent des Bâtons - la Rousique","ag":["Réseau urbain Péribus"],"lt":1,"dept":"24"}},{"type":"Feature","geometry":{"type":"Point","coordinates":[0.74423,45.1418]},"properties":{"nom":"F. René Chateaubriand","ag":["Réseau urbain Péribus"],"lt":1,"dept":"24"}},{"type":"Feature","geometry":{"type":"Point","coordinates":[0.68066,44.98502]},"properties":{"nom":"Fouleix - le bourg","ag":["Réseau urbain Péribus"],"lt":1,"dept":"24"}},{"type":"Feature","geometry":{"type":"Point","coordinates":[0.69462,45.19037]},"properties":{"nom":"Jules Verne","ag":["Réseau urbain Péribus"],"lt":1,"dept":"24"}},{"type":"Feature","geometry":{"type":"Point","coordinates":[0.71718,45.18398]},"properties":{"nom":"Badinter","ag":["Réseau urbain Péribus"],"lt":1,"dept":"24"}},{"type":"Feature","geometry":{"type":"Point","coordinates":[0.67541,45.19991]},"properties":{"nom":"LEP Gour de l'Arche","ag":["Réseau urbain Péribus"],"lt":1,"dept":"24"}},{"type":"Feature","geometry":{"type":"Point","coordinates":[0.69977,45.18506]},"properties":{"nom":"Pont de la Cité","ag":["Réseau urbain Péribus"],"lt":1,"dept":"24"}},{"type":"Feature","geometry":{"type":"Point","coordinates":[0.7116,45.18521]},"properties":{"nom":"Maréchal Juin","ag":["Réseau urbain Péribus"],"lt":1,"dept":"24"}},{"type":"Feature","geometry":{"type":"Point","coordinates":[0.71843,45.18361]},"properties":{"nom":"Taillefer","ag":["Réseau urbain Péribus"],"lt":1,"dept":"24"}},{"type":"Feature","geometry":{"type":"Point","coordinates":[0.74044,45.1982]},"properties":{"nom":"Trélissac Barberousse","ag":["Réseau urbain Péribus"],"lt":1,"dept":"24"}},{"type":"Feature","geometry":{"type":"Point","coordinates":[0.76975,45.18153]},"properties":{"nom":"Imprimerie du Timbre","ag":["Réseau urbain Péribus"],"lt":1,"dept":"24"}},{"type":"Feature","geometry":{"type":"Point","coordinates":[0.60229,45.17851]},"properties":{"nom":"Langlade","ag":["Réseau urbain Péribus"],"lt":1,"dept":"24"}},{"type":"Feature","geometry":{"type":"Point","coordinates":[0.69786,44.98837]},"properties":{"nom":"Saint Amand de Vergt - Place de la Mairie","ag":["Réseau urbain Péribus"],"lt":1,"dept":"24"}},{"type":"Feature","geometry":{"type":"Point","coordinates":[0.69152,45.19383]},"properties":{"nom":"Mounet Sully","ag":["Réseau urbain Péribus"],"lt":1,"dept":"24"}},{"type":"Feature","geometry":{"type":"Point","coordinates":[0.66476,45.19927]},"properties":{"nom":"P+r Chancelade","ag":["Réseau urbain Péribus"],"lt":1,"dept":"24"}},{"type":"Feature","geometry":{"type":"Point","coordinates":[0.58354,45.17168]},"properties":{"nom":"Lachenal","ag":["Réseau urbain Péribus"],"lt":1,"dept":"24"}},{"type":"Feature","geometry":{"type":"Point","coordinates":[0.73567,44.95931]},"properties":{"nom":"Saint Laurent des Bâtons - Le Bourg","ag":["Réseau urbain Péribus"],"lt":1,"dept":"24"}},{"type":"Feature","geometry":{"type":"Point","coordinates":[0.71566,45.17959]},"properties":{"nom":"Charles Durand","ag":["Réseau urbain Péribus"],"lt":1,"dept":"24"}},{"type":"Feature","geometry":{"type":"Point","coordinates":[0.84547,45.20989]},"properties":{"nom":"Escoire - Ecole","ag":["Réseau urbain Péribus"],"lt":1,"dept":"24"}},{"type":"Feature","geometry":{"type":"Point","coordinates":[0.78716,45.19864]},"properties":{"nom":"Le Libournet","ag":["Réseau urbain Péribus"],"lt":1,"dept":"24"}},{"type":"Feature","geometry":{"type":"Point","coordinates":[0.73905,45.00856]},"properties":{"nom":"Saint Michel de Villadeix - Pradignac","ag":["Réseau urbain Péribus"],"lt":1,"dept":"24"}},{"type":"Feature","geometry":{"type":"Point","coordinates":[0.74619,45.14535]},"properties":{"nom":"Héliodore","ag":["Réseau urbain Péribus"],"lt":1,"dept":"24"}},{"type":"Feature","geometry":{"type":"Point","coordinates":[0.78861,45.20094]},"properties":{"nom":"Verte Prairie","ag":["Réseau urbain Péribus"],"lt":1,"dept":"24"}},{"type":"Feature","geometry":{"type":"Point","coordinates":[0.71349,45.18935]},"properties":{"nom":"Albert Claveille","ag":["Réseau urbain Péribus"],"lt":1,"dept":"24"}},{"type":"Feature","geometry":{"type":"Point","coordinates":[0.76408,44.99001]},"properties":{"nom":"Veyrines de Vergt - La Croix","ag":["Réseau urbain Péribus"],"lt":1,"dept":"24"}},{"type":"Feature","geometry":{"type":"Point","coordinates":[0.71333,45.17664]},"properties":{"nom":"Campniac","ag":["Réseau urbain Péribus"],"lt":1,"dept":"24"}},{"type":"Feature","geometry":{"type":"Point","coordinates":[0.6535,45.18244]},"properties":{"nom":"Ecole Primaire","ag":["Réseau urbain Péribus"],"lt":1,"dept":"24"}},{"type":"Feature","geometry":{"type":"Point","coordinates":[0.78643,45.21504]},"properties":{"nom":"Les Gourdoux","ag":["Réseau urbain Péribus"],"lt":1,"dept":"24"}},{"type":"Feature","geometry":{"type":"Point","coordinates":[0.74644,44.98996]},"properties":{"nom":"Saint Michel de Villadeix - Le Cannebal","ag":["Réseau urbain Péribus"],"lt":1,"dept":"24"}},{"type":"Feature","geometry":{"type":"Point","coordinates":[0.70711,45.18147]},"properties":{"nom":"Courbet","ag":["Réseau urbain Péribus"],"lt":1,"dept":"24"}},{"type":"Feature","geometry":{"type":"Point","coordinates":[0.8305,45.21196]},"properties":{"nom":"Antonne - Ecole","ag":["Réseau urbain Péribus"],"lt":1,"dept":"24"}},{"type":"Feature","geometry":{"type":"Point","coordinates":[0.78633,45.20576]},"properties":{"nom":"Trélissac Jean Jaurès","ag":["Réseau urbain Péribus"],"lt":1,"dept":"24"}},{"type":"Feature","geometry":{"type":"Point","coordinates":[0.72237,44.98652]},"properties":{"nom":"Saint Michel de Villadeix - Salle des Fêtes","ag":["Réseau urbain Péribus"],"lt":1,"dept":"24"}},{"type":"Feature","geometry":{"type":"Point","coordinates":[0.66809,45.20286]},"properties":{"nom":"Les Reynats","ag":["Réseau urbain Péribus"],"lt":1,"dept":"24"}},{"type":"Feature","geometry":{"type":"Point","coordinates":[0.67596,45.19953]},"properties":{"nom":"Pont de la Beauronne","ag":["Réseau urbain Péribus"],"lt":1,"dept":"24"}},{"type":"Feature","geometry":{"type":"Point","coordinates":[0.70692,45.18657]},"properties":{"nom":"PEM","ag":["Réseau urbain Péribus"],"lt":1,"dept":"24"}},{"type":"Feature","geometry":{"type":"Point","coordinates":[0.78332,45.23943]},"properties":{"nom":"Le Charretier","ag":["Réseau urbain Péribus"],"lt":1,"dept":"24"}},{"type":"Feature","geometry":{"type":"Point","coordinates":[0.74314,45.18093]},"properties":{"nom":"Lavoisier","ag":["Réseau urbain Péribus"],"lt":1,"dept":"24"}},{"type":"Feature","geometry":{"type":"Point","coordinates":[0.76222,45.17287]},"properties":{"nom":"Arthur Rimbaud","ag":["Réseau urbain Péribus"],"lt":1,"dept":"24"}},{"type":"Feature","geometry":{"type":"Point","coordinates":[0.78413,45.18375]},"properties":{"nom":"Ecole Yves Péron","ag":["Réseau urbain Péribus"],"lt":1,"dept":"24"}},{"type":"Feature","geometry":{"type":"Point","coordinates":[0.75173,45.25814]},"properties":{"nom":"Sanet","ag":["Réseau urbain Péribus"],"lt":1,"dept":"24"}},{"type":"Feature","geometry":{"type":"Point","coordinates":[0.75895,45.18162]},"properties":{"nom":"Espace Nelson Mandela","ag":["Réseau urbain Péribus"],"lt":1,"dept":"24"}},{"type":"Feature","geometry":{"type":"Point","coordinates":[0.72143,45.26935]},"properties":{"nom":"Bosquely","ag":["Réseau urbain Péribus"],"lt":1,"dept":"24"}},{"type":"Feature","geometry":{"type":"Point","coordinates":[0.733,45.08271]},"properties":{"nom":"Eglise neuve de vergt- salle des fêtes","ag":["Réseau urbain Péribus"],"lt":1,"dept":"24"}},{"type":"Feature","geometry":{"type":"Point","coordinates":[0.7633,45.17095]},"properties":{"nom":"La Filolie","ag":["Réseau urbain Péribus"],"lt":1,"dept":"24"}},{"type":"Feature","geometry":{"type":"Point","coordinates":[0.73032,45.17743]},"properties":{"nom":"St-Georges","ag":["Réseau urbain Péribus"],"lt":1,"dept":"24"}},{"type":"Feature","geometry":{"type":"Point","coordinates":[0.73338,45.2573]},"properties":{"nom":"Le Timbre","ag":["Réseau urbain Péribus"],"lt":1,"dept":"24"}},{"type":"Feature","geometry":{"type":"Point","coordinates":[0.75909,45.18078]},"properties":{"nom":"Stèle de Lesparat","ag":["Réseau urbain Péribus"],"lt":1,"dept":"24"}},{"type":"Feature","geometry":{"type":"Point","coordinates":[0.85603,45.08994]},"properties":{"nom":"La Douze - Versannes bourg","ag":["Réseau urbain Péribus"],"lt":1,"dept":"24"}},{"type":"Feature","geometry":{"type":"Point","coordinates":[0.74111,45.18057]},"properties":{"nom":"Gay Lussac","ag":["Réseau urbain Péribus"],"lt":1,"dept":"24"}},{"type":"Feature","geometry":{"type":"Point","coordinates":[0.74114,45.2536]},"properties":{"nom":"Saleuil","ag":["Réseau urbain Péribus"],"lt":1,"dept":"24"}},{"type":"Feature","geometry":{"type":"Point","coordinates":[0.76096,45.17657]},"properties":{"nom":"Bonnabeau","ag":["Réseau urbain Péribus"],"lt":1,"dept":"24"}},{"type":"Feature","geometry":{"type":"Point","coordinates":[0.86339,45.06125]},"properties":{"nom":"La Douze bourg","ag":["Réseau urbain Péribus"],"lt":1,"dept":"24"}},{"type":"Feature","geometry":{"type":"Point","coordinates":[0.90437,45.58899]},"properties":{"nom":"handibus 2","ag":["Réseau urbain Péribus"],"lt":1,"dept":"24"}},{"type":"Feature","geometry":{"type":"Point","coordinates":[0.75252,45.29404]},"properties":{"nom":"Agonac Ecoles primaire et maternelle","ag":["Réseau urbain Péribus"],"lt":1,"dept":"24"}},{"type":"Feature","geometry":{"type":"Point","coordinates":[0.67077,45.22458]},"properties":{"nom":"Beauronne","ag":["Réseau urbain Péribus"],"lt":1,"dept":"24"}},{"type":"Feature","geometry":{"type":"Point","coordinates":[0.72842,45.2621]},"properties":{"nom":"Lannerie","ag":["Réseau urbain Péribus"],"lt":1,"dept":"24"}},{"type":"Feature","geometry":{"type":"Point","coordinates":[0.86452,45.04052]},"properties":{"nom":"Lacropte - Trou de l'escalier","ag":["Réseau urbain Péribus"],"lt":1,"dept":"24"}},{"type":"Feature","geometry":{"type":"Point","coordinates":[0.75007,45.17918]},"properties":{"nom":"Les Mondis","ag":["Réseau urbain Péribus"],"lt":1,"dept":"24"}},{"type":"Feature","geometry":{"type":"Point","coordinates":[0.73189,45.18256]},"properties":{"nom":"Jean Clédat","ag":["Réseau urbain Péribus"],"lt":1,"dept":"24"}},{"type":"Feature","geometry":{"type":"Point","coordinates":[0.75975,45.16848]},"properties":{"nom":"Boulazac les Brandes","ag":["Réseau urbain Péribus"],"lt":1,"dept":"24"}},{"type":"Feature","geometry":{"type":"Point","coordinates":[0.63319,45.18493]},"properties":{"nom":"Rue du 8 Mai (49)","ag":["Réseau urbain Péribus"],"lt":1,"dept":"24"}},{"type":"Feature","geometry":{"type":"Point","coordinates":[0.53976,45.51831]},"properties":{"nom":"handibus 1","ag":["Réseau urbain Péribus"],"lt":1,"dept":"24"}},{"type":"Feature","geometry":{"type":"Point","coordinates":[0.75702,45.17911]},"properties":{"nom":"Gaston Monmousseau","ag":["Réseau urbain Péribus"],"lt":1,"dept":"24"}},{"type":"Feature","geometry":{"type":"Point","coordinates":[0.76055,45.25074]},"properties":{"nom":"Petit Sanet","ag":["Réseau urbain Péribus"],"lt":1,"dept":"24"}},{"type":"Feature","geometry":{"type":"Point","coordinates":[0.75551,45.16667]},"properties":{"nom":"Les Grands Chênes","ag":["Réseau urbain Péribus"],"lt":1,"dept":"24"}},{"type":"Feature","geometry":{"type":"Point","coordinates":[0.74259,45.17261]},"properties":{"nom":"Les Châtaigniers","ag":["Réseau urbain Péribus"],"lt":1,"dept":"24"}},{"type":"Feature","geometry":{"type":"Point","coordinates":[0.72401,45.14405]},"properties":{"nom":"Therme Blanc","ag":["Réseau urbain Péribus"],"lt":1,"dept":"24"}},{"type":"Feature","geometry":{"type":"Point","coordinates":[0.7402,45.17594]},"properties":{"nom":"Montplaisir","ag":["Réseau urbain Péribus"],"lt":1,"dept":"24"}},{"type":"Feature","geometry":{"type":"Point","coordinates":[0.71564,45.12163]},"properties":{"nom":"Notre-Dame de Sanilhac Poste","ag":["Réseau urbain Péribus"],"lt":1,"dept":"24"}},{"type":"Feature","geometry":{"type":"Point","coordinates":[0.7414,45.17415]},"properties":{"nom":"Olympe de Gouges","ag":["Réseau urbain Péribus"],"lt":1,"dept":"24"}},{"type":"Feature","geometry":{"type":"Point","coordinates":[0.74436,45.25158]},"properties":{"nom":"Le Lyonnet","ag":["Réseau urbain Péribus"],"lt":1,"dept":"24"}},{"type":"Feature","geometry":{"type":"Point","coordinates":[0.67756,45.09237]},"properties":{"nom":"Chalagnac Ecole","ag":["Réseau urbain Péribus"],"lt":1,"dept":"24"}},{"type":"Feature","geometry":{"type":"Point","coordinates":[0.74967,45.1689]},"properties":{"nom":"Beauregard","ag":["Réseau urbain Péribus"],"lt":1,"dept":"24"}},{"type":"Feature","geometry":{"type":"Point","coordinates":[0.73304,45.24694]},"properties":{"nom":"Le Cluzeau","ag":["Réseau urbain Péribus"],"lt":1,"dept":"24"}},{"type":"Feature","geometry":{"type":"Point","coordinates":[0.71949,45.11966]},"properties":{"nom":"19 mars 1962","ag":["Réseau urbain Péribus"],"lt":1,"dept":"24"}},{"type":"Feature","geometry":{"type":"Point","coordinates":[0.63301,45.08671]},"properties":{"nom":"Saint Paul de Serre Ecole","ag":["Réseau urbain Péribus"],"lt":1,"dept":"24"}},{"type":"Feature","geometry":{"type":"Point","coordinates":[0.74718,45.19076]},"properties":{"nom":"Trelissac Ecole Maurilloux","ag":["Réseau urbain Péribus"],"lt":1,"dept":"24"}},{"type":"Feature","geometry":{"type":"Point","coordinates":[0.63568,45.08072]},"properties":{"nom":"Saint Paul de Serre - atelier municipal","ag":["Réseau urbain Péribus"],"lt":1,"dept":"24"}},{"type":"Feature","geometry":{"type":"Point","coordinates":[0.72476,45.1799]},"properties":{"nom":"PÉRIGUEUX - Centre des communications","ag":["Réseau urbain Péribus"],"lt":1,"dept":"24"}},{"type":"Feature","geometry":{"type":"Point","coordinates":[0.6831,45.07236]},"properties":{"nom":"Chalagnac - Les Chanteloubes","ag":["Réseau urbain Péribus"],"lt":1,"dept":"24"}},{"type":"Feature","geometry":{"type":"Point","coordinates":[0.82739,45.20554]},"properties":{"nom":"ESAT OSEA","ag":["Réseau urbain Péribus"],"lt":1,"dept":"24"}},{"type":"Feature","geometry":{"type":"Point","coordinates":[0.72671,45.17321]},"properties":{"nom":"Prompsault","ag":["Réseau urbain Péribus"],"lt":1,"dept":"24"}},{"type":"Feature","geometry":{"type":"Point","coordinates":[0.78155,45.19305]},"properties":{"nom":"Rte du Pont","ag":["Réseau urbain Péribus"],"lt":1,"dept":"24"}},{"type":"Feature","geometry":{"type":"Point","coordinates":[0.69131,45.19223]},"properties":{"nom":"Ecole Eugene Leroy","ag":["Réseau urbain Péribus"],"lt":1,"dept":"24"}},{"type":"Feature","geometry":{"type":"Point","coordinates":[0.6913,45.06741]},"properties":{"nom":"Vergt-Fauchérias","ag":["Réseau urbain Péribus"],"lt":1,"dept":"24"}},{"type":"Feature","geometry":{"type":"Point","coordinates":[0.72601,45.17562]},"properties":{"nom":"Notre-Dame de Sanilhac Mairie","ag":["Réseau urbain Péribus"],"lt":1,"dept":"24"}},{"type":"Feature","geometry":{"type":"Point","coordinates":[0.82735,45.13094]},"properties":{"nom":"Ste Marie de Chignac Ecole","ag":["Réseau urbain Péribus"],"lt":1,"dept":"24"}},{"type":"Feature","geometry":{"type":"Point","coordinates":[0.68154,45.0719]},"properties":{"nom":"Creyssensac - La Landière","ag":["Réseau urbain Péribus"],"lt":1,"dept":"24"}},{"type":"Feature","geometry":{"type":"Point","coordinates":[0.7231,45.15681]},"properties":{"nom":"Les Jargues","ag":["Réseau urbain Péribus"],"lt":1,"dept":"24"}},{"type":"Feature","geometry":{"type":"Point","coordinates":[0.79019,45.182]},"properties":{"nom":"Rte de Jaunour","ag":["Réseau urbain Péribus"],"lt":1,"dept":"24"}},{"type":"Feature","geometry":{"type":"Point","coordinates":[0.7931,45.14899]},"properties":{"nom":"Saint Laurent sur Manoire Ecole","ag":["Réseau urbain Péribus"],"lt":1,"dept":"24"}},{"type":"Feature","geometry":{"type":"Point","coordinates":[0.63375,45.08845]},"properties":{"nom":"Saint Paul de Serre - Eglise","ag":["Réseau urbain Péribus"],"lt":1,"dept":"24"}},{"type":"Feature","geometry":{"type":"Point","coordinates":[0.72426,45.15944]},"properties":{"nom":"Grégaudie","ag":["Réseau urbain Péribus"],"lt":1,"dept":"24"}},{"type":"Feature","geometry":{"type":"Point","coordinates":[0.7455,45.17048]},"properties":{"nom":"Pey Harry","ag":["Réseau urbain Péribus"],"lt":1,"dept":"24"}},{"type":"Feature","geometry":{"type":"Point","coordinates":[0.85913,45.16119]},"properties":{"nom":"Eyliac Ecole","ag":["Réseau urbain Péribus"],"lt":1,"dept":"24"}},{"type":"Feature","geometry":{"type":"Point","coordinates":[0.66074,45.09475]},"properties":{"nom":"Chalagnac - Courbe","ag":["Réseau urbain Péribus"],"lt":1,"dept":"24"}},{"type":"Feature","geometry":{"type":"Point","coordinates":[0.72527,45.13399]},"properties":{"nom":"St-Pierre ès Liens","ag":["Réseau urbain Péribus"],"lt":1,"dept":"24"}},{"type":"Feature","geometry":{"type":"Point","coordinates":[0.91679,45.11081]},"properties":{"nom":"Milhac d'Auberoche - Ecole Maternelle","ag":["Réseau urbain Péribus"],"lt":1,"dept":"24"}},{"type":"Feature","geometry":{"type":"Point","coordinates":[0.6913,45.06687]},"properties":{"nom":"Creyssensac - Fauchérias","ag":["Réseau urbain Péribus"],"lt":1,"dept":"24"}},{"type":"Feature","geometry":{"type":"Point","coordinates":[0.72224,45.13015]},"properties":{"nom":"La Guillaumie","ag":["Réseau urbain Péribus"],"lt":1,"dept":"24"}},{"type":"Feature","geometry":{"type":"Point","coordinates":[0.75301,45.16767]},"properties":{"nom":"Boisserie","ag":["Réseau urbain Péribus"],"lt":1,"dept":"24"}},{"type":"Feature","geometry":{"type":"Point","coordinates":[0.78468,45.25082]},"properties":{"nom":"Cornille Bourg","ag":["Réseau urbain Péribus"],"lt":1,"dept":"24"}},{"type":"Feature","geometry":{"type":"Point","coordinates":[0.66104,45.08236]},"properties":{"nom":"Creyssensac - Bourg","ag":["Réseau urbain Péribus"],"lt":1,"dept":"24"}},{"type":"Feature","geometry":{"type":"Point","coordinates":[0.72704,45.12523]},"properties":{"nom":"La Blancherie","ag":["Réseau urbain Péribus"],"lt":1,"dept":"24"}},{"type":"Feature","geometry":{"type":"Point","coordinates":[0.73377,45.17805]},"properties":{"nom":"Gare St-Georges","ag":["Réseau urbain Péribus"],"lt":1,"dept":"24"}},{"type":"Feature","geometry":{"type":"Point","coordinates":[0.94309,45.14171]},"properties":{"nom":"Saint Antoine d'Auberoche - ancienne Ecole","ag":["Réseau urbain Péribus"],"lt":1,"dept":"24"}},{"type":"Feature","geometry":{"type":"Point","coordinates":[0.66577,45.09507]},"properties":{"nom":"Chalagnac - Le Boutet","ag":["Réseau urbain Péribus"],"lt":1,"dept":"24"}},{"type":"Feature","geometry":{"type":"Point","coordinates":[0.72084,45.12084]},"properties":{"nom":"Joseph Kessel","ag":["Réseau urbain Péribus"],"lt":1,"dept":"24"}},{"type":"Feature","geometry":{"type":"Point","coordinates":[0.77482,45.17139]},"properties":{"nom":"Yves Péron","ag":["Réseau urbain Péribus"],"lt":1,"dept":"24"}},{"type":"Feature","geometry":{"type":"Point","coordinates":[0.72577,45.16881]},"properties":{"nom":"Dian","ag":["Réseau urbain Péribus"],"lt":1,"dept":"24"}},{"type":"Feature","geometry":{"type":"Point","coordinates":[0.78284,45.18294]},"properties":{"nom":"Alice Milliat","ag":["Réseau urbain Péribus"],"lt":1,"dept":"24"}},{"type":"Feature","geometry":{"type":"Point","coordinates":[0.72301,45.15002]},"properties":{"nom":"Sansonnet","ag":["Réseau urbain Péribus"],"lt":1,"dept":"24"}},{"type":"Feature","geometry":{"type":"Point","coordinates":[0.69198,45.18654]},"properties":{"nom":"Rue Bleriot","ag":["Réseau urbain Péribus"],"lt":1,"dept":"24"}},{"type":"Feature","geometry":{"type":"Point","coordinates":[0.78142,45.17231]},"properties":{"nom":"Rte de Combe Neuve","ag":["Réseau urbain Péribus"],"lt":1,"dept":"24"}},{"type":"Feature","geometry":{"type":"Point","coordinates":[0.67674,45.19927]},"properties":{"nom":"Pont de la Beauronne LEP","ag":["Réseau urbain Péribus"],"lt":1,"dept":"24"}},{"type":"Feature","geometry":{"type":"Point","coordinates":[0.69045,45.17534]},"properties":{"nom":"Stade Pareau","ag":["Réseau urbain Péribus"],"lt":1,"dept":"24"}},{"type":"Feature","geometry":{"type":"Point","coordinates":[0.63749,45.18384]},"properties":{"nom":"Rte de Payenché","ag":["Réseau urbain Péribus"],"lt":1,"dept":"24"}},{"type":"Feature","geometry":{"type":"Point","coordinates":[0.69242,45.1778]},"properties":{"nom":"Pagot","ag":["Réseau urbain Péribus"],"lt":1,"dept":"24"}},{"type":"Feature","geometry":{"type":"Point","coordinates":[0.66088,45.18477]},"properties":{"nom":"Marsac commerces","ag":["Réseau urbain Péribus"],"lt":1,"dept":"24"}},{"type":"Feature","geometry":{"type":"Point","coordinates":[0.72294,45.18865]},"properties":{"nom":"LR PERIGUEUX-Bibliothèque municip","ag":["Réseau urbain Péribus"],"lt":1,"dept":"24"}},{"type":"Feature","geometry":{"type":"Point","coordinates":[0.68776,45.19265]},"properties":{"nom":"Collège Jean Moulin","ag":["Réseau urbain Péribus"],"lt":1,"dept":"24"}},{"type":"Feature","geometry":{"type":"Point","coordinates":[0.72525,45.18461]},"properties":{"nom":"Pont des Barris","ag":["Réseau urbain Péribus"],"lt":1,"dept":"24"}},{"type":"Feature","geometry":{"type":"Point","coordinates":[0.69656,45.18504]},"properties":{"nom":"Les Frères Marty","ag":["Réseau urbain Péribus"],"lt":1,"dept":"24"}},{"type":"Feature","geometry":{"type":"Point","coordinates":[0.67016,45.18749]},"properties":{"nom":"Le Sault du Chevalier","ag":["Réseau urbain Péribus"],"lt":1,"dept":"24"}},{"type":"Feature","geometry":{"type":"Point","coordinates":[0.68291,45.16421]},"properties":{"nom":"Sarrazi","ag":["Réseau urbain Péribus"],"lt":1,"dept":"24"}},{"type":"Feature","geometry":{"type":"Point","coordinates":[0.69563,45.18279]},"properties":{"nom":"Maréchal Lyautey","ag":["Réseau urbain Péribus"],"lt":1,"dept":"24"}},{"type":"Feature","geometry":{"type":"Point","coordinates":[0.7641,45.18979]},"properties":{"nom":"La Feuilleraie","ag":["Réseau urbain Péribus"],"lt":1,"dept":"24"}},{"type":"Feature","geometry":{"type":"Point","coordinates":[0.64739,45.17606]},"properties":{"nom":"Imp. des Brandes","ag":["Réseau urbain Péribus"],"lt":1,"dept":"24"}},{"type":"Feature","geometry":{"type":"Point","coordinates":[0.63787,45.13794]},"properties":{"nom":"Les Brandeaux","ag":["Réseau urbain Péribus"],"lt":1,"dept":"24"}},{"type":"Feature","geometry":{"type":"Point","coordinates":[0.64275,45.17447]},"properties":{"nom":"Payenché","ag":["Réseau urbain Péribus"],"lt":1,"dept":"24"}},{"type":"Feature","geometry":{"type":"Point","coordinates":[0.75619,45.18879]},"properties":{"nom":"Les Mounards","ag":["Réseau urbain Péribus"],"lt":1,"dept":"24"}},{"type":"Feature","geometry":{"type":"Point","coordinates":[0.7311,45.18878]},"properties":{"nom":"Cancale","ag":["Réseau urbain Péribus"],"lt":1,"dept":"24"}},{"type":"Feature","geometry":{"type":"Point","coordinates":[0.68028,45.18302]},"properties":{"nom":"St-Augutre","ag":["Réseau urbain Péribus"],"lt":1,"dept":"24"}},{"type":"Feature","geometry":{"type":"Point","coordinates":[0.66043,45.17796]},"properties":{"nom":"Les Mondines","ag":["Réseau urbain Péribus"],"lt":1,"dept":"24"}},{"type":"Feature","geometry":{"type":"Point","coordinates":[0.69825,45.20667]},"properties":{"nom":"La Monzie","ag":["Réseau urbain Péribus"],"lt":1,"dept":"24"}},{"type":"Feature","geometry":{"type":"Point","coordinates":[0.73945,45.19065]},"properties":{"nom":"Michel Grandou","ag":["Réseau urbain Péribus"],"lt":1,"dept":"24"}},{"type":"Feature","geometry":{"type":"Point","coordinates":[0.69469,45.18651]},"properties":{"nom":"Paul Doumer","ag":["Réseau urbain Péribus"],"lt":1,"dept":"24"}},{"type":"Feature","geometry":{"type":"Point","coordinates":[0.65931,45.17519]},"properties":{"nom":"Les Courtes","ag":["Réseau urbain Péribus"],"lt":1,"dept":"24"}},{"type":"Feature","geometry":{"type":"Point","coordinates":[0.74253,45.19029]},"properties":{"nom":"Médiathèque","ag":["Réseau urbain Péribus"],"lt":1,"dept":"24"}},{"type":"Feature","geometry":{"type":"Point","coordinates":[0.68557,45.17878]},"properties":{"nom":"Barbette","ag":["Réseau urbain Péribus"],"lt":1,"dept":"24"}},{"type":"Feature","geometry":{"type":"Point","coordinates":[0.65589,45.1702]},"properties":{"nom":"Le Péladier","ag":["Réseau urbain Péribus"],"lt":1,"dept":"24"}},{"type":"Feature","geometry":{"type":"Point","coordinates":[0.73527,45.19033]},"properties":{"nom":"L'Arsault","ag":["Réseau urbain Péribus"],"lt":1,"dept":"24"}},{"type":"Feature","geometry":{"type":"Point","coordinates":[0.68232,45.1816]},"properties":{"nom":"Jules Vallès","ag":["Réseau urbain Péribus"],"lt":1,"dept":"24"}},{"type":"Feature","geometry":{"type":"Point","coordinates":[0.65345,45.17291]},"properties":{"nom":"La Bouzonnie","ag":["Réseau urbain Péribus"],"lt":1,"dept":"24"}},{"type":"Feature","geometry":{"type":"Point","coordinates":[0.74614,45.18988]},"properties":{"nom":"Les Maurilloux Écoles","ag":["Réseau urbain Péribus"],"lt":1,"dept":"24"}},{"type":"Feature","geometry":{"type":"Point","coordinates":[0.6419,45.18051]},"properties":{"nom":"Rte des Brandes","ag":["Réseau urbain Péribus"],"lt":1,"dept":"24"}},{"type":"Feature","geometry":{"type":"Point","coordinates":[0.60206,45.16409]},"properties":{"nom":"Razac Bourg","ag":["Réseau urbain Péribus"],"lt":1,"dept":"24"}},{"type":"Feature","geometry":{"type":"Point","coordinates":[0.77892,45.18401]},"properties":{"nom":"LR BOULAZAC-ISLE-MANOIRE-ZI(1)","ag":["Réseau urbain Péribus","Réseau interurbain - Dordogne (24)"],"lt":1,"dept":"24"}},{"type":"Feature","geometry":{"type":"Point","coordinates":[0.64467,45.17564]},"properties":{"nom":"La Forêt","ag":["Réseau urbain Péribus"],"lt":1,"dept":"24"}},{"type":"Feature","geometry":{"type":"Point","coordinates":[0.59967,45.16585]},"properties":{"nom":"Halte Razac","ag":["Réseau urbain Péribus"],"lt":1,"dept":"24"}},{"type":"Feature","geometry":{"type":"Point","coordinates":[0.71894,45.18399]},"properties":{"nom":"Sainte Cécile","ag":["Réseau urbain Péribus"],"lt":1,"dept":"24"}},{"type":"Feature","geometry":{"type":"Point","coordinates":[0.63929,45.12857]},"properties":{"nom":"Coursac Bourg","ag":["Réseau urbain Péribus"],"lt":1,"dept":"24"}},{"type":"Feature","geometry":{"type":"Point","coordinates":[0.64963,45.17748]},"properties":{"nom":"Chem. des Bruyères","ag":["Réseau urbain Péribus"],"lt":1,"dept":"24"}},{"type":"Feature","geometry":{"type":"Point","coordinates":[0.63985,45.12081]},"properties":{"nom":"Relais TV","ag":["Réseau urbain Péribus"],"lt":1,"dept":"24"}},{"type":"Feature","geometry":{"type":"Point","coordinates":[0.64617,45.17985]},"properties":{"nom":"Fonturlure","ag":["Réseau urbain Péribus"],"lt":1,"dept":"24"}},{"type":"Feature","geometry":{"type":"Point","coordinates":[0.64403,45.12153]},"properties":{"nom":"Font de Meaux","ag":["Réseau urbain Péribus"],"lt":1,"dept":"24"}},{"type":"Feature","geometry":{"type":"Point","coordinates":[0.64584,45.17551]},"properties":{"nom":"1er mai","ag":["Réseau urbain Péribus"],"lt":1,"dept":"24"}},{"type":"Feature","geometry":{"type":"Point","coordinates":[0.65524,45.12138]},"properties":{"nom":"Privats","ag":["Réseau urbain Péribus"],"lt":1,"dept":"24"}},{"type":"Feature","geometry":{"type":"Point","coordinates":[0.7221,45.18119]},"properties":{"nom":"Hoche","ag":["Réseau urbain Péribus"],"lt":1,"dept":"24"}},{"type":"Feature","geometry":{"type":"Point","coordinates":[0.68367,45.19283]},"properties":{"nom":"P+r Meriller","ag":["Réseau urbain Péribus"],"lt":1,"dept":"24"}},{"type":"Feature","geometry":{"type":"Point","coordinates":[0.65892,45.12008]},"properties":{"nom":"Les Meynichoux","ag":["Réseau urbain Péribus"],"lt":1,"dept":"24"}},{"type":"Feature","geometry":{"type":"Point","coordinates":[0.63058,45.18706]},"properties":{"nom":"Clair Séjour","ag":["Réseau urbain Péribus"],"lt":1,"dept":"24"}},{"type":"Feature","geometry":{"type":"Point","coordinates":[0.62895,45.18355]},"properties":{"nom":"La Cave","ag":["Réseau urbain Péribus"],"lt":1,"dept":"24"}},{"type":"Feature","geometry":{"type":"Point","coordinates":[0.60582,45.16101]},"properties":{"nom":"Razac Salle Polyvalente","ag":["Réseau urbain Péribus"],"lt":1,"dept":"24"}},{"type":"Feature","geometry":{"type":"Point","coordinates":[0.80288,45.20409]},"properties":{"nom":"P+r Charriéras","ag":["Réseau urbain Péribus"],"lt":1,"dept":"24"}},{"type":"Feature","geometry":{"type":"Point","coordinates":[0.71291,45.20089]},"properties":{"nom":"Marguerite Éberentz","ag":["Réseau urbain Péribus"],"lt":1,"dept":"24"}},{"type":"Feature","geometry":{"type":"Point","coordinates":[0.63476,45.18766]},"properties":{"nom":"Les Écoles","ag":["Réseau urbain Péribus"],"lt":1,"dept":"24"}},{"type":"Feature","geometry":{"type":"Point","coordinates":[0.71446,45.20153]},"properties":{"nom":"Gilbert Privat","ag":["Réseau urbain Péribus"],"lt":1,"dept":"24"}},{"type":"Feature","geometry":{"type":"Point","coordinates":[0.81415,45.19178]},"properties":{"nom":"LR BASSILLAC-Mairie (2)","ag":["Réseau urbain Péribus","Réseau interurbain - Dordogne (24)"],"lt":1,"dept":"24"}},{"type":"Feature","geometry":{"type":"Point","coordinates":[0.62797,45.18523]},"properties":{"nom":"Rue du 8 mai","ag":["Réseau urbain Péribus"],"lt":1,"dept":"24"}},{"type":"Feature","geometry":{"type":"Point","coordinates":[0.77413,45.17881]},"properties":{"nom":"Parking Campus","ag":["Réseau urbain Péribus"],"lt":1,"dept":"24"}},{"type":"Feature","geometry":{"type":"Point","coordinates":[0.59137,45.17283]},"properties":{"nom":"Gravelle","ag":["Réseau urbain Péribus"],"lt":1,"dept":"24"}},{"type":"Feature","geometry":{"type":"Point","coordinates":[0.71797,45.18236]},"properties":{"nom":"Place Francheville","ag":["Réseau urbain Péribus"],"lt":1,"dept":"24"}},{"type":"Feature","geometry":{"type":"Point","coordinates":[0.67044,45.20076]},"properties":{"nom":"Parc des Expositions","ag":["Réseau urbain Péribus"],"lt":1,"dept":"24"}},{"type":"Feature","geometry":{"type":"Point","coordinates":[0.74399,45.20432]},"properties":{"nom":"P+r Aquacap","ag":["Réseau urbain Péribus"],"lt":1,"dept":"24"}},{"type":"Feature","geometry":{"type":"Point","coordinates":[0.77302,45.17184]},"properties":{"nom":"Halte ferroviaire Boulazac","ag":["Réseau urbain Péribus"],"lt":1,"dept":"24"}},{"type":"Feature","geometry":{"type":"Point","coordinates":[0.71206,45.18371]},"properties":{"nom":"Jay de Beaufort","ag":["Réseau urbain Péribus"],"lt":1,"dept":"24"}},{"type":"Feature","geometry":{"type":"Point","coordinates":[0.73668,45.19639]},"properties":{"nom":"P+r Trélissac les Romains","ag":["Réseau urbain Péribus"],"lt":1,"dept":"24"}},{"type":"Feature","geometry":{"type":"Point","coordinates":[0.76779,45.17798]},"properties":{"nom":"Firmin Bouvier","ag":["Réseau urbain Péribus"],"lt":1,"dept":"24"}},{"type":"Feature","geometry":{"type":"Point","coordinates":[0.72368,45.18676]},"properties":{"nom":"PlaceTourny","ag":["Réseau urbain Péribus"],"lt":1,"dept":"24"}},{"type":"Feature","geometry":{"type":"Point","coordinates":[0.66679,45.2043]},"properties":{"nom":"Chancelade Écoles","ag":["Réseau urbain Péribus"],"lt":1,"dept":"24"}},{"type":"Feature","geometry":{"type":"Point","coordinates":[0.71537,45.19039]},"properties":{"nom":"Clos-Chassaing","ag":["Réseau urbain Péribus"],"lt":1,"dept":"24"}},{"type":"Feature","geometry":{"type":"Point","coordinates":[0.71858,45.18193]},"properties":{"nom":"Francheville-cinéma","ag":["Réseau urbain Péribus"],"lt":1,"dept":"24"}},{"type":"Feature","geometry":{"type":"Point","coordinates":[0.66113,45.19292]},"properties":{"nom":"ZAE Marsac","ag":["Réseau urbain Péribus"],"lt":1,"dept":"24"}},{"type":"Feature","geometry":{"type":"Point","coordinates":[0.71693,45.19972]},"properties":{"nom":"Le Petit Maine","ag":["Réseau urbain Péribus"],"lt":1,"dept":"24"}},{"type":"Feature","geometry":{"type":"Point","coordinates":[0.71387,45.1818]},"properties":{"nom":"Église de la Cité","ag":["Réseau urbain Péribus"],"lt":1,"dept":"24"}},{"type":"Feature","geometry":{"type":"Point","coordinates":[0.72185,45.18756]},"properties":{"nom":"Tourny Pompidou","ag":["Réseau urbain Péribus"],"lt":1,"dept":"24"}},{"type":"Feature","geometry":{"type":"Point","coordinates":[0.68454,45.19295]},"properties":{"nom":"Mériller","ag":["Réseau urbain Péribus"],"lt":1,"dept":"24"}},{"type":"Feature","geometry":{"type":"Point","coordinates":[0.85785,45.06437]},"properties":{"nom":"La Douze - Fon Ladouze","ag":["Réseau urbain Péribus"],"lt":1,"dept":"24"}},{"type":"Feature","geometry":{"type":"Point","coordinates":[0.70829,45.1904]},"properties":{"nom":"Cimetière de l'Ouest","ag":["Réseau urbain Péribus"],"lt":1,"dept":"24"}},{"type":"Feature","geometry":{"type":"Point","coordinates":[0.66449,45.1858]},"properties":{"nom":"Marival","ag":["Réseau urbain Péribus"],"lt":1,"dept":"24"}},{"type":"Feature","geometry":{"type":"Point","coordinates":[0.8547,45.07084]},"properties":{"nom":"La Douze - La Bouchardie","ag":["Réseau urbain Péribus"],"lt":1,"dept":"24"}},{"type":"Feature","geometry":{"type":"Point","coordinates":[0.6612,45.19739]},"properties":{"nom":"Rd-Pt Jean Jaurès","ag":["Réseau urbain Péribus"],"lt":1,"dept":"24"}},{"type":"Feature","geometry":{"type":"Point","coordinates":[0.69464,45.19956]},"properties":{"nom":"Privilège","ag":["Réseau urbain Péribus"],"lt":1,"dept":"24"}},{"type":"Feature","geometry":{"type":"Point","coordinates":[0.89273,45.1951]},"properties":{"nom":"Pl. Eugène Le Roy","ag":["Réseau urbain Péribus"],"lt":1,"dept":"24"}},{"type":"Feature","geometry":{"type":"Point","coordinates":[0.61116,45.17368]},"properties":{"nom":"Les Moulineaux","ag":["Réseau urbain Péribus"],"lt":1,"dept":"24"}},{"type":"Feature","geometry":{"type":"Point","coordinates":[0.67746,45.19674]},"properties":{"nom":"Gour de l'Arche Poste","ag":["Réseau urbain Péribus"],"lt":1,"dept":"24"}},{"type":"Feature","geometry":{"type":"Point","coordinates":[0.85766,45.08895]},"properties":{"nom":"La Douze - Les Versannes Gare","ag":["Réseau urbain Péribus"],"lt":1,"dept":"24"}},{"type":"Feature","geometry":{"type":"Point","coordinates":[0.85062,45.18828]},"properties":{"nom":"La Roquette","ag":["Réseau urbain Péribus"],"lt":1,"dept":"24"}},{"type":"Feature","geometry":{"type":"Point","coordinates":[0.66394,45.20252]},"properties":{"nom":"Les Fleurs","ag":["Réseau urbain Péribus"],"lt":1,"dept":"24"}},{"type":"Feature","geometry":{"type":"Point","coordinates":[0.69683,45.18946]},"properties":{"nom":"Les Izards","ag":["Réseau urbain Péribus"],"lt":1,"dept":"24"}},{"type":"Feature","geometry":{"type":"Point","coordinates":[0.71334,45.19483]},"properties":{"nom":"Restaurant Universitaire","ag":["Réseau urbain Péribus"],"lt":1,"dept":"24"}},{"type":"Feature","geometry":{"type":"Point","coordinates":[0.71896,45.18401]},"properties":{"nom":"Place Bugeaud","ag":["Réseau urbain Péribus"],"lt":1,"dept":"24"}},{"type":"Feature","geometry":{"type":"Point","coordinates":[0.66207,45.19906]},"properties":{"nom":"Av. Jean Jaurès","ag":["Réseau urbain Péribus"],"lt":1,"dept":"24"}},{"type":"Feature","geometry":{"type":"Point","coordinates":[0.69829,45.19273]},"properties":{"nom":"Francis Rongieras","ag":["Réseau urbain Péribus"],"lt":1,"dept":"24"}},{"type":"Feature","geometry":{"type":"Point","coordinates":[0.62006,45.19405]},"properties":{"nom":"La Roche Beaulieu","ag":["Réseau urbain Péribus"],"lt":1,"dept":"24"}},{"type":"Feature","geometry":{"type":"Point","coordinates":[0.70865,45.18701]},"properties":{"nom":"Gare SNCF","ag":["Réseau urbain Péribus"],"lt":1,"dept":"24"}},{"type":"Feature","geometry":{"type":"Point","coordinates":[0.68905,45.17067]},"properties":{"nom":"Dojo Départemental","ag":["Réseau urbain Péribus"],"lt":1,"dept":"24"}},{"type":"Feature","geometry":{"type":"Point","coordinates":[0.6274,45.18417]},"properties":{"nom":"Fromarsac","ag":["Réseau urbain Péribus"],"lt":1,"dept":"24"}},{"type":"Feature","geometry":{"type":"Point","coordinates":[0.86888,45.04876]},"properties":{"nom":"La Douze - Mas Bouchard","ag":["Réseau urbain Péribus"],"lt":1,"dept":"24"}},{"type":"Feature","geometry":{"type":"Point","coordinates":[0.69666,45.17473]},"properties":{"nom":"Lycée Agricole","ag":["Réseau urbain Péribus"],"lt":1,"dept":"24"}},{"type":"Feature","geometry":{"type":"Point","coordinates":[0.86688,45.06371]},"properties":{"nom":"La Douze - Ecole","ag":["Réseau urbain Péribus"],"lt":1,"dept":"24"}},{"type":"Feature","geometry":{"type":"Point","coordinates":[0.68592,45.16357]},"properties":{"nom":"Les 4 Routes","ag":["Réseau urbain Péribus"],"lt":1,"dept":"24"}},{"type":"Feature","geometry":{"type":"Point","coordinates":[0.77141,45.18153]},"properties":{"nom":"Benoit Frachon","ag":["Réseau urbain Péribus"],"lt":1,"dept":"24"}},{"type":"Feature","geometry":{"type":"Point","coordinates":[0.83517,45.08281]},"properties":{"nom":"La Douze - Les Petites Fayes","ag":["Réseau urbain Péribus"],"lt":1,"dept":"24"}},{"type":"Feature","geometry":{"type":"Point","coordinates":[0.70314,45.19532]},"properties":{"nom":"Jules Ferry","ag":["Réseau urbain Péribus"],"lt":1,"dept":"24"}},{"type":"Feature","geometry":{"type":"Point","coordinates":[0.68641,45.16091]},"properties":{"nom":"Plancheix","ag":["Réseau urbain Péribus"],"lt":1,"dept":"24"}},{"type":"Feature","geometry":{"type":"Point","coordinates":[0.70952,45.18047]},"properties":{"nom":"Cité Administrative","ag":["Réseau urbain Péribus"],"lt":1,"dept":"24"}},{"type":"Feature","geometry":{"type":"Point","coordinates":[0.87563,45.04953]},"properties":{"nom":"La Douze - Les Picadis","ag":["Réseau urbain Péribus"],"lt":1,"dept":"24"}},{"type":"Feature","geometry":{"type":"Point","coordinates":[0.87636,45.05438]},"properties":{"nom":"La Douze - Ladeuil","ag":["Réseau urbain Péribus"],"lt":1,"dept":"24"}},{"type":"Feature","geometry":{"type":"Point","coordinates":[0.68474,45.19938]},"properties":{"nom":"Les Pêcheurs","ag":["Réseau urbain Péribus"],"lt":1,"dept":"24"}},{"type":"Feature","geometry":{"type":"Point","coordinates":[0.68509,45.15622]},"properties":{"nom":"Les Vergers","ag":["Réseau urbain Péribus"],"lt":1,"dept":"24"}},{"type":"Feature","geometry":{"type":"Point","coordinates":[0.6637,45.18672]},"properties":{"nom":"Halte ferroviaire Marsac","ag":["Réseau urbain Péribus"],"lt":1,"dept":"24"}},{"type":"Feature","geometry":{"type":"Point","coordinates":[0.68032,45.1973]},"properties":{"nom":"Les Sports","ag":["Réseau urbain Péribus"],"lt":1,"dept":"24"}},{"type":"Feature","geometry":{"type":"Point","coordinates":[0.68395,45.15846]},"properties":{"nom":"Les Clairières","ag":["Réseau urbain Péribus"],"lt":1,"dept":"24"}},{"type":"Feature","geometry":{"type":"Point","coordinates":[0.72865,45.19338]},"properties":{"nom":"Centre Hospitalier","ag":["Réseau urbain Péribus"],"lt":1,"dept":"24"}},{"type":"Feature","geometry":{"type":"Point","coordinates":[0.74004,45.16251]},"properties":{"nom":"Jean Racine","ag":["Réseau urbain Péribus"],"lt":1,"dept":"24"}},{"type":"Feature","geometry":{"type":"Point","coordinates":[0.71862,45.18439]},"properties":{"nom":"Maurois","ag":["Réseau urbain Péribus"],"lt":1,"dept":"24"}},{"type":"Feature","geometry":{"type":"Point","coordinates":[0.65415,45.18351]},"properties":{"nom":"Les Bernardoux","ag":["Réseau urbain Péribus"],"lt":1,"dept":"24"}},{"type":"Feature","geometry":{"type":"Point","coordinates":[0.69335,45.20146]},"properties":{"nom":"Voie des Stades","ag":["Réseau urbain Péribus"],"lt":1,"dept":"24"}},{"type":"Feature","geometry":{"type":"Point","coordinates":[0.69089,45.18867]},"properties":{"nom":"Jules Védrines","ag":["Réseau urbain Péribus"],"lt":1,"dept":"24"}},{"type":"Feature","geometry":{"type":"Point","coordinates":[0.79361,45.18867]},"properties":{"nom":"Le Suchet","ag":["Réseau urbain Péribus"],"lt":1,"dept":"24"}},{"type":"Feature","geometry":{"type":"Point","coordinates":[0.85341,45.08835]},"properties":{"nom":"La Douze - Les Hautes Versannes","ag":["Réseau urbain Péribus"],"lt":1,"dept":"24"}},{"type":"Feature","geometry":{"type":"Point","coordinates":[0.7001,45.1975]},"properties":{"nom":"Barrière du Toulon","ag":["Réseau urbain Péribus"],"lt":1,"dept":"24"}},{"type":"Feature","geometry":{"type":"Point","coordinates":[0.68866,45.15749]},"properties":{"nom":"Coulounieix Bourg","ag":["Réseau urbain Péribus"],"lt":1,"dept":"24"}},{"type":"Feature","geometry":{"type":"Point","coordinates":[0.70528,45.18279]},"properties":{"nom":"Nouvelle du Port","ag":["Réseau urbain Péribus"],"lt":1,"dept":"24"}},{"type":"Feature","geometry":{"type":"Point","coordinates":[0.82867,45.08938]},"properties":{"nom":"La Douze - Les Martinies","ag":["Réseau urbain Péribus"],"lt":1,"dept":"24"}},{"type":"Feature","geometry":{"type":"Point","coordinates":[0.69813,45.19947]},"properties":{"nom":"Salle Omnisports","ag":["Réseau urbain Péribus"],"lt":1,"dept":"24"}},{"type":"Feature","geometry":{"type":"Point","coordinates":[0.69101,45.19106]},"properties":{"nom":"Chamiers Mairie","ag":["Réseau urbain Péribus"],"lt":1,"dept":"24"}},{"type":"Feature","geometry":{"type":"Point","coordinates":[0.6985,45.14319]},"properties":{"nom":"P+r Créavallée Nord","ag":["Réseau urbain Péribus"],"lt":1,"dept":"24"}},{"type":"Feature","geometry":{"type":"Point","coordinates":[0.87138,45.0585]},"properties":{"nom":"La Douze - Casteldeche","ag":["Réseau urbain Péribus"],"lt":1,"dept":"24"}},{"type":"Feature","geometry":{"type":"Point","coordinates":[0.68384,45.20049]},"properties":{"nom":"Beaupuy","ag":["Réseau urbain Péribus"],"lt":1,"dept":"24"}},{"type":"Feature","geometry":{"type":"Point","coordinates":[0.69286,45.1877]},"properties":{"nom":"Jean Labutie","ag":["Réseau urbain Péribus"],"lt":1,"dept":"24"}},{"type":"Feature","geometry":{"type":"Point","coordinates":[0.70218,45.13231]},"properties":{"nom":"Créavallée","ag":["Réseau urbain Péribus"],"lt":1,"dept":"24"}},{"type":"Feature","geometry":{"type":"Point","coordinates":[0.70033,45.13591]},"properties":{"nom":"LR NOTRE DAME DE S-Créav Sud(1)","ag":["Réseau urbain Péribus","Réseau interurbain - Dordogne (24)"],"lt":1,"dept":"24"}},{"type":"Feature","geometry":{"type":"Point","coordinates":[0.84515,45.06352]},"properties":{"nom":"La Douze - Chateau d'Eau","ag":["Réseau urbain Péribus"],"lt":1,"dept":"24"}},{"type":"Feature","geometry":{"type":"Point","coordinates":[0.73459,45.19309]},"properties":{"nom":"Les Arums","ag":["Réseau urbain Péribus"],"lt":1,"dept":"24"}},{"type":"Feature","geometry":{"type":"Point","coordinates":[0.73281,45.19373]},"properties":{"nom":"Les Roses","ag":["Réseau urbain Péribus"],"lt":1,"dept":"24"}},{"type":"Feature","geometry":{"type":"Point","coordinates":[0.73728,45.193]},"properties":{"nom":"Les Hortensias","ag":["Réseau urbain Péribus"],"lt":1,"dept":"24"}},{"type":"Feature","geometry":{"type":"Point","coordinates":[0.7384,45.19463]},"properties":{"nom":"Les Romains Écoles","ag":["Réseau urbain Péribus"],"lt":1,"dept":"24"}},{"type":"Feature","geometry":{"type":"Point","coordinates":[0.73351,45.20385]},"properties":{"nom":"Puy Roger","ag":["Réseau urbain Péribus"],"lt":1,"dept":"24"}},{"type":"Feature","geometry":{"type":"Point","coordinates":[0.6919,45.19723]},"properties":{"nom":"Le Sîlot","ag":["Réseau urbain Péribus"],"lt":1,"dept":"24"}},{"type":"Feature","geometry":{"type":"Point","coordinates":[0.74063,45.21764]},"properties":{"nom":"Majoulet","ag":["Réseau urbain Péribus"],"lt":1,"dept":"24"}},{"type":"Feature","geometry":{"type":"Point","coordinates":[0.73515,45.20728]},"properties":{"nom":"Penlèbre","ag":["Réseau urbain Péribus"],"lt":1,"dept":"24"}},{"type":"Feature","geometry":{"type":"Point","coordinates":[0.7318,45.19732]},"properties":{"nom":"Pierre de Coubertin","ag":["Réseau urbain Péribus"],"lt":1,"dept":"24"}},{"type":"Feature","geometry":{"type":"Point","coordinates":[0.72904,45.21729]},"properties":{"nom":"Le Lac","ag":["Réseau urbain Péribus"],"lt":1,"dept":"24"}},{"type":"Feature","geometry":{"type":"Point","coordinates":[0.73041,45.19917]},"properties":{"nom":"Les Mazades","ag":["Réseau urbain Péribus"],"lt":1,"dept":"24"}},{"type":"Feature","geometry":{"type":"Point","coordinates":[0.77501,45.18382]},"properties":{"nom":"BOULAZAC - ZI","ag":["Réseau urbain Péribus"],"lt":1,"dept":"24"}},{"type":"Feature","geometry":{"type":"Point","coordinates":[0.7569,45.18258]},"properties":{"nom":"P+r Lesparat","ag":["Réseau urbain Péribus"],"lt":1,"dept":"24"}},{"type":"Feature","geometry":{"type":"Point","coordinates":[0.74378,45.17956]},"properties":{"nom":"Lespinasse","ag":["Réseau urbain Péribus"],"lt":1,"dept":"24"}},{"type":"Feature","geometry":{"type":"Point","coordinates":[0.73815,45.17893]},"properties":{"nom":"Croix Bertrix","ag":["Réseau urbain Péribus"],"lt":1,"dept":"24"}},{"type":"Feature","geometry":{"type":"Point","coordinates":[0.73158,45.19473]},"properties":{"nom":"Maison de retraite Parrot","ag":["Réseau urbain Péribus"],"lt":1,"dept":"24"}},{"type":"Feature","geometry":{"type":"Point","coordinates":[0.73444,45.19598]},"properties":{"nom":"Trélissac Les Romains","ag":["Réseau urbain Péribus"],"lt":1,"dept":"24"}},{"type":"Feature","geometry":{"type":"Point","coordinates":[0.72735,45.19305]},"properties":{"nom":"Les Lilas Hôpital","ag":["Réseau urbain Péribus"],"lt":1,"dept":"24"}},{"type":"Feature","geometry":{"type":"Point","coordinates":[0.72611,45.21529]},"properties":{"nom":"Champcevinel Bourg","ag":["Réseau urbain Péribus"],"lt":1,"dept":"24"}},{"type":"Feature","geometry":{"type":"Point","coordinates":[0.75438,45.17816]},"properties":{"nom":"Léon Blum","ag":["Réseau urbain Péribus"],"lt":1,"dept":"24"}},{"type":"Feature","geometry":{"type":"Point","coordinates":[0.75229,45.17675]},"properties":{"nom":"Max Barel","ag":["Réseau urbain Péribus"],"lt":1,"dept":"24"}},{"type":"Feature","geometry":{"type":"Point","coordinates":[0.68723,45.24384]},"properties":{"nom":"LR CHATEAU L'EVEQUE-P+R Rond-Point(1)","ag":["Réseau urbain Péribus"],"lt":1,"dept":"24"}},{"type":"Feature","geometry":{"type":"Point","coordinates":[0.7465,45.18088]},"properties":{"nom":"Maison Carrée","ag":["Réseau urbain Péribus"],"lt":1,"dept":"24"}},{"type":"Feature","geometry":{"type":"Point","coordinates":[0.63195,45.18884]},"properties":{"nom":"Les Pavillons","ag":["Réseau urbain Péribus"],"lt":1,"dept":"24"}},{"type":"Feature","geometry":{"type":"Point","coordinates":[0.74091,45.18281]},"properties":{"nom":"Cimetière St-Georges","ag":["Réseau urbain Péribus"],"lt":1,"dept":"24"}},{"type":"Feature","geometry":{"type":"Point","coordinates":[0.6257,45.19235]},"properties":{"nom":"Le Chambon","ag":["Réseau urbain Péribus"],"lt":1,"dept":"24"}},{"type":"Feature","geometry":{"type":"Point","coordinates":[0.78209,45.18535]},"properties":{"nom":"Bareyrou","ag":["Réseau urbain Péribus"],"lt":1,"dept":"24"}},{"type":"Feature","geometry":{"type":"Point","coordinates":[0.75136,45.21392]},"properties":{"nom":"Pouyaud","ag":["Réseau urbain Péribus"],"lt":1,"dept":"24"}},{"type":"Feature","geometry":{"type":"Point","coordinates":[0.74587,45.18205]},"properties":{"nom":"La Somme","ag":["Réseau urbain Péribus"],"lt":1,"dept":"24"}},{"type":"Feature","geometry":{"type":"Point","coordinates":[0.63396,45.18576]},"properties":{"nom":"Clément Laval","ag":["Réseau urbain Péribus"],"lt":1,"dept":"24"}},{"type":"Feature","geometry":{"type":"Point","coordinates":[0.73114,44.99099]},"properties":{"nom":"Saint Michel de Villadeix - Labrousse","ag":["Réseau urbain Péribus"],"lt":1,"dept":"24"}},{"type":"Feature","geometry":{"type":"Point","coordinates":[0.78876,45.18688]},"properties":{"nom":"Les Tournesols","ag":["Réseau urbain Péribus"],"lt":1,"dept":"24"}},{"type":"Feature","geometry":{"type":"Point","coordinates":[0.6282,45.19049]},"properties":{"nom":"La Roche","ag":["Réseau urbain Péribus"],"lt":1,"dept":"24"}},{"type":"Feature","geometry":{"type":"Point","coordinates":[0.63003,45.18965]},"properties":{"nom":"Les Champs","ag":["Réseau urbain Péribus"],"lt":1,"dept":"24"}},{"type":"Feature","geometry":{"type":"Point","coordinates":[0.75837,45.05081]},"properties":{"nom":"Breuilh - Rte des Gravaux","ag":["Réseau urbain Péribus"],"lt":1,"dept":"24"}},{"type":"Feature","geometry":{"type":"Point","coordinates":[0.7444,45.21788]},"properties":{"nom":"Sapin d'Espagne","ag":["Réseau urbain Péribus"],"lt":1,"dept":"24"}},{"type":"Feature","geometry":{"type":"Point","coordinates":[0.76226,45.18227]},"properties":{"nom":"Agora","ag":["Réseau urbain Péribus"],"lt":1,"dept":"24"}},{"type":"Feature","geometry":{"type":"Point","coordinates":[0.74235,45.22371]},"properties":{"nom":"La borie","ag":["Réseau urbain Péribus"],"lt":1,"dept":"24"}},{"type":"Feature","geometry":{"type":"Point","coordinates":[0.74234,45.22601]},"properties":{"nom":"Réjaillac","ag":["Réseau urbain Péribus"],"lt":1,"dept":"24"}},{"type":"Feature","geometry":{"type":"Point","coordinates":[0.7692,45.18322]},"properties":{"nom":"Ambroise Croizat","ag":["Réseau urbain Péribus"],"lt":1,"dept":"24"}},{"type":"Feature","geometry":{"type":"Point","coordinates":[0.74891,45.21566]},"properties":{"nom":"La grange","ag":["Réseau urbain Péribus"],"lt":1,"dept":"24"}},{"type":"Feature","geometry":{"type":"Point","coordinates":[0.72417,45.18996]},"properties":{"nom":"LR PERIGUEUX-Lycée Laure Gatet","ag":["Réseau urbain Péribus","Réseau interurbain - Dordogne (24)"],"lt":1,"dept":"24"}},{"type":"Feature","geometry":{"type":"Point","coordinates":[0.75977,45.18852]},"properties":{"nom":"LR TRELISSAC-Les Jalots(1)","ag":["Réseau urbain Péribus","Réseau interurbain - Dordogne (24)"],"lt":1,"dept":"24"}},{"type":"Feature","geometry":{"type":"Point","coordinates":[0.73009,45.18393]},"properties":{"nom":"Gabriel Lacueille","ag":["Réseau urbain Péribus"],"lt":1,"dept":"24"}},{"type":"Feature","geometry":{"type":"Point","coordinates":[0.76427,45.20807]},"properties":{"nom":"Imp. des Grands Bruts","ag":["Réseau urbain Péribus"],"lt":1,"dept":"24"}},{"type":"Feature","geometry":{"type":"Point","coordinates":[0.72672,45.18253]},"properties":{"nom":"Faidherbe","ag":["Réseau urbain Péribus"],"lt":1,"dept":"24"}},{"type":"Feature","geometry":{"type":"Point","coordinates":[0.74827,45.20931]},"properties":{"nom":"Bas Pouyaud","ag":["Réseau urbain Péribus"],"lt":1,"dept":"24"}},{"type":"Feature","geometry":{"type":"Point","coordinates":[0.73077,45.21818]},"properties":{"nom":"Beausoleil","ag":["Réseau urbain Péribus"],"lt":1,"dept":"24"}},{"type":"Feature","geometry":{"type":"Point","coordinates":[0.64694,45.19068]},"properties":{"nom":"Maison des Compagnons","ag":["Réseau urbain Péribus"],"lt":1,"dept":"24"}},{"type":"Feature","geometry":{"type":"Point","coordinates":[0.72682,45.1924]},"properties":{"nom":"LR PERIGUEUX-Lycée Pablo Picasso","ag":["Réseau urbain Péribus","Réseau interurbain - Dordogne (24)"],"lt":1,"dept":"24"}},{"type":"Feature","geometry":{"type":"Point","coordinates":[0.71521,45.18882]},"properties":{"nom":"Kleber","ag":["Réseau urbain Péribus"],"lt":1,"dept":"24"}},{"type":"Feature","geometry":{"type":"Point","coordinates":[0.7591,45.21273]},"properties":{"nom":"Route du Pouyaud","ag":["Réseau urbain Péribus"],"lt":1,"dept":"24"}},{"type":"Feature","geometry":{"type":"Point","coordinates":[0.76229,45.21101]},"properties":{"nom":"Les Maisons","ag":["Réseau urbain Péribus"],"lt":1,"dept":"24"}},{"type":"Feature","geometry":{"type":"Point","coordinates":[0.73733,45.1833]},"properties":{"nom":"Pépinière","ag":["Réseau urbain Péribus"],"lt":1,"dept":"24"}},{"type":"Feature","geometry":{"type":"Point","coordinates":[0.74629,45.20633]},"properties":{"nom":"Jarijoux","ag":["Réseau urbain Péribus"],"lt":1,"dept":"24"}},{"type":"Feature","geometry":{"type":"Point","coordinates":[0.733,45.1839]},"properties":{"nom":"Talleyrand Périgord","ag":["Réseau urbain Péribus"],"lt":1,"dept":"24"}},{"type":"Feature","geometry":{"type":"Point","coordinates":[0.76699,45.20354]},"properties":{"nom":"Les Grands Bruts","ag":["Réseau urbain Péribus"],"lt":1,"dept":"24"}},{"type":"Feature","geometry":{"type":"Point","coordinates":[0.72906,45.20142]},"properties":{"nom":"Les Mazades Hautes","ag":["Réseau urbain Péribus"],"lt":1,"dept":"24"}},