{"type":"FeatureCollection","features":[{"type":"Feature","geometry":{"type":"Point","coordinates":[0.49807,49.35248]},"properties":{"nom":"Tour Camaret (Rue du Languedoc)","ag":["Réseau urbain Le Bus","Agrégat des réseaux urbains et interurbains de Normandie"],"lt":0,"dept":"27"}},{"type":"Feature","geometry":{"type":"Point","coordinates":[0.50508,49.35239]},"properties":{"nom":"Place A. Delarue","ag":["Réseau urbain Le Bus","Agrégat des réseaux urbains et interurbains de Normandie"],"lt":0,"dept":"27"}},{"type":"Feature","geometry":{"type":"Point","coordinates":[0.50486,49.35064]},"properties":{"nom":"Rue de l'île de France - Brehat","ag":["Réseau urbain Le Bus","Agrégat des réseaux urbains et interurbains de Normandie"],"lt":0,"dept":"27"}},{"type":"Feature","geometry":{"type":"Point","coordinates":[0.50464,49.34828]},"properties":{"nom":"Mairie St Germain (Route de Cormeille)","ag":["Réseau urbain Le Bus","Agrégat des réseaux urbains et interurbains de Normandie"],"lt":0,"dept":"27"}},{"type":"Feature","geometry":{"type":"Point","coordinates":[0.51379,49.35434]},"properties":{"nom":"Place V. Hugo","ag":["Réseau urbain Le Bus","Agrégat des réseaux urbains et interurbains de Normandie"],"lt":0,"dept":"27"}},{"type":"Feature","geometry":{"type":"Point","coordinates":[0.50953,49.35387]},"properties":{"nom":"Gare Routière (Place Kennedy)","ag":["Réseau urbain Le Bus","Agrégat des réseaux urbains et interurbains de Normandie"],"lt":0,"dept":"27"}},{"type":"Feature","geometry":{"type":"Point","coordinates":[0.50264,49.3578]},"properties":{"nom":"Rue de l'Etang (Angle rue des Joncs)","ag":["Réseau urbain Le Bus","Agrégat des réseaux urbains et interurbains de Normandie"],"lt":0,"dept":"27"}},{"type":"Feature","geometry":{"type":"Point","coordinates":[0.51471,49.3498]},"properties":{"nom":"Albatros (Rue du Moulin des Champs","ag":["Réseau urbain Le Bus","Agrégat des réseaux urbains et interurbains de Normandie"],"lt":0,"dept":"27"}},{"type":"Feature","geometry":{"type":"Point","coordinates":[0.52011,49.34546]},"properties":{"nom":"Rue de la Roquette","ag":["Réseau urbain Le Bus","Agrégat des réseaux urbains et interurbains de Normandie"],"lt":0,"dept":"27"}},{"type":"Feature","geometry":{"type":"Point","coordinates":[0.54811,49.34301]},"properties":{"nom":"Esat Papillons Blancs (La Véronne)","ag":["Réseau urbain Le Bus","Agrégat des réseaux urbains et interurbains de Normandie"],"lt":0,"dept":"27"}},{"type":"Feature","geometry":{"type":"Point","coordinates":[0.5424,49.34587]},"properties":{"nom":"Gémalto (La Véronne)","ag":["Réseau urbain Le Bus","Agrégat des réseaux urbains et interurbains de Normandie"],"lt":0,"dept":"27"}},{"type":"Feature","geometry":{"type":"Point","coordinates":[0.54119,49.3481]},"properties":{"nom":"Aldi (La Véronne)","ag":["Réseau urbain Le Bus","Agrégat des réseaux urbains et interurbains de Normandie"],"lt":0,"dept":"27"}},{"type":"Feature","geometry":{"type":"Point","coordinates":[0.53003,49.35101]},"properties":{"nom":"Hôtel impôts (Av de l'Europe)","ag":["Réseau urbain Le Bus","Agrégat des réseaux urbains et interurbains de Normandie"],"lt":0,"dept":"27"}},{"type":"Feature","geometry":{"type":"Point","coordinates":[0.52346,49.35205]},"properties":{"nom":"Petite France","ag":["Réseau urbain Le Bus","Agrégat des réseaux urbains et interurbains de Normandie"],"lt":0,"dept":"27"}},{"type":"Feature","geometry":{"type":"Point","coordinates":[0.51664,49.35481]},"properties":{"nom":"Place Ch. de Gaulle","ag":["Réseau urbain Le Bus","Agrégat des réseaux urbains et interurbains de Normandie"],"lt":0,"dept":"27"}},{"type":"Feature","geometry":{"type":"Point","coordinates":[0.5442,49.35303]},"properties":{"nom":"Les Baquets (Route de Rouen)","ag":["Réseau urbain Le Bus","Agrégat des réseaux urbains et interurbains de Normandie"],"lt":0,"dept":"27"}},{"type":"Feature","geometry":{"type":"Point","coordinates":[0.54768,49.35249]},"properties":{"nom":"La Cité (Route de Rouen)","ag":["Réseau urbain Le Bus","Agrégat des réseaux urbains et interurbains de Normandie"],"lt":0,"dept":"27"}},{"type":"Feature","geometry":{"type":"Point","coordinates":[0.53448,49.35451]},"properties":{"nom":"Voie Douce (Route de Rouen)","ag":["Réseau urbain Le Bus","Agrégat des réseaux urbains et interurbains de Normandie"],"lt":0,"dept":"27"}},{"type":"Feature","geometry":{"type":"Point","coordinates":[0.51541,49.35835]},"properties":{"nom":"Place Maubert - Médiathèque","ag":["Réseau urbain Le Bus","Agrégat des réseaux urbains et interurbains de Normandie"],"lt":0,"dept":"27"}},{"type":"Feature","geometry":{"type":"Point","coordinates":[0.51795,49.35146]},"properties":{"nom":"Rue du Président G. Pompidou","ag":["Réseau urbain Le Bus","Agrégat des réseaux urbains et interurbains de Normandie"],"lt":0,"dept":"27"}},{"type":"Feature","geometry":{"type":"Point","coordinates":[0.53561,49.34779]},"properties":{"nom":"Rue du 8 mai","ag":["Réseau urbain Le Bus","Agrégat des réseaux urbains et interurbains de Normandie"],"lt":0,"dept":"27"}},{"type":"Feature","geometry":{"type":"Point","coordinates":[0.52827,49.34639]},"properties":{"nom":"Centre de tri (Rue de Gaillon)","ag":["Réseau urbain Le Bus","Agrégat des réseaux urbains et interurbains de Normandie"],"lt":0,"dept":"27"}},{"type":"Feature","geometry":{"type":"Point","coordinates":[0.52295,49.34704]},"properties":{"nom":"Centre Commercial (Rue de Gaillon)","ag":["Réseau urbain Le Bus","Agrégat des réseaux urbains et interurbains de Normandie"],"lt":0,"dept":"27"}},{"type":"Feature","geometry":{"type":"Point","coordinates":[0.52502,49.34126]},"properties":{"nom":"Route de Bernay","ag":["Réseau urbain Le Bus","Agrégat des réseaux urbains et interurbains de Normandie"],"lt":0,"dept":"27"}},{"type":"Feature","geometry":{"type":"Point","coordinates":[1.17864,49.17292]},"properties":{"nom":"Ecole","ag":["Réseau urbain et scolaire SEMO","Agrégat des réseaux urbains et interurbains de Normandie"],"lt":0,"dept":"27"}},{"type":"Feature","geometry":{"type":"Point","coordinates":[1.17752,49.17269]},"properties":{"nom":"Ecole","ag":["Réseau urbain et scolaire SEMO","Agrégat des réseaux urbains et interurbains de Normandie"],"lt":0,"dept":"27"}},{"type":"Feature","geometry":{"type":"Point","coordinates":[1.17498,49.1734]},"properties":{"nom":"Bourg","ag":["Réseau urbain et scolaire SEMO","Agrégat des réseaux urbains et interurbains de Normandie"],"lt":0,"dept":"27"}},{"type":"Feature","geometry":{"type":"Point","coordinates":[1.17501,49.17313]},"properties":{"nom":"Bourg","ag":["Réseau urbain et scolaire SEMO","Agrégat des réseaux urbains et interurbains de Normandie"],"lt":0,"dept":"27"}},{"type":"Feature","geometry":{"type":"Point","coordinates":[1.17295,49.17785]},"properties":{"nom":"Les Sablons","ag":["Réseau urbain et scolaire SEMO","Agrégat des réseaux urbains et interurbains de Normandie"],"lt":0,"dept":"27"}},{"type":"Feature","geometry":{"type":"Point","coordinates":[1.17311,49.17734]},"properties":{"nom":"Les Sablons","ag":["Réseau urbain et scolaire SEMO","Agrégat des réseaux urbains et interurbains de Normandie"],"lt":0,"dept":"27"}},{"type":"Feature","geometry":{"type":"Point","coordinates":[1.18293,49.17271]},"properties":{"nom":"Aristide Briand","ag":["Réseau urbain et scolaire SEMO","Agrégat des réseaux urbains et interurbains de Normandie"],"lt":0,"dept":"27"}},{"type":"Feature","geometry":{"type":"Point","coordinates":[1.18201,49.17278]},"properties":{"nom":"Aristide Briand","ag":["Réseau urbain et scolaire SEMO","Agrégat des réseaux urbains et interurbains de Normandie"],"lt":0,"dept":"27"}},{"type":"Feature","geometry":{"type":"Point","coordinates":[1.1708,49.31982]},"properties":{"nom":"Anciens Commerces","ag":["Réseau urbain et scolaire SEMO","Agrégat des réseaux urbains et interurbains de Normandie"],"lt":0,"dept":"27"}},{"type":"Feature","geometry":{"type":"Point","coordinates":[1.17107,49.3199]},"properties":{"nom":"Anciens Commerces","ag":["Réseau urbain et scolaire SEMO","Agrégat des réseaux urbains et interurbains de Normandie"],"lt":0,"dept":"27"}},{"type":"Feature","geometry":{"type":"Point","coordinates":[1.17931,49.32099]},"properties":{"nom":"Centre Commercial","ag":["Réseau urbain et scolaire SEMO","Agrégat des réseaux urbains et interurbains de Normandie"],"lt":0,"dept":"27"}},{"type":"Feature","geometry":{"type":"Point","coordinates":[1.17993,49.32109]},"properties":{"nom":"Centre Commercial","ag":["Réseau urbain et scolaire SEMO","Agrégat des réseaux urbains et interurbains de Normandie"],"lt":0,"dept":"27"}},{"type":"Feature","geometry":{"type":"Point","coordinates":[1.16158,49.31905]},"properties":{"nom":"Garenne","ag":["Réseau urbain et scolaire SEMO","Agrégat des réseaux urbains et interurbains de Normandie"],"lt":0,"dept":"27"}},{"type":"Feature","geometry":{"type":"Point","coordinates":[1.16131,49.31907]},"properties":{"nom":"Garenne","ag":["Réseau urbain et scolaire SEMO","Agrégat des réseaux urbains et interurbains de Normandie"],"lt":0,"dept":"27"}},{"type":"Feature","geometry":{"type":"Point","coordinates":[1.17581,49.32072]},"properties":{"nom":"Poste Alizay","ag":["Réseau urbain et scolaire SEMO","Agrégat des réseaux urbains et interurbains de Normandie"],"lt":0,"dept":"27"}},{"type":"Feature","geometry":{"type":"Point","coordinates":[1.17514,49.32074]},"properties":{"nom":"Poste Alizay","ag":["Réseau urbain et scolaire SEMO","Agrégat des réseaux urbains et interurbains de Normandie"],"lt":0,"dept":"27"}},{"type":"Feature","geometry":{"type":"Point","coordinates":[1.16672,49.31932]},"properties":{"nom":"Rousselle","ag":["Réseau urbain et scolaire SEMO","Agrégat des réseaux urbains et interurbains de Normandie"],"lt":0,"dept":"27"}},{"type":"Feature","geometry":{"type":"Point","coordinates":[1.1665,49.31937]},"properties":{"nom":"Rousselle","ag":["Réseau urbain et scolaire SEMO","Agrégat des réseaux urbains et interurbains de Normandie"],"lt":0,"dept":"27"}},{"type":"Feature","geometry":{"type":"Point","coordinates":[1.18349,49.32129]},"properties":{"nom":"Saules","ag":["Réseau urbain et scolaire SEMO"],"lt":0,"dept":"27"}},{"type":"Feature","geometry":{"type":"Point","coordinates":[1.18409,49.3213]},"properties":{"nom":"Saules","ag":["Réseau urbain et scolaire SEMO","Agrégat des réseaux urbains et interurbains de Normandie"],"lt":0,"dept":"27"}},{"type":"Feature","geometry":{"type":"Point","coordinates":[1.18859,49.32019]},"properties":{"nom":"Stade Alizay","ag":["Réseau urbain et scolaire SEMO","Agrégat des réseaux urbains et interurbains de Normandie"],"lt":0,"dept":"27"}},{"type":"Feature","geometry":{"type":"Point","coordinates":[1.18869,49.32009]},"properties":{"nom":"Stade Alizay","ag":["Réseau urbain et scolaire SEMO","Agrégat des réseaux urbains et interurbains de Normandie"],"lt":0,"dept":"27"}},{"type":"Feature","geometry":{"type":"Point","coordinates":[1.23841,49.23102]},"properties":{"nom":"Capucines","ag":["Réseau urbain et scolaire SEMO","Agrégat des réseaux urbains et interurbains de Normandie"],"lt":0,"dept":"27"}},{"type":"Feature","geometry":{"type":"Point","coordinates":[1.23848,49.23108]},"properties":{"nom":"Capucines","ag":["Réseau urbain et scolaire SEMO","Agrégat des réseaux urbains et interurbains de Normandie"],"lt":0,"dept":"27"}},{"type":"Feature","geometry":{"type":"Point","coordinates":[1.25425,49.2387]},"properties":{"nom":"Le Moulin Andé","ag":["Réseau urbain et scolaire SEMO","Agrégat des réseaux urbains et interurbains de Normandie"],"lt":0,"dept":"27"}},{"type":"Feature","geometry":{"type":"Point","coordinates":[1.25413,49.23863]},"properties":{"nom":"Le Moulin Andé","ag":["Réseau urbain et scolaire SEMO","Agrégat des réseaux urbains et interurbains de Normandie"],"lt":0,"dept":"27"}},{"type":"Feature","geometry":{"type":"Point","coordinates":[1.24793,49.23229]},"properties":{"nom":"Pierre Ricard","ag":["Réseau urbain et scolaire SEMO","Agrégat des réseaux urbains et interurbains de Normandie"],"lt":0,"dept":"27"}},{"type":"Feature","geometry":{"type":"Point","coordinates":[1.24789,49.23231]},"properties":{"nom":"Pierre Ricard","ag":["Réseau urbain et scolaire SEMO","Agrégat des réseaux urbains et interurbains de Normandie"],"lt":0,"dept":"27"}},{"type":"Feature","geometry":{"type":"Point","coordinates":[1.24507,49.23144]},"properties":{"nom":"Prunus","ag":["Réseau urbain et scolaire SEMO","Agrégat des réseaux urbains et interurbains de Normandie"],"lt":0,"dept":"27"}},{"type":"Feature","geometry":{"type":"Point","coordinates":[1.24474,49.23139]},"properties":{"nom":"Prunus","ag":["Réseau urbain et scolaire SEMO","Agrégat des réseaux urbains et interurbains de Normandie"],"lt":0,"dept":"27"}},{"type":"Feature","geometry":{"type":"Point","coordinates":[1.27072,49.25614]},"properties":{"nom":"Mairie Connelles","ag":["Réseau urbain et scolaire SEMO","Agrégat des réseaux urbains et interurbains de Normandie"],"lt":0,"dept":"27"}},{"type":"Feature","geometry":{"type":"Point","coordinates":[1.09952,49.30284]},"properties":{"nom":"Les Canadiens","ag":["Réseau urbain et scolaire SEMO","Agrégat des réseaux urbains et interurbains de Normandie"],"lt":0,"dept":"27"}},{"type":"Feature","geometry":{"type":"Point","coordinates":[1.09916,49.30296]},"properties":{"nom":"Les Canadiens","ag":["Réseau urbain et scolaire SEMO","Agrégat des réseaux urbains et interurbains de Normandie"],"lt":0,"dept":"27"}},{"type":"Feature","geometry":{"type":"Point","coordinates":[1.1314,49.30436]},"properties":{"nom":"Bonport","ag":["Réseau urbain et scolaire SEMO","Agrégat des réseaux urbains et interurbains de Normandie"],"lt":0,"dept":"27"}},{"type":"Feature","geometry":{"type":"Point","coordinates":[1.13167,49.30418]},"properties":{"nom":"Bonport","ag":["Réseau urbain et scolaire SEMO","Agrégat des réseaux urbains et interurbains de Normandie"],"lt":0,"dept":"27"}},{"type":"Feature","geometry":{"type":"Point","coordinates":[1.07758,49.30105]},"properties":{"nom":"Rond de l'Eure","ag":["Réseau urbain et scolaire SEMO"],"lt":0,"dept":"27"}},{"type":"Feature","geometry":{"type":"Point","coordinates":[1.07758,49.3008]},"properties":{"nom":"Rond de l'Eure","ag":["Réseau urbain et scolaire SEMO","Agrégat des réseaux urbains et interurbains de Normandie"],"lt":0,"dept":"27"}},{"type":"Feature","geometry":{"type":"Point","coordinates":[1.08785,49.3034]},"properties":{"nom":"Martinet","ag":["Réseau urbain et scolaire SEMO","Agrégat des réseaux urbains et interurbains de Normandie"],"lt":0,"dept":"27"}},{"type":"Feature","geometry":{"type":"Point","coordinates":[1.08803,49.30337]},"properties":{"nom":"Martinet","ag":["Réseau urbain et scolaire SEMO","Agrégat des réseaux urbains et interurbains de Normandie"],"lt":0,"dept":"27"}},{"type":"Feature","geometry":{"type":"Point","coordinates":[1.1116,49.30485]},"properties":{"nom":"Rougemont","ag":["Réseau urbain et scolaire SEMO","Agrégat des réseaux urbains et interurbains de Normandie"],"lt":0,"dept":"27"}},{"type":"Feature","geometry":{"type":"Point","coordinates":[1.25725,49.18279]},"properties":{"nom":"FONTAINE-BELLENGER","ag":["Réseau urbain et scolaire SEMO","Agrégat des réseaux urbains et interurbains de Normandie"],"lt":0,"dept":"27"}},{"type":"Feature","geometry":{"type":"Point","coordinates":[1.25668,49.18283]},"properties":{"nom":"FONTAINE-BELLENGER","ag":["Réseau urbain et scolaire SEMO","Agrégat des réseaux urbains et interurbains de Normandie"],"lt":0,"dept":"27"}},{"type":"Feature","geometry":{"type":"Point","coordinates":[1.34897,49.163]},"properties":{"nom":"Aquaval","ag":["Réseau urbain et scolaire SEMO","Agrégat des réseaux urbains et interurbains de Normandie"],"lt":0,"dept":"27"}},{"type":"Feature","geometry":{"type":"Point","coordinates":[1.34848,49.16306]},"properties":{"nom":"Aquaval","ag":["Réseau urbain et scolaire SEMO","Agrégat des réseaux urbains et interurbains de Normandie"],"lt":0,"dept":"27"}},{"type":"Feature","geometry":{"type":"Point","coordinates":[1.3478,49.15602]},"properties":{"nom":"Centre Commercial","ag":["Réseau urbain et scolaire SEMO"],"lt":0,"dept":"27"}},{"type":"Feature","geometry":{"type":"Point","coordinates":[1.33106,49.16046]},"properties":{"nom":"Eglise Gaillon","ag":["Réseau urbain et scolaire SEMO","Agrégat des réseaux urbains et interurbains de Normandie"],"lt":0,"dept":"27"}},{"type":"Feature","geometry":{"type":"Point","coordinates":[1.32686,49.16143]},"properties":{"nom":"Château Gaillon","ag":["Réseau urbain et scolaire SEMO","Agrégat des réseaux urbains et interurbains de Normandie"],"lt":0,"dept":"27"}},{"type":"Feature","geometry":{"type":"Point","coordinates":[1.32698,49.1615]},"properties":{"nom":"Château Gaillon","ag":["Réseau urbain et scolaire SEMO","Agrégat des réseaux urbains et interurbains de Normandie"],"lt":0,"dept":"27"}},{"type":"Feature","geometry":{"type":"Point","coordinates":[1.34683,49.15459]},"properties":{"nom":"Claude Monet","ag":["Réseau urbain et scolaire SEMO","Agrégat des réseaux urbains et interurbains de Normandie"],"lt":0,"dept":"27"}},{"type":"Feature","geometry":{"type":"Point","coordinates":[1.3473,49.15451]},"properties":{"nom":"Claude Monet","ag":["Réseau urbain et scolaire SEMO","Agrégat des réseaux urbains et interurbains de Normandie"],"lt":0,"dept":"27"}},{"type":"Feature","geometry":{"type":"Point","coordinates":[1.34303,49.15638]},"properties":{"nom":"Gailloncel","ag":["Réseau urbain et scolaire SEMO","Agrégat des réseaux urbains et interurbains de Normandie"],"lt":0,"dept":"27"}},{"type":"Feature","geometry":{"type":"Point","coordinates":[1.34278,49.15644]},"properties":{"nom":"Gailloncel","ag":["Réseau urbain et scolaire SEMO"],"lt":0,"dept":"27"}},{"type":"Feature","geometry":{"type":"Point","coordinates":[1.32893,49.15976]},"properties":{"nom":"Estouteville","ag":["Réseau urbain et scolaire SEMO"],"lt":0,"dept":"27"}},{"type":"Feature","geometry":{"type":"Point","coordinates":[1.33853,49.15661]},"properties":{"nom":"Les Lavandières","ag":["Réseau urbain et scolaire SEMO","Agrégat des réseaux urbains et interurbains de Normandie"],"lt":0,"dept":"27"}},{"type":"Feature","geometry":{"type":"Point","coordinates":[1.33744,49.15655]},"properties":{"nom":"Les Lavandières","ag":["Réseau urbain et scolaire SEMO","Agrégat des réseaux urbains et interurbains de Normandie"],"lt":0,"dept":"27"}},{"type":"Feature","geometry":{"type":"Point","coordinates":[1.33435,49.16038]},"properties":{"nom":"Mairie Gaillon","ag":["Réseau urbain et scolaire SEMO","Agrégat des réseaux urbains et interurbains de Normandie"],"lt":0,"dept":"27"}},{"type":"Feature","geometry":{"type":"Point","coordinates":[1.33648,49.16016]},"properties":{"nom":"Marché Gaillon","ag":["Réseau urbain et scolaire SEMO","Agrégat des réseaux urbains et interurbains de Normandie"],"lt":0,"dept":"27"}},{"type":"Feature","geometry":{"type":"Point","coordinates":[1.33614,49.16011]},"properties":{"nom":"Marché Gaillon","ag":["Réseau urbain et scolaire SEMO","Agrégat des réseaux urbains et interurbains de Normandie"],"lt":0,"dept":"27"}},{"type":"Feature","geometry":{"type":"Point","coordinates":[1.33514,49.16074]},"properties":{"nom":"Marché Gaillon","ag":["Réseau urbain et scolaire SEMO","Agrégat des réseaux urbains et interurbains de Normandie"],"lt":0,"dept":"27"}},{"type":"Feature","geometry":{"type":"Point","coordinates":[1.33845,49.15958]},"properties":{"nom":"Centre Médical","ag":["Réseau urbain et scolaire SEMO","Agrégat des réseaux urbains et interurbains de Normandie"],"lt":0,"dept":"27"}},{"type":"Feature","geometry":{"type":"Point","coordinates":[1.33849,49.15969]},"properties":{"nom":"Centre Médical","ag":["Réseau urbain et scolaire SEMO","Agrégat des réseaux urbains et interurbains de Normandie"],"lt":0,"dept":"27"}},{"type":"Feature","geometry":{"type":"Point","coordinates":[1.33284,49.15979]},"properties":{"nom":"Les Mésanges","ag":["Réseau urbain et scolaire SEMO"],"lt":0,"dept":"27"}},{"type":"Feature","geometry":{"type":"Point","coordinates":[1.3439,49.15836]},"properties":{"nom":"Maréchal Leclerc","ag":["Réseau urbain et scolaire SEMO","Agrégat des réseaux urbains et interurbains de Normandie"],"lt":0,"dept":"27"}},{"type":"Feature","geometry":{"type":"Point","coordinates":[1.34381,49.15849]},"properties":{"nom":"Maréchal Leclerc","ag":["Réseau urbain et scolaire SEMO","Agrégat des réseaux urbains et interurbains de Normandie"],"lt":0,"dept":"27"}},{"type":"Feature","geometry":{"type":"Point","coordinates":[1.2382,49.19294]},"properties":{"nom":"La Limousine","ag":["Réseau urbain et scolaire SEMO","Agrégat des réseaux urbains et interurbains de Normandie"],"lt":0,"dept":"27"}},{"type":"Feature","geometry":{"type":"Point","coordinates":[1.23828,49.1926]},"properties":{"nom":"La Limousine","ag":["Réseau urbain et scolaire SEMO"],"lt":0,"dept":"27"}},{"type":"Feature","geometry":{"type":"Point","coordinates":[1.21831,49.19213]},"properties":{"nom":"La Butte à Colas","ag":["Réseau urbain et scolaire SEMO","Agrégat des réseaux urbains et interurbains de Normandie"],"lt":0,"dept":"27"}},{"type":"Feature","geometry":{"type":"Point","coordinates":[1.21825,49.19216]},"properties":{"nom":"La Butte à Colas","ag":["Réseau urbain et scolaire SEMO","Agrégat des réseaux urbains et interurbains de Normandie"],"lt":0,"dept":"27"}},{"type":"Feature","geometry":{"type":"Point","coordinates":[1.22465,49.19464]},"properties":{"nom":"Centre Routier","ag":["Réseau urbain et scolaire SEMO","Agrégat des réseaux urbains et interurbains de Normandie"],"lt":0,"dept":"27"}},{"type":"Feature","geometry":{"type":"Point","coordinates":[1.22784,49.19317]},"properties":{"nom":"Fosse Moret","ag":["Réseau urbain et scolaire SEMO","Agrégat des réseaux urbains et interurbains de Normandie"],"lt":0,"dept":"27"}},{"type":"Feature","geometry":{"type":"Point","coordinates":[1.22967,49.18694]},"properties":{"nom":"Clos Desruets","ag":["Réseau urbain et scolaire SEMO","Agrégat des réseaux urbains et interurbains de Normandie"],"lt":0,"dept":"27"}},{"type":"Feature","geometry":{"type":"Point","coordinates":[1.22173,49.19375]},"properties":{"nom":"Les Brelondes","ag":["Réseau urbain et scolaire SEMO","Agrégat des réseaux urbains et interurbains de Normandie"],"lt":0,"dept":"27"}},{"type":"Feature","geometry":{"type":"Point","coordinates":[1.22469,49.1991]},"properties":{"nom":"Les Érables","ag":["Réseau urbain et scolaire SEMO"],"lt":0,"dept":"27"}},{"type":"Feature","geometry":{"type":"Point","coordinates":[1.22246,49.1973]},"properties":{"nom":"Les Tilleuls","ag":["Réseau urbain et scolaire SEMO","Agrégat des réseaux urbains et interurbains de Normandie"],"lt":0,"dept":"27"}},{"type":"Feature","geometry":{"type":"Point","coordinates":[1.2224,49.19731]},"properties":{"nom":"Les Tilleuls","ag":["Réseau urbain et scolaire SEMO","Agrégat des réseaux urbains et interurbains de Normandie"],"lt":0,"dept":"27"}},{"type":"Feature","geometry":{"type":"Point","coordinates":[1.2279,49.19101]},"properties":{"nom":"Sous-Maillé","ag":["Réseau urbain et scolaire SEMO","Agrégat des réseaux urbains et interurbains de Normandie"],"lt":0,"dept":"27"}},{"type":"Feature","geometry":{"type":"Point","coordinates":[1.26377,49.2432]},"properties":{"nom":"Mairie Herqueville","ag":["Réseau urbain et scolaire SEMO","Agrégat des réseaux urbains et interurbains de Normandie"],"lt":0,"dept":"27"}},{"type":"Feature","geometry":{"type":"Point","coordinates":[1.26373,49.2432]},"properties":{"nom":"Mairie Herqueville","ag":["Réseau urbain et scolaire SEMO","Agrégat des réseaux urbains et interurbains de Normandie"],"lt":0,"dept":"27"}},{"type":"Feature","geometry":{"type":"Point","coordinates":[1.25599,49.24002]},"properties":{"nom":"Village Herqueville","ag":["Réseau urbain et scolaire SEMO","Agrégat des réseaux urbains et interurbains de Normandie"],"lt":0,"dept":"27"}},{"type":"Feature","geometry":{"type":"Point","coordinates":[1.15897,49.31895]},"properties":{"nom":"Centre Commercial","ag":["Réseau urbain et scolaire SEMO","Agrégat des réseaux urbains et interurbains de Normandie"],"lt":0,"dept":"27"}},{"type":"Feature","geometry":{"type":"Point","coordinates":[1.15894,49.31901]},"properties":{"nom":"Centre Commercial","ag":["Réseau urbain et scolaire SEMO","Agrégat des réseaux urbains et interurbains de Normandie"],"lt":0,"dept":"27"}},{"type":"Feature","geometry":{"type":"Point","coordinates":[1.15639,49.31888]},"properties":{"nom":"Commerces Igoville","ag":["Réseau urbain et scolaire SEMO","Agrégat des réseaux urbains et interurbains de Normandie"],"lt":0,"dept":"27"}},{"type":"Feature","geometry":{"type":"Point","coordinates":[1.15643,49.31899]},"properties":{"nom":"Commerces Igoville","ag":["Réseau urbain et scolaire SEMO","Agrégat des réseaux urbains et interurbains de Normandie"],"lt":0,"dept":"27"}},{"type":"Feature","geometry":{"type":"Point","coordinates":[1.15881,49.31724]},"properties":{"nom":"Pont-de-l'Arche SNCF","ag":["Réseau urbain et scolaire SEMO","Agrégat des réseaux urbains et interurbains de Normandie"],"lt":0,"dept":"27"}},{"type":"Feature","geometry":{"type":"Point","coordinates":[1.15871,49.31731]},"properties":{"nom":"Pont-de-l'Arche SNCF","ag":["Réseau urbain et scolaire SEMO","Agrégat des réseaux urbains et interurbains de Normandie"],"lt":0,"dept":"27"}},{"type":"Feature","geometry":{"type":"Point","coordinates":[1.14703,49.32142]},"properties":{"nom":"Rue du 8 Mai","ag":["Réseau urbain et scolaire SEMO","Agrégat des réseaux urbains et interurbains de Normandie"],"lt":0,"dept":"27"}},{"type":"Feature","geometry":{"type":"Point","coordinates":[1.14705,49.32148]},"properties":{"nom":"Rue du 8 Mai","ag":["Réseau urbain et scolaire SEMO","Agrégat des réseaux urbains et interurbains de Normandie"],"lt":0,"dept":"27"}},{"type":"Feature","geometry":{"type":"Point","coordinates":[1.15228,49.31889]},"properties":{"nom":"Rue de Lyons","ag":["Réseau urbain et scolaire SEMO"],"lt":0,"dept":"27"}},{"type":"Feature","geometry":{"type":"Point","coordinates":[1.15244,49.31893]},"properties":{"nom":"Rue de Lyons","ag":["Réseau urbain et scolaire SEMO"],"lt":0,"dept":"27"}},{"type":"Feature","geometry":{"type":"Point","coordinates":[1.17527,49.23169]},"properties":{"nom":"Coquelicots","ag":["Réseau urbain et scolaire SEMO","Agrégat des réseaux urbains et interurbains de Normandie"],"lt":0,"dept":"27"}},{"type":"Feature","geometry":{"type":"Point","coordinates":[1.17585,49.23283]},"properties":{"nom":"Coquelicots","ag":["Réseau urbain et scolaire SEMO","Agrégat des réseaux urbains et interurbains de Normandie"],"lt":0,"dept":"27"}},{"type":"Feature","geometry":{"type":"Point","coordinates":[1.18282,49.24353]},"properties":{"nom":"Epreville","ag":["Réseau urbain et scolaire SEMO","Agrégat des réseaux urbains et interurbains de Normandie"],"lt":0,"dept":"27"}},{"type":"Feature","geometry":{"type":"Point","coordinates":[1.18244,49.24388]},"properties":{"nom":"Epreville","ag":["Réseau urbain et scolaire SEMO"],"lt":0,"dept":"27"}},{"type":"Feature","geometry":{"type":"Point","coordinates":[1.18162,49.23554]},"properties":{"nom":"La Source","ag":["Réseau urbain et scolaire SEMO","Agrégat des réseaux urbains et interurbains de Normandie"],"lt":0,"dept":"27"}},{"type":"Feature","geometry":{"type":"Point","coordinates":[1.18164,49.23561]},"properties":{"nom":"La Source","ag":["Réseau urbain et scolaire SEMO","Agrégat des réseaux urbains et interurbains de Normandie"],"lt":0,"dept":"27"}},{"type":"Feature","geometry":{"type":"Point","coordinates":[1.17659,49.23469]},"properties":{"nom":"Mairie Incarville","ag":["Réseau urbain et scolaire SEMO","Agrégat des réseaux urbains et interurbains de Normandie"],"lt":0,"dept":"27"}},{"type":"Feature","geometry":{"type":"Point","coordinates":[1.17656,49.23484]},"properties":{"nom":"Mairie Incarville","ag":["Réseau urbain et scolaire SEMO","Agrégat des réseaux urbains et interurbains de Normandie"],"lt":0,"dept":"27"}},{"type":"Feature","geometry":{"type":"Point","coordinates":[1.17903,49.24548]},"properties":{"nom":"La Roncière","ag":["Réseau urbain et scolaire SEMO","Agrégat des réseaux urbains et interurbains de Normandie"],"lt":0,"dept":"27"}},{"type":"Feature","geometry":{"type":"Point","coordinates":[1.17888,49.24547]},"properties":{"nom":"La Roncière","ag":["Réseau urbain et scolaire SEMO","Agrégat des réseaux urbains et interurbains de Normandie"],"lt":0,"dept":"27"}},{"type":"Feature","geometry":{"type":"Point","coordinates":[1.18109,49.23982]},"properties":{"nom":"INCARVILLE St-Cyr","ag":["Réseau urbain et scolaire SEMO"],"lt":0,"dept":"27"}},{"type":"Feature","geometry":{"type":"Point","coordinates":[1.18164,49.24068]},"properties":{"nom":"INCARVILLE St-Cyr","ag":["Réseau urbain et scolaire SEMO","Agrégat des réseaux urbains et interurbains de Normandie"],"lt":0,"dept":"27"}},{"type":"Feature","geometry":{"type":"Point","coordinates":[1.17758,49.23675]},"properties":{"nom":"INCARVILLE Village","ag":["Réseau urbain et scolaire SEMO","Agrégat des réseaux urbains et interurbains de Normandie"],"lt":0,"dept":"27"}},{"type":"Feature","geometry":{"type":"Point","coordinates":[1.17796,49.23716]},"properties":{"nom":"INCARVILLE Village","ag":["Réseau urbain et scolaire SEMO","Agrégat des réseaux urbains et interurbains de Normandie"],"lt":0,"dept":"27"}},{"type":"Feature","geometry":{"type":"Point","coordinates":[1.16437,49.30157]},"properties":{"nom":"Charmes","ag":["Réseau urbain et scolaire SEMO","Agrégat des réseaux urbains et interurbains de Normandie"],"lt":0,"dept":"27"}},{"type":"Feature","geometry":{"type":"Point","coordinates":[1.16452,49.30161]},"properties":{"nom":"Charmes","ag":["Réseau urbain et scolaire SEMO","Agrégat des réseaux urbains et interurbains de Normandie"],"lt":0,"dept":"27"}},{"type":"Feature","geometry":{"type":"Point","coordinates":[1.17509,49.29809]},"properties":{"nom":"Clinique Les Damps","ag":["Réseau urbain et scolaire SEMO","Agrégat des réseaux urbains et interurbains de Normandie"],"lt":0,"dept":"27"}},{"type":"Feature","geometry":{"type":"Point","coordinates":[1.17481,49.29794]},"properties":{"nom":"Clinique Les Damps","ag":["Réseau urbain et scolaire SEMO","Agrégat des réseaux urbains et interurbains de Normandie"],"lt":0,"dept":"27"}},{"type":"Feature","geometry":{"type":"Point","coordinates":[1.17165,49.29991]},"properties":{"nom":"Escarpolette","ag":["Réseau urbain et scolaire SEMO","Agrégat des réseaux urbains et interurbains de Normandie"],"lt":0,"dept":"27"}},{"type":"Feature","geometry":{"type":"Point","coordinates":[1.17168,49.29998]},"properties":{"nom":"Escarpolette","ag":["Réseau urbain et scolaire SEMO","Agrégat des réseaux urbains et interurbains de Normandie"],"lt":0,"dept":"27"}},{"type":"Feature","geometry":{"type":"Point","coordinates":[1.20986,49.28032]},"properties":{"nom":"Charles De Gaulle","ag":["Réseau urbain et scolaire SEMO","Agrégat des réseaux urbains et interurbains de Normandie"],"lt":0,"dept":"27"}},{"type":"Feature","geometry":{"type":"Point","coordinates":[1.20857,49.28244]},"properties":{"nom":"Cryo","ag":["Réseau urbain et scolaire SEMO","Agrégat des réseaux urbains et interurbains de Normandie"],"lt":0,"dept":"27"}},{"type":"Feature","geometry":{"type":"Point","coordinates":[1.20165,49.29329]},"properties":{"nom":"Delaunay","ag":["Réseau urbain et scolaire SEMO","Agrégat des réseaux urbains et interurbains de Normandie"],"lt":0,"dept":"27"}},{"type":"Feature","geometry":{"type":"Point","coordinates":[1.20145,49.29327]},"properties":{"nom":"Delaunay","ag":["Réseau urbain et scolaire SEMO","Agrégat des réseaux urbains et interurbains de Normandie"],"lt":0,"dept":"27"}},{"type":"Feature","geometry":{"type":"Point","coordinates":[1.20754,49.28652]},"properties":{"nom":"Jules Ferry","ag":["Réseau urbain et scolaire SEMO"],"lt":0,"dept":"27"}},{"type":"Feature","geometry":{"type":"Point","coordinates":[1.20652,49.29041]},"properties":{"nom":"L'Eure","ag":["Réseau urbain et scolaire SEMO","Agrégat des réseaux urbains et interurbains de Normandie"],"lt":0,"dept":"27"}},{"type":"Feature","geometry":{"type":"Point","coordinates":[1.20625,49.29055]},"properties":{"nom":"L'Eure","ag":["Réseau urbain et scolaire SEMO","Agrégat des réseaux urbains et interurbains de Normandie"],"lt":0,"dept":"27"}},{"type":"Feature","geometry":{"type":"Point","coordinates":[1.20634,49.28546]},"properties":{"nom":"Mairie Léry","ag":["Réseau urbain et scolaire SEMO","Agrégat des réseaux urbains et interurbains de Normandie"],"lt":0,"dept":"27"}},{"type":"Feature","geometry":{"type":"Point","coordinates":[1.20629,49.28543]},"properties":{"nom":"Mairie Léry","ag":["Réseau urbain et scolaire SEMO"],"lt":0,"dept":"27"}},{"type":"Feature","geometry":{"type":"Point","coordinates":[1.20878,49.28453]},"properties":{"nom":"Marcel Picard","ag":["Réseau urbain et scolaire SEMO","Agrégat des réseaux urbains et interurbains de Normandie"],"lt":0,"dept":"27"}},{"type":"Feature","geometry":{"type":"Point","coordinates":[1.20912,49.30286]},"properties":{"nom":"Parc de Loisirs","ag":["Réseau urbain et scolaire SEMO"],"lt":0,"dept":"27"}},{"type":"Feature","geometry":{"type":"Point","coordinates":[1.20602,49.28518]},"properties":{"nom":"Souvenir","ag":["Réseau urbain et scolaire SEMO","Agrégat des réseaux urbains et interurbains de Normandie"],"lt":0,"dept":"27"}},{"type":"Feature","geometry":{"type":"Point","coordinates":[1.2046,49.28402]},"properties":{"nom":"Voltaire","ag":["Réseau urbain et scolaire SEMO","Agrégat des réseaux urbains et interurbains de Normandie"],"lt":0,"dept":"27"}},{"type":"Feature","geometry":{"type":"Point","coordinates":[1.20598,49.31316]},"properties":{"nom":"Artois","ag":["Réseau urbain et scolaire SEMO","Agrégat des réseaux urbains et interurbains de Normandie"],"lt":0,"dept":"27"}},{"type":"Feature","geometry":{"type":"Point","coordinates":[1.20568,49.31321]},"properties":{"nom":"Artois","ag":["Réseau urbain et scolaire SEMO","Agrégat des réseaux urbains et interurbains de Normandie"],"lt":0,"dept":"27"}},{"type":"Feature","geometry":{"type":"Point","coordinates":[1.19825,49.31292]},"properties":{"nom":"Le Verdoyant","ag":["Réseau urbain et scolaire SEMO","Agrégat des réseaux urbains et interurbains de Normandie"],"lt":0,"dept":"27"}},{"type":"Feature","geometry":{"type":"Point","coordinates":[1.19805,49.31307]},"properties":{"nom":"Le Verdoyant","ag":["Réseau urbain et scolaire SEMO","Agrégat des réseaux urbains et interurbains de Normandie"],"lt":0,"dept":"27"}},{"type":"Feature","geometry":{"type":"Point","coordinates":[1.20103,49.31282]},"properties":{"nom":"Mairie Le Manoir","ag":["Réseau urbain et scolaire SEMO","Agrégat des réseaux urbains et interurbains de Normandie"],"lt":0,"dept":"27"}},{"type":"Feature","geometry":{"type":"Point","coordinates":[1.20095,49.31275]},"properties":{"nom":"Mairie Le Manoir","ag":["Réseau urbain et scolaire SEMO","Agrégat des réseaux urbains et interurbains de Normandie"],"lt":0,"dept":"27"}},{"type":"Feature","geometry":{"type":"Point","coordinates":[1.16651,49.21924]},"properties":{"nom":"11 Novembre","ag":["Réseau urbain et scolaire SEMO","Agrégat des réseaux urbains et interurbains de Normandie"],"lt":0,"dept":"27"}},{"type":"Feature","geometry":{"type":"Point","coordinates":[1.16656,49.21861]},"properties":{"nom":"11 Novembre","ag":["Réseau urbain et scolaire SEMO","Agrégat des réseaux urbains et interurbains de Normandie"],"lt":0,"dept":"27"}},{"type":"Feature","geometry":{"type":"Point","coordinates":[1.17335,49.22601]},"properties":{"nom":"Abattoirs","ag":["Réseau urbain et scolaire SEMO"],"lt":0,"dept":"27"}},{"type":"Feature","geometry":{"type":"Point","coordinates":[1.17314,49.22571]},"properties":{"nom":"Abattoirs","ag":["Réseau urbain et scolaire SEMO","Agrégat des réseaux urbains et interurbains de Normandie"],"lt":0,"dept":"27"}},{"type":"Feature","geometry":{"type":"Point","coordinates":[1.15548,49.21379]},"properties":{"nom":"Adrien Breton","ag":["Réseau urbain et scolaire SEMO","Agrégat des réseaux urbains et interurbains de Normandie"],"lt":0,"dept":"27"}},{"type":"Feature","geometry":{"type":"Point","coordinates":[1.15541,49.21382]},"properties":{"nom":"Adrien Breton","ag":["Réseau urbain et scolaire SEMO","Agrégat des réseaux urbains et interurbains de Normandie"],"lt":0,"dept":"27"}},{"type":"Feature","geometry":{"type":"Point","coordinates":[1.16731,49.22257]},"properties":{"nom":"Acacias","ag":["Réseau urbain et scolaire SEMO","Agrégat des réseaux urbains et interurbains de Normandie"],"lt":0,"dept":"27"}},{"type":"Feature","geometry":{"type":"Point","coordinates":[1.16707,49.22228]},"properties":{"nom":"Acacias","ag":["Réseau urbain et scolaire SEMO","Agrégat des réseaux urbains et interurbains de Normandie"],"lt":0,"dept":"27"}},{"type":"Feature","geometry":{"type":"Point","coordinates":[1.18582,49.2014]},"properties":{"nom":"Alexandre Dumas","ag":["Réseau urbain et scolaire SEMO","Agrégat des réseaux urbains et interurbains de Normandie"],"lt":0,"dept":"27"}},{"type":"Feature","geometry":{"type":"Point","coordinates":[1.18574,49.2014]},"properties":{"nom":"Alexandre Dumas","ag":["Réseau urbain et scolaire SEMO","Agrégat des réseaux urbains et interurbains de Normandie"],"lt":0,"dept":"27"}},{"type":"Feature","geometry":{"type":"Point","coordinates":[1.16123,49.20948]},"properties":{"nom":"Beaulieu","ag":["Réseau urbain et scolaire SEMO","Agrégat des réseaux urbains et interurbains de Normandie"],"lt":0,"dept":"27"}},{"type":"Feature","geometry":{"type":"Point","coordinates":[1.15037,49.2059]},"properties":{"nom":"Belgique","ag":["Réseau urbain et scolaire SEMO","Agrégat des réseaux urbains et interurbains de Normandie"],"lt":0,"dept":"27"}},{"type":"Feature","geometry":{"type":"Point","coordinates":[1.19781,49.20778]},"properties":{"nom":"Bois Vacher","ag":["Réseau urbain et scolaire SEMO","Agrégat des réseaux urbains et interurbains de Normandie"],"lt":0,"dept":"27"}},{"type":"Feature","geometry":{"type":"Point","coordinates":[1.17879,49.20953]},"properties":{"nom":"Plaine des Loisirs","ag":["Réseau urbain et scolaire SEMO","Agrégat des réseaux urbains et interurbains de Normandie"],"lt":0,"dept":"27"}},{"type":"Feature","geometry":{"type":"Point","coordinates":[1.17812,49.20973]},"properties":{"nom":"Plaine des Loisirs","ag":["Réseau urbain et scolaire SEMO","Agrégat des réseaux urbains et interurbains de Normandie"],"lt":0,"dept":"27"}},{"type":"Feature","geometry":{"type":"Point","coordinates":[1.16954,49.23067]},"properties":{"nom":"Charles Cros","ag":["Réseau urbain et scolaire SEMO","Agrégat des réseaux urbains et interurbains de Normandie"],"lt":0,"dept":"27"}},{"type":"Feature","geometry":{"type":"Point","coordinates":[1.16942,49.23067]},"properties":{"nom":"Charles Cros","ag":["Réseau urbain et scolaire SEMO","Agrégat des réseaux urbains et interurbains de Normandie"],"lt":0,"dept":"27"}},{"type":"Feature","geometry":{"type":"Point","coordinates":[1.18164,49.21659]},"properties":{"nom":"Chaussée Decrétot","ag":["Réseau urbain et scolaire SEMO","Agrégat des réseaux urbains et interurbains de Normandie"],"lt":0,"dept":"27"}},{"type":"Feature","geometry":{"type":"Point","coordinates":[1.18139,49.21698]},"properties":{"nom":"Chaussée Decrétot","ag":["Réseau urbain et scolaire SEMO","Agrégat des réseaux urbains et interurbains de Normandie"],"lt":0,"dept":"27"}},{"type":"Feature","geometry":{"type":"Point","coordinates":[1.15639,49.21138]},"properties":{"nom":"Collège les Fougères","ag":["Réseau urbain et scolaire SEMO","Agrégat des réseaux urbains et interurbains de Normandie"],"lt":0,"dept":"27"}},{"type":"Feature","geometry":{"type":"Point","coordinates":[1.15637,49.21144]},"properties":{"nom":"Collège les Fougères","ag":["Réseau urbain et scolaire SEMO"],"lt":0,"dept":"27"}},{"type":"Feature","geometry":{"type":"Point","coordinates":[1.19219,49.20141]},"properties":{"nom":"Collège Lipinska","ag":["Réseau urbain et scolaire SEMO","Agrégat des réseaux urbains et interurbains de Normandie"],"lt":0,"dept":"27"}},{"type":"Feature","geometry":{"type":"Point","coordinates":[1.16894,49.21006]},"properties":{"nom":"Châtel","ag":["Réseau urbain et scolaire SEMO","Agrégat des réseaux urbains et interurbains de Normandie"],"lt":0,"dept":"27"}},{"type":"Feature","geometry":{"type":"Point","coordinates":[1.16982,49.21015]},"properties":{"nom":"Châtel","ag":["Réseau urbain et scolaire SEMO","Agrégat des réseaux urbains et interurbains de Normandie"],"lt":0,"dept":"27"}},{"type":"Feature","geometry":{"type":"Point","coordinates":[1.16151,49.22429]},"properties":{"nom":"Cimetière Louviers","ag":["Réseau urbain et scolaire SEMO","Agrégat des réseaux urbains et interurbains de Normandie"],"lt":0,"dept":"27"}},{"type":"Feature","geometry":{"type":"Point","coordinates":[1.16145,49.2243]},"properties":{"nom":"Cimetière Louviers","ag":["Réseau urbain et scolaire SEMO","Agrégat des réseaux urbains et interurbains de Normandie"],"lt":0,"dept":"27"}},{"type":"Feature","geometry":{"type":"Point","coordinates":[1.15776,49.2071]},"properties":{"nom":"Clinique Louviers","ag":["Réseau urbain et scolaire SEMO","Agrégat des réseaux urbains et interurbains de Normandie"],"lt":0,"dept":"27"}},{"type":"Feature","geometry":{"type":"Point","coordinates":[1.18785,49.20708]},"properties":{"nom":"Clos Morlet","ag":["Réseau urbain et scolaire SEMO","Agrégat des réseaux urbains et interurbains de Normandie"],"lt":0,"dept":"27"}},{"type":"Feature","geometry":{"type":"Point","coordinates":[1.18766,49.20696]},"properties":{"nom":"Clos Morlet","ag":["Réseau urbain et scolaire SEMO","Agrégat des réseaux urbains et interurbains de Normandie"],"lt":0,"dept":"27"}},{"type":"Feature","geometry":{"type":"Point","coordinates":[1.19903,49.20563]},"properties":{"nom":"Chemin des Monts","ag":["Réseau urbain et scolaire SEMO","Agrégat des réseaux urbains et interurbains de Normandie"],"lt":0,"dept":"27"}},{"type":"Feature","geometry":{"type":"Point","coordinates":[1.19319,49.21059]},"properties":{"nom":"Côte des Monts","ag":["Réseau urbain et scolaire SEMO","Agrégat des réseaux urbains et interurbains de Normandie"],"lt":0,"dept":"27"}},{"type":"Feature","geometry":{"type":"Point","coordinates":[1.18742,49.20971]},"properties":{"nom":"Clos des Vignes","ag":["Réseau urbain et scolaire SEMO","Agrégat des réseaux urbains et interurbains de Normandie"],"lt":0,"dept":"27"}},{"type":"Feature","geometry":{"type":"Point","coordinates":[1.16462,49.21012]},"properties":{"nom":"Champ de Ville","ag":["Réseau urbain et scolaire SEMO","Agrégat des réseaux urbains et interurbains de Normandie"],"lt":0,"dept":"27"}},{"type":"Feature","geometry":{"type":"Point","coordinates":[1.1664,49.21006]},"properties":{"nom":"Champ de Ville","ag":["Réseau urbain et scolaire SEMO","Agrégat des réseaux urbains et interurbains de Normandie"],"lt":0,"dept":"27"}},{"type":"Feature","geometry":{"type":"Point","coordinates":[1.16459,49.21019]},"properties":{"nom":"Champ de Ville","ag":["Réseau urbain et scolaire SEMO","Agrégat des réseaux urbains et interurbains de Normandie"],"lt":0,"dept":"27"}},{"type":"Feature","geometry":{"type":"Point","coordinates":[1.16474,49.21304]},"properties":{"nom":"Collège F.Buisson","ag":["Réseau urbain et scolaire SEMO","Agrégat des réseaux urbains et interurbains de Normandie"],"lt":0,"dept":"27"}},{"type":"Feature","geometry":{"type":"Point","coordinates":[1.16466,49.21299]},"properties":{"nom":"Collège F.Buisson","ag":["Réseau urbain et scolaire SEMO","Agrégat des réseaux urbains et interurbains de Normandie"],"lt":0,"dept":"27"}},{"type":"Feature","geometry":{"type":"Point","coordinates":[1.17275,49.22307]},"properties":{"nom":"François Mitterrand","ag":["Réseau urbain et scolaire SEMO","Agrégat des réseaux urbains et interurbains de Normandie"],"lt":0,"dept":"27"}},{"type":"Feature","geometry":{"type":"Point","coordinates":[1.17246,49.22313]},"properties":{"nom":"François Mitterrand","ag":["Réseau urbain et scolaire SEMO","Agrégat des réseaux urbains et interurbains de Normandie"],"lt":0,"dept":"27"}},{"type":"Feature","geometry":{"type":"Point","coordinates":[1.17061,49.21159]},"properties":{"nom":"Foch","ag":["Réseau urbain et scolaire SEMO"],"lt":0,"dept":"27"}},{"type":"Feature","geometry":{"type":"Point","coordinates":[1.17026,49.21211]},"properties":{"nom":"Foch","ag":["Réseau urbain et scolaire SEMO"],"lt":0,"dept":"27"}},{"type":"Feature","geometry":{"type":"Point","coordinates":[1.16145,49.21668]},"properties":{"nom":"Guy De Maupassant","ag":["Réseau urbain et scolaire SEMO","Agrégat des réseaux urbains et interurbains de Normandie"],"lt":0,"dept":"27"}},{"type":"Feature","geometry":{"type":"Point","coordinates":[1.16135,49.2167]},"properties":{"nom":"Guy De Maupassant","ag":["Réseau urbain et scolaire SEMO","Agrégat des réseaux urbains et interurbains de Normandie"],"lt":0,"dept":"27"}},{"type":"Feature","geometry":{"type":"Point","coordinates":[1.18813,49.20615]},"properties":{"nom":"Hélène Boucher","ag":["Réseau urbain et scolaire SEMO","Agrégat des réseaux urbains et interurbains de Normandie"],"lt":0,"dept":"27"}},{"type":"Feature","geometry":{"type":"Point","coordinates":[1.18808,49.20604]},"properties":{"nom":"Hélène Boucher","ag":["Réseau urbain et scolaire SEMO","Agrégat des réseaux urbains et interurbains de Normandie"],"lt":0,"dept":"27"}},{"type":"Feature","geometry":{"type":"Point","coordinates":[1.17522,49.21026]},"properties":{"nom":"Hôpital Louviers","ag":["Réseau urbain et scolaire SEMO","Agrégat des réseaux urbains et interurbains de Normandie"],"lt":0,"dept":"27"}},{"type":"Feature","geometry":{"type":"Point","coordinates":[1.17515,49.21032]},"properties":{"nom":"Hôpital Louviers","ag":["Réseau urbain et scolaire SEMO","Agrégat des réseaux urbains et interurbains de Normandie"],"lt":0,"dept":"27"}},{"type":"Feature","geometry":{"type":"Point","coordinates":[1.16612,49.21466]},"properties":{"nom":"Joffre","ag":["Réseau urbain et scolaire SEMO","Agrégat des réseaux urbains et interurbains de Normandie"],"lt":0,"dept":"27"}},{"type":"Feature","geometry":{"type":"Point","coordinates":[1.16756,49.21507]},"properties":{"nom":"Joffre","ag":["Réseau urbain et scolaire SEMO","Agrégat des réseaux urbains et interurbains de Normandie"],"lt":0,"dept":"27"}},{"type":"Feature","geometry":{"type":"Point","coordinates":[1.16464,49.21161]},"properties":{"nom":"Jardin Public","ag":["Réseau urbain et scolaire SEMO","Agrégat des réseaux urbains et interurbains de Normandie"],"lt":0,"dept":"27"}},{"type":"Feature","geometry":{"type":"Point","coordinates":[1.16392,49.21045]},"properties":{"nom":"Jardin Public","ag":["Réseau urbain et scolaire SEMO"],"lt":0,"dept":"27"}},{"type":"Feature","geometry":{"type":"Point","coordinates":[1.18515,49.20651]},"properties":{"nom":"Jean Zay","ag":["Réseau urbain et scolaire SEMO","Agrégat des réseaux urbains et interurbains de Normandie"],"lt":0,"dept":"27"}},{"type":"Feature","geometry":{"type":"Point","coordinates":[1.18508,49.2065]},"properties":{"nom":"Jean Zay","ag":["Réseau urbain et scolaire SEMO","Agrégat des réseaux urbains et interurbains de Normandie"],"lt":0,"dept":"27"}},{"type":"Feature","geometry":{"type":"Point","coordinates":[1.16927,49.22322]},"properties":{"nom":"Kolysé","ag":["Réseau urbain et scolaire SEMO","Agrégat des réseaux urbains et interurbains de Normandie"],"lt":0,"dept":"27"}},{"type":"Feature","geometry":{"type":"Point","coordinates":[1.16994,49.22323]},"properties":{"nom":"Kolysé","ag":["Réseau urbain et scolaire SEMO","Agrégat des réseaux urbains et interurbains de Normandie"],"lt":0,"dept":"27"}},{"type":"Feature","geometry":{"type":"Point","coordinates":[1.1969,49.21027]},"properties":{"nom":"La Mare","ag":["Réseau urbain et scolaire SEMO","Agrégat des réseaux urbains et interurbains de Normandie"],"lt":0,"dept":"27"}},{"type":"Feature","geometry":{"type":"Point","coordinates":[1.18893,49.20412]},"properties":{"nom":"Les Cascades","ag":["Réseau urbain et scolaire SEMO","Agrégat des réseaux urbains et interurbains de Normandie"],"lt":0,"dept":"27"}},{"type":"Feature","geometry":{"type":"Point","coordinates":[1.18885,49.20407]},"properties":{"nom":"Les Cascades","ag":["Réseau urbain et scolaire SEMO","Agrégat des réseaux urbains et interurbains de Normandie"],"lt":0,"dept":"27"}},{"type":"Feature","geometry":{"type":"Point","coordinates":[1.17455,49.21628]},"properties":{"nom":"Lycée Decrétot","ag":["Réseau urbain et scolaire SEMO","Agrégat des réseaux urbains et interurbains de Normandie"],"lt":0,"dept":"27"}},{"type":"Feature","geometry":{"type":"Point","coordinates":[1.17393,49.21606]},"properties":{"nom":"Lycée Decrétot","ag":["Réseau urbain et scolaire SEMO","Agrégat des réseaux urbains et interurbains de Normandie"],"lt":0,"dept":"27"}},{"type":"Feature","geometry":{"type":"Point","coordinates":[1.15574,49.20924]},"properties":{"nom":"Lyc. Les Fontenelles","ag":["Réseau urbain et scolaire SEMO","Agrégat des réseaux urbains et interurbains de Normandie"],"lt":0,"dept":"27"}},{"type":"Feature","geometry":{"type":"Point","coordinates":[1.15552,49.20847]},"properties":{"nom":"Lyc Les Fontenelles","ag":["Réseau urbain et scolaire SEMO","Agrégat des réseaux urbains et interurbains de Normandie"],"lt":0,"dept":"27"}},{"type":"Feature","geometry":{"type":"Point","coordinates":[1.16827,49.22579]},"properties":{"nom":"Le Hub","ag":["Réseau urbain et scolaire SEMO"],"lt":0,"dept":"27"}},{"type":"Feature","geometry":{"type":"Point","coordinates":[1.1682,49.22579]},"properties":{"nom":"Le Hub","ag":["Réseau urbain et scolaire SEMO","Agrégat des réseaux urbains et interurbains de Normandie"],"lt":0,"dept":"27"}},{"type":"Feature","geometry":{"type":"Point","coordinates":[1.15252,49.20523]},"properties":{"nom":"Les Joncquilles","ag":["Réseau urbain et scolaire SEMO","Agrégat des réseaux urbains et interurbains de Normandie"],"lt":0,"dept":"27"}},{"type":"Feature","geometry":{"type":"Point","coordinates":[1.16491,49.22326]},"properties":{"nom":"La Londe","ag":["Réseau urbain et scolaire SEMO","Agrégat des réseaux urbains et interurbains de Normandie"],"lt":0,"dept":"27"}},{"type":"Feature","geometry":{"type":"Point","coordinates":[1.16481,49.22331]},"properties":{"nom":"La Londe","ag":["Réseau urbain et scolaire SEMO","Agrégat des réseaux urbains et interurbains de Normandie"],"lt":0,"dept":"27"}},{"type":"Feature","geometry":{"type":"Point","coordinates":[1.16135,49.21967]},"properties":{"nom":"Leroy Mary","ag":["Réseau urbain et scolaire SEMO","Agrégat des réseaux urbains et interurbains de Normandie"],"lt":0,"dept":"27"}},{"type":"Feature","geometry":{"type":"Point","coordinates":[1.16129,49.21969]},"properties":{"nom":"Leroy Mary","ag":["Réseau urbain et scolaire SEMO","Agrégat des réseaux urbains et interurbains de Normandie"],"lt":0,"dept":"27"}},{"type":"Feature","geometry":{"type":"Point","coordinates":[1.20278,49.20418]},"properties":{"nom":"Les Monts","ag":["Réseau urbain et scolaire SEMO","Agrégat des réseaux urbains et interurbains de Normandie"],"lt":0,"dept":"27"}},{"type":"Feature","geometry":{"type":"Point","coordinates":[1.16095,49.21085]},"properties":{"nom":"Le Parc","ag":["Réseau urbain et scolaire SEMO","Agrégat des réseaux urbains et interurbains de Normandie"],"lt":0,"dept":"27"}},{"type":"Feature","geometry":{"type":"Point","coordinates":[1.16129,49.21103]},"properties":{"nom":"Le Parc","ag":["Réseau urbain et scolaire SEMO","Agrégat des réseaux urbains et interurbains de Normandie"],"lt":0,"dept":"27"}},{"type":"Feature","geometry":{"type":"Point","coordinates":[1.18627,49.20335]},"properties":{"nom":"La Plaquette","ag":["Réseau urbain et scolaire SEMO","Agrégat des réseaux urbains et interurbains de Normandie"],"lt":0,"dept":"27"}},{"type":"Feature","geometry":{"type":"Point","coordinates":[1.18626,49.2034]},"properties":{"nom":"La Plaquette","ag":["Réseau urbain et scolaire SEMO","Agrégat des réseaux urbains et interurbains de Normandie"],"lt":0,"dept":"27"}},{"type":"Feature","geometry":{"type":"Point","coordinates":[1.18552,49.20355]},"properties":{"nom":"La Plaquette","ag":["Réseau urbain et scolaire SEMO","Agrégat des réseaux urbains et interurbains de Normandie"],"lt":0,"dept":"27"}},{"type":"Feature","geometry":{"type":"Point","coordinates":[1.18545,49.20354]},"properties":{"nom":"La Plaquette","ag":["Réseau urbain et scolaire SEMO","Agrégat des réseaux urbains et interurbains de Normandie"],"lt":0,"dept":"27"}},{"type":"Feature","geometry":{"type":"Point","coordinates":[1.18869,49.20859]},"properties":{"nom":"La Roquette","ag":["Réseau urbain et scolaire SEMO"],"lt":0,"dept":"27"}},{"type":"Feature","geometry":{"type":"Point","coordinates":[1.184,49.21303]},"properties":{"nom":"Les Vignes","ag":["Réseau urbain et scolaire SEMO","Agrégat des réseaux urbains et interurbains de Normandie"],"lt":0,"dept":"27"}},{"type":"Feature","geometry":{"type":"Point","coordinates":[1.18376,49.21322]},"properties":{"nom":"Les Vignes","ag":["Réseau urbain et scolaire SEMO","Agrégat des réseaux urbains et interurbains de Normandie"],"lt":0,"dept":"27"}},{"type":"Feature","geometry":{"type":"Point","coordinates":[1.18093,49.22018]},"properties":{"nom":"La Villette","ag":["Réseau urbain et scolaire SEMO"],"lt":0,"dept":"27"}},{"type":"Feature","geometry":{"type":"Point","coordinates":[1.18096,49.22037]},"properties":{"nom":"La Villette","ag":["Réseau urbain et scolaire SEMO","Agrégat des réseaux urbains et interurbains de Normandie"],"lt":0,"dept":"27"}},{"type":"Feature","geometry":{"type":"Point","coordinates":[1.1499,49.20706]},"properties":{"nom":"Maréchal Leclerc","ag":["Réseau urbain et scolaire SEMO","Agrégat des réseaux urbains et interurbains de Normandie"],"lt":0,"dept":"27"}},{"type":"Feature","geometry":{"type":"Point","coordinates":[1.15322,49.20651]},"properties":{"nom":"Maison Rouge","ag":["Réseau urbain et scolaire SEMO","Agrégat des réseaux urbains et interurbains de Normandie"],"lt":0,"dept":"27"}},{"type":"Feature","geometry":{"type":"Point","coordinates":[1.18149,49.22333]},"properties":{"nom":"Nouveau Monde","ag":["Réseau urbain et scolaire SEMO"],"lt":0,"dept":"27"}},{"type":"Feature","geometry":{"type":"Point","coordinates":[1.18142,49.22306]},"properties":{"nom":"Nouveau Monde","ag":["Réseau urbain et scolaire SEMO","Agrégat des réseaux urbains et interurbains de Normandie"],"lt":0,"dept":"27"}},{"type":"Feature","geometry":{"type":"Point","coordinates":[1.15841,49.21112]},"properties":{"nom":"Olivier De Serres","ag":["Réseau urbain et scolaire SEMO","Agrégat des réseaux urbains et interurbains de Normandie"],"lt":0,"dept":"27"}},{"type":"Feature","geometry":{"type":"Point","coordinates":[1.15846,49.2112]},"properties":{"nom":"Olivier De Serres","ag":["Réseau urbain et scolaire SEMO","Agrégat des réseaux urbains et interurbains de Normandie"],"lt":0,"dept":"27"}},{"type":"Feature","geometry":{"type":"Point","coordinates":[1.18344,49.20764]},"properties":{"nom":"Paris","ag":["Réseau urbain et scolaire SEMO","Agrégat des réseaux urbains et interurbains de Normandie"],"lt":0,"dept":"27"}},{"type":"Feature","geometry":{"type":"Point","coordinates":[1.18263,49.20802]},"properties":{"nom":"Paris","ag":["Réseau urbain et scolaire SEMO","Agrégat des réseaux urbains et interurbains de Normandie"],"lt":0,"dept":"27"}},{"type":"Feature","geometry":{"type":"Point","coordinates":[1.17828,49.21489]},"properties":{"nom":"Glacéo","ag":["Réseau urbain et scolaire SEMO","Agrégat des réseaux urbains et interurbains de Normandie"],"lt":0,"dept":"27"}},{"type":"Feature","geometry":{"type":"Point","coordinates":[1.16748,49.20494]},"properties":{"nom":"Pichou","ag":["Réseau urbain et scolaire SEMO","Agrégat des réseaux urbains et interurbains de Normandie"],"lt":0,"dept":"27"}},{"type":"Feature","geometry":{"type":"Point","coordinates":[1.16757,49.20504]},"properties":{"nom":"Pichou","ag":["Réseau urbain et scolaire SEMO","Agrégat des réseaux urbains et interurbains de Normandie"],"lt":0,"dept":"27"}},{"type":"Feature","geometry":{"type":"Point","coordinates":[1.17199,49.21579]},"properties":{"nom":"Porte de l'Eau","ag":["Réseau urbain et scolaire SEMO","Agrégat des réseaux urbains et interurbains de Normandie"],"lt":0,"dept":"27"}},{"type":"Feature","geometry":{"type":"Point","coordinates":[1.17172,49.21572]},"properties":{"nom":"Porte de l'Eau","ag":["Réseau urbain et scolaire SEMO","Agrégat des réseaux urbains et interurbains de Normandie"],"lt":0,"dept":"27"}},{"type":"Feature","geometry":{"type":"Point","coordinates":[1.18731,49.20732]},"properties":{"nom":"Point du Jour","ag":["Réseau urbain et scolaire SEMO","Agrégat des réseaux urbains et interurbains de Normandie"],"lt":0,"dept":"27"}},{"type":"Feature","geometry":{"type":"Point","coordinates":[1.18726,49.20733]},"properties":{"nom":"Point du Jour","ag":["Réseau urbain et scolaire SEMO","Agrégat des réseaux urbains et interurbains de Normandie"],"lt":0,"dept":"27"}},{"type":"Feature","geometry":{"type":"Point","coordinates":[1.16167,49.20907]},"properties":{"nom":"Ravine","ag":["Réseau urbain et scolaire SEMO","Agrégat des réseaux urbains et interurbains de Normandie"],"lt":0,"dept":"27"}},{"type":"Feature","geometry":{"type":"Point","coordinates":[1.15919,49.2165]},"properties":{"nom":"Roger Martin Du Gard","ag":["Réseau urbain et scolaire SEMO"],"lt":0,"dept":"27"}},{"type":"Feature","geometry":{"type":"Point","coordinates":[1.15918,49.21658]},"properties":{"nom":"Roger Martin Du Gard","ag":["Réseau urbain et scolaire SEMO","Agrégat des réseaux urbains et interurbains de Normandie"],"lt":0,"dept":"27"}},{"type":"Feature","geometry":{"type":"Point","coordinates":[1.17007,49.21087]},"properties":{"nom":"Rendez-Vous Bus","ag":["Réseau urbain et scolaire SEMO","Agrégat des réseaux urbains et interurbains de Normandie"],"lt":0,"dept":"27"}},{"type":"Feature","geometry":{"type":"Point","coordinates":[1.17019,49.21077]},"properties":{"nom":"Rendez-Vous Bus","ag":["Réseau urbain et scolaire SEMO","Agrégat des réseaux urbains et interurbains de Normandie"],"lt":0,"dept":"27"}},{"type":"Feature","geometry":{"type":"Point","coordinates":[1.15826,49.21533]},"properties":{"nom":"Raoul Verlet","ag":["Réseau urbain et scolaire SEMO","Agrégat des réseaux urbains et interurbains de Normandie"],"lt":0,"dept":"27"}},{"type":"Feature","geometry":{"type":"Point","coordinates":[1.15818,49.21534]},"properties":{"nom":"Raoul Verlet","ag":["Réseau urbain et scolaire SEMO","Agrégat des réseaux urbains et interurbains de Normandie"],"lt":0,"dept":"27"}},{"type":"Feature","geometry":{"type":"Point","coordinates":[1.16353,49.22093]},"properties":{"nom":"Seine","ag":["Réseau urbain et scolaire SEMO"],"lt":0,"dept":"27"}},{"type":"Feature","geometry":{"type":"Point","coordinates":[1.16338,49.22091]},"properties":{"nom":"Seine","ag":["Réseau urbain et scolaire SEMO","Agrégat des réseaux urbains et interurbains de Normandie"],"lt":0,"dept":"27"}},{"type":"Feature","geometry":{"type":"Point","coordinates":[1.18579,49.20927]},"properties":{"nom":"St Exupéry Louviers","ag":["Réseau urbain et scolaire SEMO","Agrégat des réseaux urbains et interurbains de Normandie"],"lt":0,"dept":"27"}},{"type":"Feature","geometry":{"type":"Point","coordinates":[1.18626,49.20898]},"properties":{"nom":"St Exupéry Louviers","ag":["Réseau urbain et scolaire SEMO","Agrégat des réseaux urbains et interurbains de Normandie"],"lt":0,"dept":"27"}},{"type":"Feature","geometry":{"type":"Point","coordinates":[1.17445,49.22975]},"properties":{"nom":"St Hildevert","ag":["Réseau urbain et scolaire SEMO","Agrégat des réseaux urbains et interurbains de Normandie"],"lt":0,"dept":"27"}},{"type":"Feature","geometry":{"type":"Point","coordinates":[1.17431,49.22913]},"properties":{"nom":"St Hildevert","ag":["Réseau urbain et scolaire SEMO","Agrégat des réseaux urbains et interurbains de Normandie"],"lt":0,"dept":"27"}},{"type":"Feature","geometry":{"type":"Point","coordinates":[1.16858,49.21542]},"properties":{"nom":"Thorel","ag":["Réseau urbain et scolaire SEMO"],"lt":0,"dept":"27"}},{"type":"Feature","geometry":{"type":"Point","coordinates":[1.16849,49.21539]},"properties":{"nom":"Thorel","ag":["Réseau urbain et scolaire SEMO","Agrégat des réseaux urbains et interurbains de Normandie"],"lt":0,"dept":"27"}},{"type":"Feature","geometry":{"type":"Point","coordinates":[1.16909,49.21531]},"properties":{"nom":"Thorel","ag":["Réseau urbain et scolaire SEMO"],"lt":0,"dept":"27"}},{"type":"Feature","geometry":{"type":"Point","coordinates":[1.15597,49.20609]},"properties":{"nom":"Weymouth","ag":["Réseau urbain et scolaire SEMO","Agrégat des réseaux urbains et interurbains de Normandie"],"lt":0,"dept":"27"}},{"type":"Feature","geometry":{"type":"Point","coordinates":[1.19636,49.25756]},"properties":{"nom":"Le Cavé","ag":["Réseau urbain et scolaire SEMO","Agrégat des réseaux urbains et interurbains de Normandie"],"lt":0,"dept":"27"}},{"type":"Feature","geometry":{"type":"Point","coordinates":[1.19555,49.25701]},"properties":{"nom":"Le Cavé","ag":["Réseau urbain et scolaire SEMO","Agrégat des réseaux urbains et interurbains de Normandie"],"lt":0,"dept":"27"}},{"type":"Feature","geometry":{"type":"Point","coordinates":[1.2115,49.26256]},"properties":{"nom":"L'Evette","ag":["Réseau urbain et scolaire SEMO","Agrégat des réseaux urbains et interurbains de Normandie"],"lt":0,"dept":"27"}},{"type":"Feature","geometry":{"type":"Point","coordinates":[1.21146,49.26256]},"properties":{"nom":"L'Evette","ag":["Réseau urbain et scolaire SEMO","Agrégat des réseaux urbains et interurbains de Normandie"],"lt":0,"dept":"27"}},{"type":"Feature","geometry":{"type":"Point","coordinates":[1.19929,49.25867]},"properties":{"nom":"Les Sablons","ag":["Réseau urbain et scolaire SEMO","Agrégat des réseaux urbains et interurbains de Normandie"],"lt":0,"dept":"27"}},{"type":"Feature","geometry":{"type":"Point","coordinates":[1.19955,49.25848]},"properties":{"nom":"Les Sablons","ag":["Réseau urbain et scolaire SEMO","Agrégat des réseaux urbains et interurbains de Normandie"],"lt":0,"dept":"27"}},{"type":"Feature","geometry":{"type":"Point","coordinates":[1.20679,49.25821]},"properties":{"nom":"Les Tilleuls","ag":["Réseau urbain et scolaire SEMO","Agrégat des réseaux urbains et interurbains de Normandie"],"lt":0,"dept":"27"}},{"type":"Feature","geometry":{"type":"Point","coordinates":[1.20653,49.25838]},"properties":{"nom":"Les Tilleuls","ag":["Réseau urbain et scolaire SEMO","Agrégat des réseaux urbains et interurbains de Normandie"],"lt":0,"dept":"27"}},{"type":"Feature","geometry":{"type":"Point","coordinates":[1.20208,49.26034]},"properties":{"nom":"Clg M. De Montaigne","ag":["Réseau urbain et scolaire SEMO","Agrégat des réseaux urbains et interurbains de Normandie"],"lt":0,"dept":"27"}},{"type":"Feature","geometry":{"type":"Point","coordinates":[1.20256,49.2603]},"properties":{"nom":"Clg M. De Montaigne","ag":["Réseau urbain et scolaire SEMO","Agrégat des réseaux urbains et interurbains de Normandie"],"lt":0,"dept":"27"}},{"type":"Feature","geometry":{"type":"Point","coordinates":[1.20919,49.25761]},"properties":{"nom":"Notre-Dame","ag":["Réseau urbain et scolaire SEMO","Agrégat des réseaux urbains et interurbains de Normandie"],"lt":0,"dept":"27"}},{"type":"Feature","geometry":{"type":"Point","coordinates":[1.20848,49.25783]},"properties":{"nom":"Notre-Dame","ag":["Réseau urbain et scolaire SEMO","Agrégat des réseaux urbains et interurbains de Normandie"],"lt":0,"dept":"27"}},{"type":"Feature","geometry":{"type":"Point","coordinates":[1.21032,49.25935]},"properties":{"nom":"Raoul Duval","ag":["Réseau urbain et scolaire SEMO","Agrégat des réseaux urbains et interurbains de Normandie"],"lt":0,"dept":"27"}},{"type":"Feature","geometry":{"type":"Point","coordinates":[1.21066,49.26008]},"properties":{"nom":"Raoul Duval","ag":["Réseau urbain et scolaire SEMO","Agrégat des réseaux urbains et interurbains de Normandie"],"lt":0,"dept":"27"}},{"type":"Feature","geometry":{"type":"Point","coordinates":[1.20437,49.25922]},"properties":{"nom":"St Cyr Le Vaudreuil","ag":["Réseau urbain et scolaire SEMO"],"lt":0,"dept":"27"}},{"type":"Feature","geometry":{"type":"Point","coordinates":[1.20438,49.25927]},"properties":{"nom":"St Cyr Le Vaudreuil","ag":["Réseau urbain et scolaire SEMO","Agrégat des réseaux urbains et interurbains de Normandie"],"lt":0,"dept":"27"}},{"type":"Feature","geometry":{"type":"Point","coordinates":[1.06561,49.2966]},"properties":{"nom":"Eglise Martot","ag":["Réseau urbain et scolaire SEMO","Agrégat des réseaux urbains et interurbains de Normandie"],"lt":0,"dept":"27"}},{"type":"Feature","geometry":{"type":"Point","coordinates":[1.06457,49.2961]},"properties":{"nom":"Eglise Martot","ag":["Réseau urbain et scolaire SEMO","Agrégat des réseaux urbains et interurbains de Normandie"],"lt":0,"dept":"27"}},{"type":"Feature","geometry":{"type":"Point","coordinates":[1.1564,49.30308]},"properties":{"nom":"Aristide Briand","ag":["Réseau urbain et scolaire SEMO","Agrégat des réseaux urbains et interurbains de Normandie"],"lt":0,"dept":"27"}},{"type":"Feature","geometry":{"type":"Point","coordinates":[1.15644,49.30311]},"properties":{"nom":"Aristide Briand","ag":["Réseau urbain et scolaire SEMO","Agrégat des réseaux urbains et interurbains de Normandie"],"lt":0,"dept":"27"}},{"type":"Feature","geometry":{"type":"Point","coordinates":[1.15823,49.30283]},"properties":{"nom":"Arts Chépontains","ag":["Réseau urbain et scolaire SEMO"],"lt":0,"dept":"27"}},{"type":"Feature","geometry":{"type":"Point","coordinates":[1.15822,49.30265]},"properties":{"nom":"Arts Chépontains","ag":["Réseau urbain et scolaire SEMO","Agrégat des réseaux urbains et interurbains de Normandie"],"lt":0,"dept":"27"}},{"type":"Feature","geometry":{"type":"Point","coordinates":[1.15188,49.30363]},"properties":{"nom":"Bon Air","ag":["Réseau urbain et scolaire SEMO"],"lt":0,"dept":"27"}},{"type":"Feature","geometry":{"type":"Point","coordinates":[1.15038,49.30055]},"properties":{"nom":"Charles Michels","ag":["Réseau urbain et scolaire SEMO","Agrégat des réseaux urbains et interurbains de Normandie"],"lt":0,"dept":"27"}},{"type":"Feature","geometry":{"type":"Point","coordinates":[1.14615,49.30529]},"properties":{"nom":"Gendarmerie","ag":["Réseau urbain et scolaire SEMO","Agrégat des réseaux urbains et interurbains de Normandie"],"lt":0,"dept":"27"}},{"type":"Feature","geometry":{"type":"Point","coordinates":[1.14635,49.30508]},"properties":{"nom":"Gendarmerie","ag":["Réseau urbain et scolaire SEMO","Agrégat des réseaux urbains et interurbains de Normandie"],"lt":0,"dept":"27"}},{"type":"Feature","geometry":{"type":"Point","coordinates":[1.15124,49.30438]},"properties":{"nom":"Général De Gaulle","ag":["Réseau urbain et scolaire SEMO","Agrégat des réseaux urbains et interurbains de Normandie"],"lt":0,"dept":"27"}},{"type":"Feature","geometry":{"type":"Point","coordinates":[1.1512,49.30447]},"properties":{"nom":"Général De Gaulle","ag":["Réseau urbain et scolaire SEMO","Agrégat des réseaux urbains et interurbains de Normandie"],"lt":0,"dept":"27"}},{"type":"Feature","geometry":{"type":"Point","coordinates":[1.14062,49.30246]},"properties":{"nom":"Lavoisier","ag":["Réseau urbain et scolaire SEMO","Agrégat des réseaux urbains et interurbains de Normandie"],"lt":0,"dept":"27"}},{"type":"Feature","geometry":{"type":"Point","coordinates":[1.14869,49.30491]},"properties":{"nom":"Les Lupins","ag":["Réseau urbain et scolaire SEMO"],"lt":0,"dept":"27"}},{"type":"Feature","geometry":{"type":"Point","coordinates":[1.13901,49.30517]},"properties":{"nom":"Louise Michel","ag":["Réseau urbain et scolaire SEMO","Agrégat des réseaux urbains et interurbains de Normandie"],"lt":0,"dept":"27"}},{"type":"Feature","geometry":{"type":"Point","coordinates":[1.14147,49.30585]},"properties":{"nom":"La Pommeraie","ag":["Réseau urbain et scolaire SEMO","Agrégat des réseaux urbains et interurbains de Normandie"],"lt":0,"dept":"27"}},{"type":"Feature","geometry":{"type":"Point","coordinates":[1.14164,49.30594]},"properties":{"nom":"La Pommeraie","ag":["Réseau urbain et scolaire SEMO","Agrégat des réseaux urbains et interurbains de Normandie"],"lt":0,"dept":"27"}},{"type":"Feature","geometry":{"type":"Point","coordinates":[1.15833,49.30372]},"properties":{"nom":"Mairie Pt-de-l'Arche","ag":["Réseau urbain et scolaire SEMO","Agrégat des réseaux urbains et interurbains de Normandie"],"lt":0,"dept":"27"}},{"type":"Feature","geometry":{"type":"Point","coordinates":[1.15846,49.30409]},"properties":{"nom":"Mairie Pt-de-l'Arche","ag":["Réseau urbain et scolaire SEMO"],"lt":0,"dept":"27"}},{"type":"Feature","geometry":{"type":"Point","coordinates":[1.14682,49.30079]},"properties":{"nom":"Massenet","ag":["Réseau urbain et scolaire SEMO","Agrégat des réseaux urbains et interurbains de Normandie"],"lt":0,"dept":"27"}},{"type":"Feature","geometry":{"type":"Point","coordinates":[1.14502,49.30352]},"properties":{"nom":"Mille Clubs","ag":["Réseau urbain et scolaire SEMO","Agrégat des réseaux urbains et interurbains de Normandie"],"lt":0,"dept":"27"}},{"type":"Feature","geometry":{"type":"Point","coordinates":[1.15133,49.30166]},"properties":{"nom":"Olivier Des Bordeaux","ag":["Réseau urbain et scolaire SEMO","Agrégat des réseaux urbains et interurbains de Normandie"],"lt":0,"dept":"27"}},{"type":"Feature","geometry":{"type":"Point","coordinates":[1.14091,49.30422]},"properties":{"nom":"Pasteur","ag":["Réseau urbain et scolaire SEMO","Agrégat des réseaux urbains et interurbains de Normandie"],"lt":0,"dept":"27"}},{"type":"Feature","geometry":{"type":"Point","coordinates":[1.14397,49.30094]},"properties":{"nom":"Sainte Anne","ag":["Réseau urbain et scolaire SEMO","Agrégat des réseaux urbains et interurbains de Normandie"],"lt":0,"dept":"27"}},{"type":"Feature","geometry":{"type":"Point","coordinates":[1.14268,49.30265]},"properties":{"nom":"Saint-Exupéry","ag":["Réseau urbain et scolaire SEMO","Agrégat des réseaux urbains et interurbains de Normandie"],"lt":0,"dept":"27"}},{"type":"Feature","geometry":{"type":"Point","coordinates":[1.21959,49.3248]},"properties":{"nom":"Centre Commercial","ag":["Réseau urbain et scolaire SEMO"],"lt":0,"dept":"27"}},{"type":"Feature","geometry":{"type":"Point","coordinates":[1.2195,49.32478]},"properties":{"nom":"Centre Commercial","ag":["Réseau urbain et scolaire SEMO","Agrégat des réseaux urbains et interurbains de Normandie"],"lt":0,"dept":"27"}},{"type":"Feature","geometry":{"type":"Point","coordinates":[1.22169,49.31822]},"properties":{"nom":"Charles De Gaulle","ag":["Réseau urbain et scolaire SEMO","Agrégat des réseaux urbains et interurbains de Normandie"],"lt":0,"dept":"27"}},{"type":"Feature","geometry":{"type":"Point","coordinates":[1.22136,49.31819]},"properties":{"nom":"Charles De Gaulle","ag":["Réseau urbain et scolaire SEMO","Agrégat des réseaux urbains et interurbains de Normandie"],"lt":0,"dept":"27"}},{"type":"Feature","geometry":{"type":"Point","coordinates":[1.22334,49.31929]},"properties":{"nom":"Cimetière Pîtres","ag":["Réseau urbain et scolaire SEMO","Agrégat des réseaux urbains et interurbains de Normandie"],"lt":0,"dept":"27"}},{"type":"Feature","geometry":{"type":"Point","coordinates":[1.22118,49.32222]},"properties":{"nom":"Eglantines","ag":["Réseau urbain et scolaire SEMO","Agrégat des réseaux urbains et interurbains de Normandie"],"lt":0,"dept":"27"}},{"type":"Feature","geometry":{"type":"Point","coordinates":[1.22112,49.32223]},"properties":{"nom":"Eglantines","ag":["Réseau urbain et scolaire SEMO","Agrégat des réseaux urbains et interurbains de Normandie"],"lt":0,"dept":"27"}},{"type":"Feature","geometry":{"type":"Point","coordinates":[1.2264,49.31824]},"properties":{"nom":"Espace des 2 Rives","ag":["Réseau urbain et scolaire SEMO","Agrégat des réseaux urbains et interurbains de Normandie"],"lt":0,"dept":"27"}},{"type":"Feature","geometry":{"type":"Point","coordinates":[1.22738,49.32031]},"properties":{"nom":"Jacques Prevert","ag":["Réseau urbain et scolaire SEMO","Agrégat des réseaux urbains et interurbains de Normandie"],"lt":0,"dept":"27"}},{"type":"Feature","geometry":{"type":"Point","coordinates":[1.22287,49.32138]},"properties":{"nom":"Lafayette","ag":["Réseau urbain et scolaire SEMO","Agrégat des réseaux urbains et interurbains de Normandie"],"lt":0,"dept":"27"}},{"type":"Feature","geometry":{"type":"Point","coordinates":[1.22283,49.32138]},"properties":{"nom":"Lafayette","ag":["Réseau urbain et scolaire SEMO","Agrégat des réseaux urbains et interurbains de Normandie"],"lt":0,"dept":"27"}},{"type":"Feature","geometry":{"type":"Point","coordinates":[1.21928,49.3203]},"properties":{"nom":"Les Fleurs","ag":["Réseau urbain et scolaire SEMO","Agrégat des réseaux urbains et interurbains de Normandie"],"lt":0,"dept":"27"}},{"type":"Feature","geometry":{"type":"Point","coordinates":[1.21927,49.32034]},"properties":{"nom":"Les Fleurs","ag":["Réseau urbain et scolaire SEMO","Agrégat des réseaux urbains et interurbains de Normandie"],"lt":0,"dept":"27"}},{"type":"Feature","geometry":{"type":"Point","coordinates":[1.21909,49.31683]},"properties":{"nom":"Les Varennes","ag":["Réseau urbain et scolaire SEMO","Agrégat des réseaux urbains et interurbains de Normandie"],"lt":0,"dept":"27"}},{"type":"Feature","geometry":{"type":"Point","coordinates":[1.2192,49.31691]},"properties":{"nom":"Les Varennes","ag":["Réseau urbain et scolaire SEMO","Agrégat des réseaux urbains et interurbains de Normandie"],"lt":0,"dept":"27"}},{"type":"Feature","geometry":{"type":"Point","coordinates":[1.20866,49.31304]},"properties":{"nom":"Victor Hugo Pîtres","ag":["Réseau urbain et scolaire SEMO","Agrégat des réseaux urbains et interurbains de Normandie"],"lt":0,"dept":"27"}},{"type":"Feature","geometry":{"type":"Point","coordinates":[1.20873,49.31316]},"properties":{"nom":"Victor Hugo Pîtres","ag":["Réseau urbain et scolaire SEMO","Agrégat des réseaux urbains et interurbains de Normandie"],"lt":0,"dept":"27"}},{"type":"Feature","geometry":{"type":"Point","coordinates":[1.2531,49.24544]},"properties":{"nom":"PTEJOIE Abribus","ag":["Réseau urbain et scolaire SEMO","Agrégat des réseaux urbains et interurbains de Normandie"],"lt":0,"dept":"27"}},{"type":"Feature","geometry":{"type":"Point","coordinates":[1.23703,49.30736]},"properties":{"nom":"Bourgogne","ag":["Réseau urbain et scolaire SEMO","Agrégat des réseaux urbains et interurbains de Normandie"],"lt":0,"dept":"27"}},{"type":"Feature","geometry":{"type":"Point","coordinates":[1.23703,49.3074]},"properties":{"nom":"Bourgogne","ag":["Réseau urbain et scolaire SEMO","Agrégat des réseaux urbains et interurbains de Normandie"],"lt":0,"dept":"27"}},{"type":"Feature","geometry":{"type":"Point","coordinates":[1.25784,49.29231]},"properties":{"nom":"Calvaire Poses","ag":["Réseau urbain et scolaire SEMO"],"lt":0,"dept":"27"}},{"type":"Feature","geometry":{"type":"Point","coordinates":[1.2578,49.29231]},"properties":{"nom":"Calvaire Poses","ag":["Réseau urbain et scolaire SEMO","Agrégat des réseaux urbains et interurbains de Normandie"],"lt":0,"dept":"27"}},{"type":"Feature","geometry":{"type":"Point","coordinates":[1.24972,49.29696]},"properties":{"nom":"Eglise Poses","ag":["Réseau urbain et scolaire SEMO","Agrégat des réseaux urbains et interurbains de Normandie"],"lt":0,"dept":"27"}},{"type":"Feature","geometry":{"type":"Point","coordinates":[1.24968,49.29699]},"properties":{"nom":"Eglise Poses","ag":["Réseau urbain et scolaire SEMO","Agrégat des réseaux urbains et interurbains de Normandie"],"lt":0,"dept":"27"}},{"type":"Feature","geometry":{"type":"Point","coordinates":[1.22609,49.3074]},"properties":{"nom":"Île Adeline","ag":["Réseau urbain et scolaire SEMO","Agrégat des réseaux urbains et interurbains de Normandie"],"lt":0,"dept":"27"}},{"type":"Feature","geometry":{"type":"Point","coordinates":[1.22607,49.30743]},"properties":{"nom":"Île Adeline","ag":["Réseau urbain et scolaire SEMO","Agrégat des réseaux urbains et interurbains de Normandie"],"lt":0,"dept":"27"}},{"type":"Feature","geometry":{"type":"Point","coordinates":[1.25893,49.2902]},"properties":{"nom":"Le Mesnil Poses","ag":["Réseau urbain et scolaire SEMO","Agrégat des réseaux urbains et interurbains de Normandie"],"lt":0,"dept":"27"}},{"type":"Feature","geometry":{"type":"Point","coordinates":[1.25889,49.29019]},"properties":{"nom":"Le Mesnil Poses","ag":["Réseau urbain et scolaire SEMO"],"lt":0,"dept":"27"}},{"type":"Feature","geometry":{"type":"Point","coordinates":[1.23246,49.30819]},"properties":{"nom":"Le Port","ag":["Réseau urbain et scolaire SEMO","Agrégat des réseaux urbains et interurbains de Normandie"],"lt":0,"dept":"27"}},{"type":"Feature","geometry":{"type":"Point","coordinates":[1.23247,49.30822]},"properties":{"nom":"Le Port","ag":["Réseau urbain et scolaire SEMO","Agrégat des réseaux urbains et interurbains de Normandie"],"lt":0,"dept":"27"}},{"type":"Feature","geometry":{"type":"Point","coordinates":[1.24085,49.30638]},"properties":{"nom":"La Poste Poses","ag":["Réseau urbain et scolaire SEMO","Agrégat des réseaux urbains et interurbains de Normandie"],"lt":0,"dept":"27"}},{"type":"Feature","geometry":{"type":"Point","coordinates":[1.24088,49.30641]},"properties":{"nom":"La Poste Poses","ag":["Réseau urbain et scolaire SEMO","Agrégat des réseaux urbains et interurbains de Normandie"],"lt":0,"dept":"27"}},{"type":"Feature","geometry":{"type":"Point","coordinates":[1.24534,49.30434]},"properties":{"nom":"Mairie Poses","ag":["Réseau urbain et scolaire SEMO","Agrégat des réseaux urbains et interurbains de Normandie"],"lt":0,"dept":"27"}},{"type":"Feature","geometry":{"type":"Point","coordinates":[1.24531,49.3043]},"properties":{"nom":"Mairie Poses","ag":["Réseau urbain et scolaire SEMO","Agrégat des réseaux urbains et interurbains de Normandie"],"lt":0,"dept":"27"}},{"type":"Feature","geometry":{"type":"Point","coordinates":[1.24822,49.30218]},"properties":{"nom":"Nivernais","ag":["Réseau urbain et scolaire SEMO","Agrégat des réseaux urbains et interurbains de Normandie"],"lt":0,"dept":"27"}},{"type":"Feature","geometry":{"type":"Point","coordinates":[1.24818,49.30216]},"properties":{"nom":"Nivernais","ag":["Réseau urbain et scolaire SEMO"],"lt":0,"dept":"27"}},{"type":"Feature","geometry":{"type":"Point","coordinates":[1.2598,49.28612]},"properties":{"nom":"Péniche","ag":["Réseau urbain et scolaire SEMO","Agrégat des réseaux urbains et interurbains de Normandie"],"lt":0,"dept":"27"}},{"type":"Feature","geometry":{"type":"Point","coordinates":[1.2597,49.28612]},"properties":{"nom":"Péniche","ag":["Réseau urbain et scolaire SEMO","Agrégat des réseaux urbains et interurbains de Normandie"],"lt":0,"dept":"27"}},{"type":"Feature","geometry":{"type":"Point","coordinates":[1.25099,49.2987]},"properties":{"nom":"Roussillon","ag":["Réseau urbain et scolaire SEMO","Agrégat des réseaux urbains et interurbains de Normandie"],"lt":0,"dept":"27"}},{"type":"Feature","geometry":{"type":"Point","coordinates":[1.25098,49.29871]},"properties":{"nom":"Roussillon","ag":["Réseau urbain et scolaire SEMO","Agrégat des réseaux urbains et interurbains de Normandie"],"lt":0,"dept":"27"}},{"type":"Feature","geometry":{"type":"Point","coordinates":[1.1841,49.19331]},"properties":{"nom":"Curie Pinterville","ag":["Réseau urbain et scolaire SEMO","Agrégat des réseaux urbains et interurbains de Normandie"],"lt":0,"dept":"27"}},{"type":"Feature","geometry":{"type":"Point","coordinates":[1.18411,49.19342]},"properties":{"nom":"Curie Pinterville","ag":["Réseau urbain et scolaire SEMO","Agrégat des réseaux urbains et interurbains de Normandie"],"lt":0,"dept":"27"}},{"type":"Feature","geometry":{"type":"Point","coordinates":[1.17861,49.18948]},"properties":{"nom":"Henri Dunant","ag":["Réseau urbain et scolaire SEMO"],"lt":0,"dept":"27"}},{"type":"Feature","geometry":{"type":"Point","coordinates":[1.18572,49.19852]},"properties":{"nom":"Joncquilles","ag":["Réseau urbain et scolaire SEMO","Agrégat des réseaux urbains et interurbains de Normandie"],"lt":0,"dept":"27"}},{"type":"Feature","geometry":{"type":"Point","coordinates":[1.18567,49.19889]},"properties":{"nom":"Joncquilles","ag":["Réseau urbain et scolaire SEMO"],"lt":0,"dept":"27"}},{"type":"Feature","geometry":{"type":"Point","coordinates":[1.20861,49.19802]},"properties":{"nom":"Moulin à Vent","ag":["Réseau urbain et scolaire SEMO","Agrégat des réseaux urbains et interurbains de Normandie"],"lt":0,"dept":"27"}},{"type":"Feature","geometry":{"type":"Point","coordinates":[1.20829,49.19814]},"properties":{"nom":"Moulin à Vent","ag":["Réseau urbain et scolaire SEMO","Agrégat des réseaux urbains et interurbains de Normandie"],"lt":0,"dept":"27"}},{"type":"Feature","geometry":{"type":"Point","coordinates":[1.21027,49.24713]},"properties":{"nom":"La Côte Chiquet","ag":["Réseau urbain et scolaire SEMO","Agrégat des réseaux urbains et interurbains de Normandie"],"lt":0,"dept":"27"}},{"type":"Feature","geometry":{"type":"Point","coordinates":[1.21046,49.24724]},"properties":{"nom":"La Côte Chiquet","ag":["Réseau urbain et scolaire SEMO","Agrégat des réseaux urbains et interurbains de Normandie"],"lt":0,"dept":"27"}},{"type":"Feature","geometry":{"type":"Point","coordinates":[1.22021,49.24267]},"properties":{"nom":"La Plaine","ag":["Réseau urbain et scolaire SEMO","Agrégat des réseaux urbains et interurbains de Normandie"],"lt":0,"dept":"27"}},{"type":"Feature","geometry":{"type":"Point","coordinates":[1.22016,49.24272]},"properties":{"nom":"La Plaine","ag":["Réseau urbain et scolaire SEMO","Agrégat des réseaux urbains et interurbains de Normandie"],"lt":0,"dept":"27"}},{"type":"Feature","geometry":{"type":"Point","coordinates":[1.21552,49.2471]},"properties":{"nom":"Mairie St-Etienne","ag":["Réseau urbain et scolaire SEMO","Agrégat des réseaux urbains et interurbains de Normandie"],"lt":0,"dept":"27"}},{"type":"Feature","geometry":{"type":"Point","coordinates":[1.21652,49.24716]},"properties":{"nom":"Mairie St-Etienne","ag":["Réseau urbain et scolaire SEMO","Agrégat des réseaux urbains et interurbains de Normandie"],"lt":0,"dept":"27"}},{"type":"Feature","geometry":{"type":"Point","coordinates":[1.21999,49.2388]},"properties":{"nom":"Troënes","ag":["Réseau urbain et scolaire SEMO","Agrégat des réseaux urbains et interurbains de Normandie"],"lt":0,"dept":"27"}},{"type":"Feature","geometry":{"type":"Point","coordinates":[1.22003,49.2391]},"properties":{"nom":"Troënes","ag":["Réseau urbain et scolaire SEMO","Agrégat des réseaux urbains et interurbains de Normandie"],"lt":0,"dept":"27"}},{"type":"Feature","geometry":{"type":"Point","coordinates":[1.22939,49.22997]},"properties":{"nom":"Île du Bac","ag":["Réseau urbain et scolaire SEMO","Agrégat des réseaux urbains et interurbains de Normandie"],"lt":0,"dept":"27"}},{"type":"Feature","geometry":{"type":"Point","coordinates":[1.22942,49.23001]},"properties":{"nom":"Île du Bac","ag":["Réseau urbain et scolaire SEMO","Agrégat des réseaux urbains et interurbains de Normandie"],"lt":0,"dept":"27"}},{"type":"Feature","geometry":{"type":"Point","coordinates":[1.22862,49.23604]},"properties":{"nom":"Les Longs Champs","ag":["Réseau urbain et scolaire SEMO","Agrégat des réseaux urbains et interurbains de Normandie"],"lt":0,"dept":"27"}},{"type":"Feature","geometry":{"type":"Point","coordinates":[1.22509,49.2335]},"properties":{"nom":"La Gare St Pierre","ag":["Réseau urbain et scolaire SEMO","Agrégat des réseaux urbains et interurbains de Normandie"],"lt":0,"dept":"27"}},{"type":"Feature","geometry":{"type":"Point","coordinates":[1.22524,49.23357]},"properties":{"nom":"La Gare St Pierre","ag":["Réseau urbain et scolaire SEMO","Agrégat des réseaux urbains et interurbains de Normandie"],"lt":0,"dept":"27"}},{"type":"Feature","geometry":{"type":"Point","coordinates":[1.22453,49.23127]},"properties":{"nom":"Le Pont St Pierre","ag":["Réseau urbain et scolaire SEMO","Agrégat des réseaux urbains et interurbains de Normandie"],"lt":0,"dept":"27"}},{"type":"Feature","geometry":{"type":"Point","coordinates":[1.22463,49.23129]},"properties":{"nom":"Le Pont St Pierre","ag":["Réseau urbain et scolaire SEMO","Agrégat des réseaux urbains et interurbains de Normandie"],"lt":0,"dept":"27"}},{"type":"Feature","geometry":{"type":"Point","coordinates":[1.22127,49.23194]},"properties":{"nom":"Mairie St Pierre","ag":["Réseau urbain et scolaire SEMO","Agrégat des réseaux urbains et interurbains de Normandie"],"lt":0,"dept":"27"}},{"type":"Feature","geometry":{"type":"Point","coordinates":[1.2213,49.23289]},"properties":{"nom":"Mairie St Pierre","ag":["Réseau urbain et scolaire SEMO"],"lt":0,"dept":"27"}},{"type":"Feature","geometry":{"type":"Point","coordinates":[1.22312,49.2305]},"properties":{"nom":"Vieux Puits","ag":["Réseau urbain et scolaire SEMO","Agrégat des réseaux urbains et interurbains de Normandie"],"lt":0,"dept":"27"}},{"type":"Feature","geometry":{"type":"Point","coordinates":[1.34197,49.22955]},"properties":{"nom":"BERNIERES Ecole","ag":["Réseau urbain et scolaire SEMO","Agrégat des réseaux urbains et interurbains de Normandie"],"lt":0,"dept":"27"}},{"type":"Feature","geometry":{"type":"Point","coordinates":[1.25926,49.2776]},"properties":{"nom":"Concorde","ag":["Réseau urbain et scolaire SEMO"],"lt":0,"dept":"27"}},{"type":"Feature","geometry":{"type":"Point","coordinates":[1.25919,49.27779]},"properties":{"nom":"Concorde","ag":["Réseau urbain et scolaire SEMO","Agrégat des réseaux urbains et interurbains de Normandie"],"lt":0,"dept":"27"}},{"type":"Feature","geometry":{"type":"Point","coordinates":[1.25937,49.27404]},"properties":{"nom":"Mairie Tournedos","ag":["Réseau urbain et scolaire SEMO","Agrégat des réseaux urbains et interurbains de Normandie"],"lt":0,"dept":"27"}},{"type":"Feature","geometry":{"type":"Point","coordinates":[1.25878,49.27396]},"properties":{"nom":"Mairie Tournedos","ag":["Réseau urbain et scolaire SEMO","Agrégat des réseaux urbains et interurbains de Normandie"],"lt":0,"dept":"27"}},{"type":"Feature","geometry":{"type":"Point","coordinates":[1.30864,49.21231]},"properties":{"nom":"Rue Pollet","ag":["Réseau urbain et scolaire SEMO","Agrégat des réseaux urbains et interurbains de Normandie"],"lt":0,"dept":"27"}},{"type":"Feature","geometry":{"type":"Point","coordinates":[1.29636,49.19991]},"properties":{"nom":"Ecole de Venables","ag":["Réseau urbain et scolaire SEMO","Agrégat des réseaux urbains et interurbains de Normandie"],"lt":0,"dept":"27"}},{"type":"Feature","geometry":{"type":"Point","coordinates":[1.2934,49.18399]},"properties":{"nom":"Fontaine La Verte","ag":["Réseau urbain et scolaire SEMO","Agrégat des réseaux urbains et interurbains de Normandie"],"lt":0,"dept":"27"}},{"type":"Feature","geometry":{"type":"Point","coordinates":[1.30538,49.20836]},"properties":{"nom":"Rue de la Gare","ag":["Réseau urbain et scolaire SEMO","Agrégat des réseaux urbains et interurbains de Normandie"],"lt":0,"dept":"27"}},{"type":"Feature","geometry":{"type":"Point","coordinates":[1.31522,49.21873]},"properties":{"nom":"Rue du Pont Bleu","ag":["Réseau urbain et scolaire SEMO","Agrégat des réseaux urbains et interurbains de Normandie"],"lt":0,"dept":"27"}},{"type":"Feature","geometry":{"type":"Point","coordinates":[1.3117,49.21612]},"properties":{"nom":"Rue des Chalets","ag":["Réseau urbain et scolaire SEMO","Agrégat des réseaux urbains et interurbains de Normandie"],"lt":0,"dept":"27"}},{"type":"Feature","geometry":{"type":"Point","coordinates":[1.28864,49.1705]},"properties":{"nom":"VIEUX-VILLEZ RD6015","ag":["Réseau urbain et scolaire SEMO","Agrégat des réseaux urbains et interurbains de Normandie"],"lt":0,"dept":"27"}},{"type":"Feature","geometry":{"type":"Point","coordinates":[1.28833,49.17046]},"properties":{"nom":"VIEUX-VILLEZ RD6015","ag":["Réseau urbain et scolaire SEMO","Agrégat des réseaux urbains et interurbains de Normandie"],"lt":0,"dept":"27"}},{"type":"Feature","geometry":{"type":"Point","coordinates":[1.35111,49.1724]},"properties":{"nom":"Avenue de l'Europe","ag":["Réseau urbain et scolaire SEMO","Agrégat des réseaux urbains et interurbains de Normandie"],"lt":0,"dept":"27"}},{"type":"Feature","geometry":{"type":"Point","coordinates":[1.35084,49.17264]},"properties":{"nom":"Avenue de l'Europe","ag":["Réseau urbain et scolaire SEMO","Agrégat des réseaux urbains et interurbains de Normandie"],"lt":0,"dept":"27"}},{"type":"Feature","geometry":{"type":"Point","coordinates":[1.33665,49.16693]},"properties":{"nom":"Charles De Gaulle","ag":["Réseau urbain et scolaire SEMO","Agrégat des réseaux urbains et interurbains de Normandie"],"lt":0,"dept":"27"}},{"type":"Feature","geometry":{"type":"Point","coordinates":[1.33654,49.16689]},"properties":{"nom":"Charles De Gaulle","ag":["Réseau urbain et scolaire SEMO","Agrégat des réseaux urbains et interurbains de Normandie"],"lt":0,"dept":"27"}},{"type":"Feature","geometry":{"type":"Point","coordinates":[1.3463,49.17018]},"properties":{"nom":"Jardinerie","ag":["Réseau urbain et scolaire SEMO","Agrégat des réseaux urbains et interurbains de Normandie"],"lt":0,"dept":"27"}},{"type":"Feature","geometry":{"type":"Point","coordinates":[1.34576,49.17034]},"properties":{"nom":"Jardinerie","ag":["Réseau urbain et scolaire SEMO","Agrégat des réseaux urbains et interurbains de Normandie"],"lt":0,"dept":"27"}},{"type":"Feature","geometry":{"type":"Point","coordinates":[1.3412,49.1754]},"properties":{"nom":"Clg Simone Signoret","ag":["Réseau urbain et scolaire SEMO","Agrégat des réseaux urbains et interurbains de Normandie"],"lt":0,"dept":"27"}},{"type":"Feature","geometry":{"type":"Point","coordinates":[1.3131,49.17007]},"properties":{"nom":"Centre Technique","ag":["Réseau urbain et scolaire SEMO","Agrégat des réseaux urbains et interurbains de Normandie"],"lt":0,"dept":"27"}},{"type":"Feature","geometry":{"type":"Point","coordinates":[1.35303,49.17433]},"properties":{"nom":"Gaillon-Abvye SNCF","ag":["Réseau urbain et scolaire SEMO","Agrégat des réseaux urbains et interurbains de Normandie"],"lt":0,"dept":"27"}},{"type":"Feature","geometry":{"type":"Point","coordinates":[1.33605,49.17495]},"properties":{"nom":"Mairie Val d'Hazey","ag":["Réseau urbain et scolaire SEMO","Agrégat des réseaux urbains et interurbains de Normandie"],"lt":0,"dept":"27"}},{"type":"Feature","geometry":{"type":"Point","coordinates":[1.33588,49.17411]},"properties":{"nom":"Mairie Val d'Hazey","ag":["Réseau urbain et scolaire SEMO","Agrégat des réseaux urbains et interurbains de Normandie"],"lt":0,"dept":"27"}},{"type":"Feature","geometry":{"type":"Point","coordinates":[1.34149,49.16495]},"properties":{"nom":"Roland Roche","ag":["Réseau urbain et scolaire SEMO"],"lt":0,"dept":"27"}},{"type":"Feature","geometry":{"type":"Point","coordinates":[1.33561,49.1718]},"properties":{"nom":"St Fiacre","ag":["Réseau urbain et scolaire SEMO","Agrégat des réseaux urbains et interurbains de Normandie"],"lt":0,"dept":"27"}},{"type":"Feature","geometry":{"type":"Point","coordinates":[1.33544,49.17044]},"properties":{"nom":"St Fiacre","ag":["Réseau urbain et scolaire SEMO","Agrégat des réseaux urbains et interurbains de Normandie"],"lt":0,"dept":"27"}},{"type":"Feature","geometry":{"type":"Point","coordinates":[1.3348,49.18069]},"properties":{"nom":"Grosmesnil","ag":["Réseau urbain et scolaire SEMO","Agrégat des réseaux urbains et interurbains de Normandie"],"lt":0,"dept":"27"}},{"type":"Feature","geometry":{"type":"Point","coordinates":[1.33464,49.18074]},"properties":{"nom":"Grosmesnil","ag":["Réseau urbain et scolaire SEMO","Agrégat des réseaux urbains et interurbains de Normandie"],"lt":0,"dept":"27"}},{"type":"Feature","geometry":{"type":"Point","coordinates":[1.33543,49.17667]},"properties":{"nom":"Les Vallets","ag":["Réseau urbain et scolaire SEMO","Agrégat des réseaux urbains et interurbains de Normandie"],"lt":0,"dept":"27"}},{"type":"Feature","geometry":{"type":"Point","coordinates":[1.33521,49.17664]},"properties":{"nom":"Les Vallets","ag":["Réseau urbain et scolaire SEMO","Agrégat des réseaux urbains et interurbains de Normandie"],"lt":0,"dept":"27"}},{"type":"Feature","geometry":{"type":"Point","coordinates":[1.21848,49.19811]},"properties":{"nom":"Les Chênes","ag":["Réseau urbain et scolaire SEMO","Agrégat des réseaux urbains et interurbains de Normandie"],"lt":0,"dept":"27"}},{"type":"Feature","geometry":{"type":"Point","coordinates":[1.22262,49.20122]},"properties":{"nom":"Les Platanes","ag":["Réseau urbain et scolaire SEMO","Agrégat des réseaux urbains et interurbains de Normandie"],"lt":0,"dept":"27"}},{"type":"Feature","geometry":{"type":"Point","coordinates":[1.21141,49.26554]},"properties":{"nom":"Quatre Acres","ag":["Réseau urbain et scolaire SEMO"],"lt":0,"dept":"27"}},{"type":"Feature","geometry":{"type":"Point","coordinates":[1.2113,49.26556]},"properties":{"nom":"Quatre Acres","ag":["Réseau urbain et scolaire SEMO","Agrégat des réseaux urbains et interurbains de Normandie"],"lt":0,"dept":"27"}},{"type":"Feature","geometry":{"type":"Point","coordinates":[1.21468,49.2637]},"properties":{"nom":"Bois Rollon","ag":["Réseau urbain et scolaire SEMO","Agrégat des réseaux urbains et interurbains de Normandie"],"lt":0,"dept":"27"}},{"type":"Feature","geometry":{"type":"Point","coordinates":[1.21465,49.26374]},"properties":{"nom":"Bois Rollon","ag":["Réseau urbain et scolaire SEMO","Agrégat des réseaux urbains et interurbains de Normandie"],"lt":0,"dept":"27"}},{"type":"Feature","geometry":{"type":"Point","coordinates":[1.20833,49.27509]},"properties":{"nom":"Les Cerfs-Volants","ag":["Réseau urbain et scolaire SEMO","Agrégat des réseaux urbains et interurbains de Normandie"],"lt":0,"dept":"27"}},{"type":"Feature","geometry":{"type":"Point","coordinates":[1.19629,49.27477]},"properties":{"nom":"Cimetière","ag":["Réseau urbain et scolaire SEMO","Agrégat des réseaux urbains et interurbains de Normandie"],"lt":0,"dept":"27"}},{"type":"Feature","geometry":{"type":"Point","coordinates":[1.21951,49.26888]},"properties":{"nom":"Chaussée de Léry","ag":["Réseau urbain et scolaire SEMO","Agrégat des réseaux urbains et interurbains de Normandie"],"lt":0,"dept":"27"}},{"type":"Feature","geometry":{"type":"Point","coordinates":[1.20056,49.27233]},"properties":{"nom":"Coluche","ag":["Réseau urbain et scolaire SEMO","Agrégat des réseaux urbains et interurbains de Normandie"],"lt":0,"dept":"27"}},{"type":"Feature","geometry":{"type":"Point","coordinates":[1.21011,49.267]},"properties":{"nom":"Courtines","ag":["Réseau urbain et scolaire SEMO","Agrégat des réseaux urbains et interurbains de Normandie"],"lt":0,"dept":"27"}},{"type":"Feature","geometry":{"type":"Point","coordinates":[1.20962,49.26742]},"properties":{"nom":"Courtines","ag":["Réseau urbain et scolaire SEMO","Agrégat des réseaux urbains et interurbains de Normandie"],"lt":0,"dept":"27"}},{"type":"Feature","geometry":{"type":"Point","coordinates":[1.17801,49.25176]},"properties":{"nom":"Coulée Verte","ag":["Réseau urbain et scolaire SEMO","Agrégat des réseaux urbains et interurbains de Normandie"],"lt":0,"dept":"27"}},{"type":"Feature","geometry":{"type":"Point","coordinates":[1.17736,49.25196]},"properties":{"nom":"Coulée Verte","ag":["Réseau urbain et scolaire SEMO","Agrégat des réseaux urbains et interurbains de Normandie"],"lt":0,"dept":"27"}},{"type":"Feature","geometry":{"type":"Point","coordinates":[1.19255,49.25395]},"properties":{"nom":"Chaussée du Vexin","ag":["Réseau urbain et scolaire SEMO"],"lt":0,"dept":"27"}},{"type":"Feature","geometry":{"type":"Point","coordinates":[1.19259,49.25405]},"properties":{"nom":"Chaussée du Vexin","ag":["Réseau urbain et scolaire SEMO","Agrégat des réseaux urbains et interurbains de Normandie"],"lt":0,"dept":"27"}},{"type":"Feature","geometry":{"type":"Point","coordinates":[1.22025,49.27255]},"properties":{"nom":"Dagobert","ag":["Réseau urbain et scolaire SEMO"],"lt":0,"dept":"27"}},{"type":"Feature","geometry":{"type":"Point","coordinates":[1.22015,49.2726]},"properties":{"nom":"Dagobert","ag":["Réseau urbain et scolaire SEMO","Agrégat des réseaux urbains et interurbains de Normandie"],"lt":0,"dept":"27"}},{"type":"Feature","geometry":{"type":"Point","coordinates":[1.20363,49.26646]},"properties":{"nom":"L'Equerre","ag":["Réseau urbain et scolaire SEMO","Agrégat des réseaux urbains et interurbains de Normandie"],"lt":0,"dept":"27"}},{"type":"Feature","geometry":{"type":"Point","coordinates":[1.20352,49.26647]},"properties":{"nom":"L'Equerre","ag":["Réseau urbain et scolaire SEMO","Agrégat des réseaux urbains et interurbains de Normandie"],"lt":0,"dept":"27"}},{"type":"Feature","geometry":{"type":"Point","coordinates":[1.19281,49.25491]},"properties":{"nom":"Fantôme","ag":["Réseau urbain et scolaire SEMO","Agrégat des réseaux urbains et interurbains de Normandie"],"lt":0,"dept":"27"}},{"type":"Feature","geometry":{"type":"Point","coordinates":[1.19214,49.2548]},"properties":{"nom":"Fantôme","ag":["Réseau urbain et scolaire SEMO","Agrégat des réseaux urbains et interurbains de Normandie"],"lt":0,"dept":"27"}},{"type":"Feature","geometry":{"type":"Point","coordinates":[1.17991,49.25658]},"properties":{"nom":"Forêt de Bord","ag":["Réseau urbain et scolaire SEMO","Agrégat des réseaux urbains et interurbains de Normandie"],"lt":0,"dept":"27"}},{"type":"Feature","geometry":{"type":"Point","coordinates":[1.17973,49.25654]},"properties":{"nom":"Forêt de Bord","ag":["Réseau urbain et scolaire SEMO","Agrégat des réseaux urbains et interurbains de Normandie"],"lt":0,"dept":"27"}},{"type":"Feature","geometry":{"type":"Point","coordinates":[1.22629,49.26949]},"properties":{"nom":"Ferme de la Salle","ag":["Réseau urbain et scolaire SEMO","Agrégat des réseaux urbains et interurbains de Normandie"],"lt":0,"dept":"27"}},{"type":"Feature","geometry":{"type":"Point","coordinates":[1.22608,49.26959]},"properties":{"nom":"Ferme de la Salle","ag":["Réseau urbain et scolaire SEMO","Agrégat des réseaux urbains et interurbains de Normandie"],"lt":0,"dept":"27"}},{"type":"Feature","geometry":{"type":"Point","coordinates":[1.22406,49.27538]},"properties":{"nom":"Val-de-Reuil SNCF","ag":["Réseau urbain et scolaire SEMO","Agrégat des réseaux urbains et interurbains de Normandie"],"lt":0,"dept":"27"}},{"type":"Feature","geometry":{"type":"Point","coordinates":[1.23271,49.2443]},"properties":{"nom":"Les Hauts Prés","ag":["Réseau urbain et scolaire SEMO","Agrégat des réseaux urbains et interurbains de Normandie"],"lt":0,"dept":"27"}},{"type":"Feature","geometry":{"type":"Point","coordinates":[1.21084,49.27726]},"properties":{"nom":"Impasse des Jardins","ag":["Réseau urbain et scolaire SEMO","Agrégat des réseaux urbains et interurbains de Normandie"],"lt":0,"dept":"27"}},{"type":"Feature","geometry":{"type":"Point","coordinates":[1.1861,49.25775]},"properties":{"nom":"Janssen","ag":["Réseau urbain et scolaire SEMO","Agrégat des réseaux urbains et interurbains de Normandie"],"lt":0,"dept":"27"}},{"type":"Feature","geometry":{"type":"Point","coordinates":[1.18454,49.25806]},"properties":{"nom":"Janssen","ag":["Réseau urbain et scolaire SEMO","Agrégat des réseaux urbains et interurbains de Normandie"],"lt":0,"dept":"27"}},{"type":"Feature","geometry":{"type":"Point","coordinates":[1.20527,49.27506]},"properties":{"nom":"Jean Moulin","ag":["Réseau urbain et scolaire SEMO","Agrégat des réseaux urbains et interurbains de Normandie"],"lt":0,"dept":"27"}},{"type":"Feature","geometry":{"type":"Point","coordinates":[1.19862,49.27245]},"properties":{"nom":"Jesse Owens","ag":["Réseau urbain et scolaire SEMO","Agrégat des réseaux urbains et interurbains de Normandie"],"lt":0,"dept":"27"}},{"type":"Feature","geometry":{"type":"Point","coordinates":[1.2081,49.2657]},"properties":{"nom":"Léon Blum","ag":["Réseau urbain et scolaire SEMO","Agrégat des réseaux urbains et interurbains de Normandie"],"lt":0,"dept":"27"}},{"type":"Feature","geometry":{"type":"Point","coordinates":[1.20816,49.2658]},"properties":{"nom":"Léon Blum","ag":["Réseau urbain et scolaire SEMO","Agrégat des réseaux urbains et interurbains de Normandie"],"lt":0,"dept":"27"}},{"type":"Feature","geometry":{"type":"Point","coordinates":[1.20725,49.27877]},