{"type":"FeatureCollection","features":[{"type":"Feature","geometry":{"type":"Point","coordinates":[1.3745,43.63044]},"properties":{"nom":"Toulouse (Blagnac Airport)","ag":["Réseau européen FlixBus et FlixTrain"],"lt":0,"dept":"31"}},{"type":"Feature","geometry":{"type":"Point","coordinates":[1.45261,43.61252]},"properties":{"nom":"Toulouse (Central Bus Station Pierre Sémard)","ag":["Réseau européen FlixBus et FlixTrain"],"lt":0,"dept":"31"}},{"type":"Feature","geometry":{"type":"Point","coordinates":[1.45223,43.6133]},"properties":{"nom":"Toulouse - Matabiau Bus Station","ag":["Réseau européen BlaBlaCar Bus"],"lt":0,"dept":"31"}},{"type":"Feature","geometry":{"type":"Point","coordinates":[1.37546,43.63014]},"properties":{"nom":"Toulouse - Blagnac Airport Bus Station","ag":["Réseau européen BlaBlaCar Bus"],"lt":0,"dept":"31"}},{"type":"Feature","geometry":{"type":"Point","coordinates":[0.72897,43.10509]},"properties":{"nom":"Saint-Gaudens","ag":["Réseau européen BlaBlaCar Bus"],"lt":0,"dept":"31"}},{"type":"Feature","geometry":{"type":"Point","coordinates":[1.58678,43.72299]},"properties":{"nom":"Montastruc-la-Conseillère RN 88","ag":["Réseau SNCF TGV, Intercités et TER"],"lt":1,"dept":"31"}},{"type":"Feature","geometry":{"type":"Point","coordinates":[0.62523,42.89786]},"properties":{"nom":"Bachos Anos","ag":["Réseau SNCF TGV, Intercités et TER"],"lt":1,"dept":"31"}},{"type":"Feature","geometry":{"type":"Point","coordinates":[0.62589,42.97624]},"properties":{"nom":"Bagiry Cimetiére","ag":["Réseau SNCF TGV, Intercités et TER"],"lt":1,"dept":"31"}},{"type":"Feature","geometry":{"type":"Point","coordinates":[0.60807,42.86897]},"properties":{"nom":"Cazaux-Layrisse Eglise","ag":["Réseau SNCF TGV, Intercités et TER"],"lt":1,"dept":"31"}},{"type":"Feature","geometry":{"type":"Point","coordinates":[0.64515,42.93901]},"properties":{"nom":"Esténos Pont de Chaum","ag":["Réseau SNCF TGV, Intercités et TER"],"lt":1,"dept":"31"}},{"type":"Feature","geometry":{"type":"Point","coordinates":[0.63941,42.91464]},"properties":{"nom":"Cierp-Gaud Centre","ag":["Réseau SNCF TGV, Intercités et TER"],"lt":1,"dept":"31"}},{"type":"Feature","geometry":{"type":"Point","coordinates":[0.648,42.91433]},"properties":{"nom":"Cierp-Gaud","ag":["Réseau SNCF TGV, Intercités et TER"],"lt":1,"dept":"31"}},{"type":"Feature","geometry":{"type":"Point","coordinates":[0.64143,42.94686]},"properties":{"nom":"Esténos Mairie","ag":["Réseau SNCF TGV, Intercités et TER"],"lt":1,"dept":"31"}},{"type":"Feature","geometry":{"type":"Point","coordinates":[0.60353,42.83666]},"properties":{"nom":"Gouaux-de-Luchon Station Vallon","ag":["Réseau SNCF TGV, Intercités et TER"],"lt":1,"dept":"31"}},{"type":"Feature","geometry":{"type":"Point","coordinates":[0.5974,42.81512]},"properties":{"nom":"Moustajon Mairie","ag":["Réseau SNCF TGV, Intercités et TER"],"lt":1,"dept":"31"}},{"type":"Feature","geometry":{"type":"Point","coordinates":[0.60386,42.84427]},"properties":{"nom":"Cier-de-Luchon Pratviel","ag":["Réseau SNCF TGV, Intercités et TER"],"lt":1,"dept":"31"}},{"type":"Feature","geometry":{"type":"Point","coordinates":[0.58441,43.07655]},"properties":{"nom":"Gourdan-Polignan Lycée","ag":["Réseau SNCF TGV, Intercités et TER"],"lt":1,"dept":"31"}},{"type":"Feature","geometry":{"type":"Point","coordinates":[1.40137,43.59555]},"properties":{"nom":"Le Toec","ag":["Réseau SNCF TGV, Intercités et TER"],"lt":1,"dept":"31"}},{"type":"Feature","geometry":{"type":"Point","coordinates":[1.35295,43.6024]},"properties":{"nom":"Les Ramassiers","ag":["Réseau SNCF TGV, Intercités et TER"],"lt":1,"dept":"31"}},{"type":"Feature","geometry":{"type":"Point","coordinates":[1.37186,43.59979]},"properties":{"nom":"Saint-Martin du Touch","ag":["Réseau SNCF TGV, Intercités et TER"],"lt":1,"dept":"31"}},{"type":"Feature","geometry":{"type":"Point","coordinates":[0.65047,42.93035]},"properties":{"nom":"Cierp-Gaud Parc Aventure","ag":["Réseau SNCF TGV, Intercités et TER"],"lt":1,"dept":"31"}},{"type":"Feature","geometry":{"type":"Point","coordinates":[1.41649,43.59405]},"properties":{"nom":"Saint-Cyprien Arènes","ag":["Réseau SNCF TGV, Intercités et TER"],"lt":1,"dept":"31"}},{"type":"Feature","geometry":{"type":"Point","coordinates":[1.41958,43.57309]},"properties":{"nom":"Gallieni-Cancéropôle","ag":["Réseau SNCF TGV, Intercités et TER"],"lt":1,"dept":"31"}},{"type":"Feature","geometry":{"type":"Point","coordinates":[1.45362,43.61121]},"properties":{"nom":"Toulouse Matabiau","ag":["Réseau SNCF TGV, Intercités et TER"],"lt":1,"dept":"31"}},{"type":"Feature","geometry":{"type":"Point","coordinates":[1.32445,43.46482]},"properties":{"nom":"Muret","ag":["Réseau SNCF TGV, Intercités et TER"],"lt":1,"dept":"31"}},{"type":"Feature","geometry":{"type":"Point","coordinates":[1.28306,43.40442]},"properties":{"nom":"Le Fauga","ag":["Réseau SNCF TGV, Intercités et TER"],"lt":1,"dept":"31"}},{"type":"Feature","geometry":{"type":"Point","coordinates":[1.25166,43.35647]},"properties":{"nom":"Longages - Noé","ag":["Réseau SNCF TGV, Intercités et TER"],"lt":1,"dept":"31"}},{"type":"Feature","geometry":{"type":"Point","coordinates":[1.21251,43.29822]},"properties":{"nom":"Carbonne","ag":["Réseau SNCF TGV, Intercités et TER"],"lt":1,"dept":"31"}},{"type":"Feature","geometry":{"type":"Point","coordinates":[1.08311,43.21283]},"properties":{"nom":"Cazères","ag":["Réseau SNCF TGV, Intercités et TER"],"lt":1,"dept":"31"}},{"type":"Feature","geometry":{"type":"Point","coordinates":[1.01642,43.19625]},"properties":{"nom":"Martres-Tolosane","ag":["Réseau SNCF TGV, Intercités et TER"],"lt":1,"dept":"31"}},{"type":"Feature","geometry":{"type":"Point","coordinates":[0.97254,43.17962]},"properties":{"nom":"Boussens","ag":["Réseau SNCF TGV, Intercités et TER"],"lt":1,"dept":"31"}},{"type":"Feature","geometry":{"type":"Point","coordinates":[0.93475,43.13867]},"properties":{"nom":"Saint-Martory","ag":["Réseau SNCF TGV, Intercités et TER"],"lt":1,"dept":"31"}},{"type":"Feature","geometry":{"type":"Point","coordinates":[0.72915,43.10505]},"properties":{"nom":"Saint-Gaudens","ag":["Réseau SNCF TGV, Intercités et TER"],"lt":1,"dept":"31"}},{"type":"Feature","geometry":{"type":"Point","coordinates":[0.57359,43.07809]},"properties":{"nom":"Montréjeau - Gourdan-Polignan","ag":["Réseau SNCF TGV, Intercités et TER"],"lt":1,"dept":"31"}},{"type":"Feature","geometry":{"type":"Point","coordinates":[0.59331,43.0358]},"properties":{"nom":"Labroquère Moulin","ag":["Réseau SNCF TGV, Intercités et TER"],"lt":1,"dept":"31"}},{"type":"Feature","geometry":{"type":"Point","coordinates":[0.65195,42.91549]},"properties":{"nom":"Marignac - Saint-Béat","ag":["Réseau SNCF TGV, Intercités et TER"],"lt":1,"dept":"31"}},{"type":"Feature","geometry":{"type":"Point","coordinates":[0.61333,42.87556]},"properties":{"nom":"Lège Pont","ag":["Réseau SNCF TGV, Intercités et TER"],"lt":1,"dept":"31"}},{"type":"Feature","geometry":{"type":"Point","coordinates":[0.60308,42.85282]},"properties":{"nom":"Cier-de-Luchon Castéra","ag":["Réseau SNCF TGV, Intercités et TER"],"lt":1,"dept":"31"}},{"type":"Feature","geometry":{"type":"Point","coordinates":[0.59665,42.79734]},"properties":{"nom":"Luchon","ag":["Réseau SNCF TGV, Intercités et TER"],"lt":1,"dept":"31"}},{"type":"Feature","geometry":{"type":"Point","coordinates":[1.45012,43.57948]},"properties":{"nom":"Saint-Agne","ag":["Réseau SNCF TGV, Intercités et TER"],"lt":1,"dept":"31"}},{"type":"Feature","geometry":{"type":"Point","coordinates":[1.52048,43.30541]},"properties":{"nom":"Cintegabelle","ag":["Réseau SNCF TGV, Intercités et TER"],"lt":1,"dept":"31"}},{"type":"Feature","geometry":{"type":"Point","coordinates":[1.46883,43.34899]},"properties":{"nom":"Auterive","ag":["Réseau SNCF TGV, Intercités et TER"],"lt":1,"dept":"31"}},{"type":"Feature","geometry":{"type":"Point","coordinates":[1.42596,43.43336]},"properties":{"nom":"Venerque - Le Vernet","ag":["Réseau SNCF TGV, Intercités et TER"],"lt":1,"dept":"31"}},{"type":"Feature","geometry":{"type":"Point","coordinates":[1.38924,43.5279]},"properties":{"nom":"Portet Saint-Simon","ag":["Réseau SNCF TGV, Intercités et TER"],"lt":1,"dept":"31"}},{"type":"Feature","geometry":{"type":"Point","coordinates":[1.41409,43.66384]},"properties":{"nom":"Lacourtensourt","ag":["Réseau SNCF TGV, Intercités et TER"],"lt":1,"dept":"31"}},{"type":"Feature","geometry":{"type":"Point","coordinates":[1.33422,43.60373]},"properties":{"nom":"Colomiers","ag":["Réseau SNCF TGV, Intercités et TER"],"lt":1,"dept":"31"}},{"type":"Feature","geometry":{"type":"Point","coordinates":[1.37162,43.73838]},"properties":{"nom":"Saint-Jory","ag":["Réseau SNCF TGV, Intercités et TER"],"lt":1,"dept":"31"}},{"type":"Feature","geometry":{"type":"Point","coordinates":[1.34182,43.7862]},"properties":{"nom":"Castelnau-d'Estrétefonds","ag":["Réseau SNCF TGV, Intercités et TER"],"lt":1,"dept":"31"}},{"type":"Feature","geometry":{"type":"Point","coordinates":[1.54238,43.51709]},"properties":{"nom":"Escalquens","ag":["Réseau SNCF TGV, Intercités et TER"],"lt":1,"dept":"31"}},{"type":"Feature","geometry":{"type":"Point","coordinates":[0.60002,42.82592]},"properties":{"nom":"Antignac Village","ag":["Réseau SNCF TGV, Intercités et TER"],"lt":1,"dept":"31"}},{"type":"Feature","geometry":{"type":"Point","coordinates":[1.6207,43.45361]},"properties":{"nom":"Baziège","ag":["Réseau SNCF TGV, Intercités et TER"],"lt":1,"dept":"31"}},{"type":"Feature","geometry":{"type":"Point","coordinates":[1.15033,43.63651]},"properties":{"nom":"Mérenvielle","ag":["Réseau SNCF TGV, Intercités et TER"],"lt":1,"dept":"31"}},{"type":"Feature","geometry":{"type":"Point","coordinates":[1.23692,43.61489]},"properties":{"nom":"Brax - Léguevin","ag":["Réseau SNCF TGV, Intercités et TER"],"lt":1,"dept":"31"}},{"type":"Feature","geometry":{"type":"Point","coordinates":[1.28912,43.62133]},"properties":{"nom":"Pibrac","ag":["Réseau SNCF TGV, Intercités et TER"],"lt":1,"dept":"31"}},{"type":"Feature","geometry":{"type":"Point","coordinates":[1.52401,43.64491]},"properties":{"nom":"Montrabé","ag":["Réseau SNCF TGV, Intercités et TER"],"lt":1,"dept":"31"}},{"type":"Feature","geometry":{"type":"Point","coordinates":[1.31412,43.61631]},"properties":{"nom":"Colomiers Lycée International","ag":["Réseau SNCF TGV, Intercités et TER"],"lt":1,"dept":"31"}},{"type":"Feature","geometry":{"type":"Point","coordinates":[1.38306,43.59669]},"properties":{"nom":"Lardenne","ag":["Réseau SNCF TGV, Intercités et TER"],"lt":1,"dept":"31"}},{"type":"Feature","geometry":{"type":"Point","coordinates":[0.61673,42.88487]},"properties":{"nom":"Guran Artigueplan","ag":["Réseau SNCF TGV, Intercités et TER"],"lt":1,"dept":"31"}},{"type":"Feature","geometry":{"type":"Point","coordinates":[1.51296,43.54747]},"properties":{"nom":"Labège Innopole","ag":["Réseau SNCF TGV, Intercités et TER"],"lt":1,"dept":"31"}},{"type":"Feature","geometry":{"type":"Point","coordinates":[1.4802,43.57369]},"properties":{"nom":"Montaudran","ag":["Réseau SNCF TGV, Intercités et TER"],"lt":1,"dept":"31"}},{"type":"Feature","geometry":{"type":"Point","coordinates":[1.5326,43.53103]},"properties":{"nom":"Labège Village","ag":["Réseau SNCF TGV, Intercités et TER"],"lt":1,"dept":"31"}},{"type":"Feature","geometry":{"type":"Point","coordinates":[0.59113,43.06033]},"properties":{"nom":"Seilhan le Bazert","ag":["Réseau SNCF TGV, Intercités et TER"],"lt":1,"dept":"31"}},{"type":"Feature","geometry":{"type":"Point","coordinates":[1.71473,43.39854]},"properties":{"nom":"Villefranche-de-Lauragais","ag":["Réseau SNCF TGV, Intercités et TER"],"lt":1,"dept":"31"}},{"type":"Feature","geometry":{"type":"Point","coordinates":[1.61988,43.75125]},"properties":{"nom":"Roquesérière - Buzet","ag":["Réseau SNCF TGV, Intercités et TER"],"lt":1,"dept":"31"}},{"type":"Feature","geometry":{"type":"Point","coordinates":[1.59802,43.71598]},"properties":{"nom":"Montastruc-la-Conseillère","ag":["Réseau SNCF TGV, Intercités et TER"],"lt":1,"dept":"31"}},{"type":"Feature","geometry":{"type":"Point","coordinates":[1.56751,43.69595]},"properties":{"nom":"Gragnague","ag":["Réseau SNCF TGV, Intercités et TER"],"lt":1,"dept":"31"}},{"type":"Feature","geometry":{"type":"Point","coordinates":[1.78727,43.36388]},"properties":{"nom":"Avignonet","ag":["Réseau SNCF TGV, Intercités et TER"],"lt":1,"dept":"31"}},{"type":"Feature","geometry":{"type":"Point","coordinates":[1.39965,43.47921]},"properties":{"nom":"Pins-Justaret","ag":["Réseau SNCF TGV, Intercités et TER"],"lt":1,"dept":"31"}},{"type":"Feature","geometry":{"type":"Point","coordinates":[1.57792,43.47502]},"properties":{"nom":"Montlaur","ag":["Réseau SNCF TGV, Intercités et TER"],"lt":1,"dept":"31"}},{"type":"Feature","geometry":{"type":"Point","coordinates":[1.66089,43.43331]},"properties":{"nom":"Villenouvelle","ag":["Réseau SNCF TGV, Intercités et TER"],"lt":1,"dept":"31"}},{"type":"Feature","geometry":{"type":"Point","coordinates":[0.62498,42.99003]},"properties":{"nom":"Bagiry Pont de Galié","ag":["Réseau SNCF TGV, Intercités et TER"],"lt":1,"dept":"31"}},{"type":"Feature","geometry":{"type":"Point","coordinates":[0.59776,42.7915]},"properties":{"nom":"Bagnères-de-Luchon Lycée","ag":["Réseau SNCF TGV, Intercités et TER"],"lt":1,"dept":"31"}},{"type":"Feature","geometry":{"type":"Point","coordinates":[0.63294,42.89957]},"properties":{"nom":"Burgalays-Muna","ag":["Réseau SNCF TGV, Intercités et TER"],"lt":1,"dept":"31"}},{"type":"Feature","geometry":{"type":"Point","coordinates":[1.52118,43.30538]},"properties":{"nom":"Cintegabelle-Rond-Point","ag":["Réseau SNCF TGV, Intercités et TER"],"lt":1,"dept":"31"}},{"type":"Feature","geometry":{"type":"Point","coordinates":[1.36382,43.6291]},"properties":{"nom":"Aéroport de TOULOUSE BLAGNAC","ag":["Agrégat des réseaux urbains et interurbains des Pays de la Loire"],"lt":1,"dept":"31"}},{"type":"Feature","geometry":{"type":"Point","coordinates":[1.58777,43.32062]},"properties":{"nom":"AIGNES - Mairie","ag":["Réseau interurbain liO Occitanie"],"lt":1,"dept":"31"}},{"type":"Feature","geometry":{"type":"Point","coordinates":[0.94014,43.2296]},"properties":{"nom":"ALAN - Église","ag":["Réseau interurbain liO Occitanie"],"lt":1,"dept":"31"}},{"type":"Feature","geometry":{"type":"Point","coordinates":[0.81441,43.35625]},"properties":{"nom":"ANAN - Anan","ag":["Réseau interurbain liO Occitanie"],"lt":1,"dept":"31"}},{"type":"Feature","geometry":{"type":"Point","coordinates":[0.66125,42.97777]},"properties":{"nom":"ANTICHAN-DE-FRONTIGNES - Brissan","ag":["Réseau interurbain liO Occitanie"],"lt":1,"dept":"31"}},{"type":"Feature","geometry":{"type":"Point","coordinates":[0.60115,42.82852]},"properties":{"nom":"ANTIGNAC - Pisciculture","ag":["Réseau interurbain liO Occitanie"],"lt":1,"dept":"31"}},{"type":"Feature","geometry":{"type":"Point","coordinates":[0.60017,42.82619]},"properties":{"nom":"ANTIGNAC - Village","ag":["Réseau interurbain liO Occitanie"],"lt":1,"dept":"31"}},{"type":"Feature","geometry":{"type":"Point","coordinates":[0.64314,43.06946]},"properties":{"nom":"ARDIÈGE - Ardiège","ag":["Réseau interurbain liO Occitanie"],"lt":1,"dept":"31"}},{"type":"Feature","geometry":{"type":"Point","coordinates":[0.64765,43.07276]},"properties":{"nom":"ARDIÈGE - Les Arpents","ag":["Réseau interurbain liO Occitanie"],"lt":1,"dept":"31"}},{"type":"Feature","geometry":{"type":"Point","coordinates":[0.64321,43.06873]},"properties":{"nom":"ARDIÈGE - Mairie","ag":["Réseau interurbain liO Occitanie"],"lt":1,"dept":"31"}},{"type":"Feature","geometry":{"type":"Point","coordinates":[0.72387,42.9707]},"properties":{"nom":"ARGUENOS - Village","ag":["Réseau interurbain liO Occitanie"],"lt":1,"dept":"31"}},{"type":"Feature","geometry":{"type":"Point","coordinates":[0.70318,42.89191]},"properties":{"nom":"ARLOS - Écoles","ag":["Réseau interurbain liO Occitanie"],"lt":1,"dept":"31"}},{"type":"Feature","geometry":{"type":"Point","coordinates":[0.89565,43.14357]},"properties":{"nom":"ARNAUD-GUILHEM - Église","ag":["Réseau interurbain liO Occitanie"],"lt":1,"dept":"31"}},{"type":"Feature","geometry":{"type":"Point","coordinates":[0.79357,43.02163]},"properties":{"nom":"ASPET - Collège","ag":["Réseau interurbain liO Occitanie"],"lt":1,"dept":"31"}},{"type":"Feature","geometry":{"type":"Point","coordinates":[0.7963,43.02092]},"properties":{"nom":"ASPET - Fontagnère","ag":["Réseau interurbain liO Occitanie"],"lt":1,"dept":"31"}},{"type":"Feature","geometry":{"type":"Point","coordinates":[0.79844,43.01207]},"properties":{"nom":"ASPET - Gendarmerie","ag":["Réseau interurbain liO Occitanie"],"lt":1,"dept":"31"}},{"type":"Feature","geometry":{"type":"Point","coordinates":[0.80325,43.01409]},"properties":{"nom":"ASPET - Place Ruau","ag":["Réseau interurbain liO Occitanie"],"lt":1,"dept":"31"}},{"type":"Feature","geometry":{"type":"Point","coordinates":[1.42458,43.6756]},"properties":{"nom":"AUCAMVILLE - Collège","ag":["Réseau interurbain liO Occitanie"],"lt":1,"dept":"31"}},{"type":"Feature","geometry":{"type":"Point","coordinates":[1.42711,43.67145]},"properties":{"nom":"AUCAMVILLE - Favasse","ag":["Réseau interurbain liO Occitanie"],"lt":1,"dept":"31"}},{"type":"Feature","geometry":{"type":"Point","coordinates":[1.43155,43.66099]},"properties":{"nom":"AUCAMVILLE - Gaussen","ag":["Réseau interurbain liO Occitanie"],"lt":1,"dept":"31"}},{"type":"Feature","geometry":{"type":"Point","coordinates":[1.42903,43.66824]},"properties":{"nom":"AUCAMVILLE - Mairie","ag":["Réseau interurbain liO Occitanie"],"lt":1,"dept":"31"}},{"type":"Feature","geometry":{"type":"Point","coordinates":[1.42604,43.67317]},"properties":{"nom":"AUCAMVILLE - Payen","ag":["Réseau interurbain liO Occitanie"],"lt":1,"dept":"31"}},{"type":"Feature","geometry":{"type":"Point","coordinates":[1.42318,43.67803]},"properties":{"nom":"AUCAMVILLE - Raude-Lauzette","ag":["Réseau interurbain liO Occitanie"],"lt":1,"dept":"31"}},{"type":"Feature","geometry":{"type":"Point","coordinates":[0.82081,43.19105]},"properties":{"nom":"AULON - Place","ag":["Réseau interurbain liO Occitanie"],"lt":1,"dept":"31"}},{"type":"Feature","geometry":{"type":"Point","coordinates":[1.83372,43.52595]},"properties":{"nom":"AURIAC-SUR-VENDINELLE - En Ramière","ag":["Réseau interurbain liO Occitanie"],"lt":1,"dept":"31"}},{"type":"Feature","geometry":{"type":"Point","coordinates":[1.80424,43.52329]},"properties":{"nom":"AURIAC-SUR-VENDINELLE - La Rouquette","ag":["Réseau interurbain liO Occitanie"],"lt":1,"dept":"31"}},{"type":"Feature","geometry":{"type":"Point","coordinates":[1.82611,43.52544]},"properties":{"nom":"AURIAC-SUR-VENDINELLE - Vendinelle","ag":["Réseau interurbain liO Occitanie"],"lt":1,"dept":"31"}},{"type":"Feature","geometry":{"type":"Point","coordinates":[0.88142,43.21621]},"properties":{"nom":"AURIGNAC - Ecole Maternelle","ag":["Réseau interurbain liO Occitanie"],"lt":1,"dept":"31"}},{"type":"Feature","geometry":{"type":"Point","coordinates":[0.8523,43.22116]},"properties":{"nom":"AURIGNAC - Moulin","ag":["Réseau interurbain liO Occitanie"],"lt":1,"dept":"31"}},{"type":"Feature","geometry":{"type":"Point","coordinates":[1.7041,43.54574]},"properties":{"nom":"AURIN - Bachus","ag":["Réseau interurbain liO Occitanie"],"lt":1,"dept":"31"}},{"type":"Feature","geometry":{"type":"Point","coordinates":[1.69861,43.54612]},"properties":{"nom":"AURIN - Castelvert","ag":["Réseau interurbain liO Occitanie"],"lt":1,"dept":"31"}},{"type":"Feature","geometry":{"type":"Point","coordinates":[0.58537,43.09289]},"properties":{"nom":"AUSSON - Rue des Serres","ag":["Réseau interurbain liO Occitanie"],"lt":1,"dept":"31"}},{"type":"Feature","geometry":{"type":"Point","coordinates":[0.59425,43.08362]},"properties":{"nom":"AUSSON - Rue des Écoles","ag":["Réseau interurbain liO Occitanie"],"lt":1,"dept":"31"}},{"type":"Feature","geometry":{"type":"Point","coordinates":[1.32221,43.67659]},"properties":{"nom":"AUSSONNE - Cague l'Oule","ag":["Réseau interurbain liO Occitanie"],"lt":1,"dept":"31"}},{"type":"Feature","geometry":{"type":"Point","coordinates":[1.31991,43.69617]},"properties":{"nom":"AUSSONNE - Grésine","ag":["Réseau interurbain liO Occitanie"],"lt":1,"dept":"31"}},{"type":"Feature","geometry":{"type":"Point","coordinates":[1.32273,43.67151]},"properties":{"nom":"AUSSONNE - Periac","ag":["Réseau interurbain liO Occitanie"],"lt":1,"dept":"31"}},{"type":"Feature","geometry":{"type":"Point","coordinates":[1.32025,43.68357]},"properties":{"nom":"AUSSONNE - République","ag":["Réseau interurbain liO Occitanie"],"lt":1,"dept":"31"}},{"type":"Feature","geometry":{"type":"Point","coordinates":[1.47821,43.35584]},"properties":{"nom":"AUTERIVE - Cimetière","ag":["Réseau interurbain liO Occitanie"],"lt":1,"dept":"31"}},{"type":"Feature","geometry":{"type":"Point","coordinates":[1.46124,43.35043]},"properties":{"nom":"AUTERIVE - Cimetière Rd622","ag":["Réseau interurbain liO Occitanie"],"lt":1,"dept":"31"}},{"type":"Feature","geometry":{"type":"Point","coordinates":[1.46883,43.34909]},"properties":{"nom":"AUTERIVE - Gare SNCF","ag":["Réseau interurbain liO Occitanie"],"lt":1,"dept":"31"}},{"type":"Feature","geometry":{"type":"Point","coordinates":[1.47349,43.34657]},"properties":{"nom":"AUTERIVE - Gendarmerie","ag":["Réseau interurbain liO Occitanie"],"lt":1,"dept":"31"}},{"type":"Feature","geometry":{"type":"Point","coordinates":[1.47715,43.35108]},"properties":{"nom":"AUTERIVE - La Halle","ag":["Réseau interurbain liO Occitanie"],"lt":1,"dept":"31"}},{"type":"Feature","geometry":{"type":"Point","coordinates":[1.48438,43.33511]},"properties":{"nom":"AUTERIVE - Le Bouet","ag":["Réseau interurbain liO Occitanie"],"lt":1,"dept":"31"}},{"type":"Feature","geometry":{"type":"Point","coordinates":[1.47724,43.3522]},"properties":{"nom":"AUTERIVE - Pelletant","ag":["Réseau interurbain liO Occitanie"],"lt":1,"dept":"31"}},{"type":"Feature","geometry":{"type":"Point","coordinates":[1.47341,43.35042]},"properties":{"nom":"AUTERIVE - Stade M. Soulan","ag":["Réseau interurbain liO Occitanie"],"lt":1,"dept":"31"}},{"type":"Feature","geometry":{"type":"Point","coordinates":[1.46857,43.35423]},"properties":{"nom":"AUTERIVE - Église","ag":["Réseau interurbain liO Occitanie"],"lt":1,"dept":"31"}},{"type":"Feature","geometry":{"type":"Point","coordinates":[1.48976,43.52805]},"properties":{"nom":"AUZEVILLE-TOLOSANE - Grand Chemin","ag":["Réseau interurbain liO Occitanie"],"lt":1,"dept":"31"}},{"type":"Feature","geometry":{"type":"Point","coordinates":[1.48478,43.53441]},"properties":{"nom":"AUZEVILLE-TOLOSANE - Lycée Agricole","ag":["Réseau interurbain liO Occitanie"],"lt":1,"dept":"31"}},{"type":"Feature","geometry":{"type":"Point","coordinates":[1.48739,43.53109]},"properties":{"nom":"AUZEVILLE-TOLOSANE - Moulin Armand","ag":["Réseau interurbain liO Occitanie"],"lt":1,"dept":"31"}},{"type":"Feature","geometry":{"type":"Point","coordinates":[1.55787,43.53647]},"properties":{"nom":"AUZIELLE - Crouzet","ag":["Réseau interurbain liO Occitanie"],"lt":1,"dept":"31"}},{"type":"Feature","geometry":{"type":"Point","coordinates":[1.78726,43.36418]},"properties":{"nom":"AVIGNONET-LAURAGAIS - Gare SNCF","ag":["Réseau interurbain liO Occitanie"],"lt":1,"dept":"31"}},{"type":"Feature","geometry":{"type":"Point","coordinates":[1.79065,43.36427]},"properties":{"nom":"AVIGNONET-LAURAGAIS - L'Obélisque","ag":["Réseau interurbain liO Occitanie"],"lt":1,"dept":"31"}},{"type":"Feature","geometry":{"type":"Point","coordinates":[1.77473,43.36939]},"properties":{"nom":"AVIGNONET-LAURAGAIS - Les Bourrasses","ag":["Réseau interurbain liO Occitanie"],"lt":1,"dept":"31"}},{"type":"Feature","geometry":{"type":"Point","coordinates":[1.78431,43.36639]},"properties":{"nom":"AVIGNONET-LAURAGAIS - Mairie","ag":["Réseau interurbain liO Occitanie"],"lt":1,"dept":"31"}},{"type":"Feature","geometry":{"type":"Point","coordinates":[1.76301,43.37367]},"properties":{"nom":"AVIGNONET-LAURAGAIS - Monplaisir","ag":["Réseau interurbain liO Occitanie"],"lt":1,"dept":"31"}},{"type":"Feature","geometry":{"type":"Point","coordinates":[1.79112,43.36411]},"properties":{"nom":"AVIGNONET-LAURAGAIS - Obélisque","ag":["Réseau interurbain liO Occitanie"],"lt":1,"dept":"31"}},{"type":"Feature","geometry":{"type":"Point","coordinates":[1.74718,43.38021]},"properties":{"nom":"AVIGNONET-LAURAGAIS - St-Brice","ag":["Réseau interurbain liO Occitanie"],"lt":1,"dept":"31"}},{"type":"Feature","geometry":{"type":"Point","coordinates":[1.59844,43.43677]},"properties":{"nom":"AYGUESVIVES - Collège","ag":["Réseau interurbain liO Occitanie"],"lt":1,"dept":"31"}},{"type":"Feature","geometry":{"type":"Point","coordinates":[1.59883,43.43503]},"properties":{"nom":"AYGUESVIVES - Pyrénées","ag":["Réseau interurbain liO Occitanie"],"lt":1,"dept":"31"}},{"type":"Feature","geometry":{"type":"Point","coordinates":[1.59655,43.44773]},"properties":{"nom":"AYGUESVIVES - Ticaille","ag":["Réseau interurbain liO Occitanie"],"lt":1,"dept":"31"}},{"type":"Feature","geometry":{"type":"Point","coordinates":[1.59745,43.44762]},"properties":{"nom":"AYGUESVIVES - Ticaille","ag":["Réseau interurbain liO Occitanie"],"lt":1,"dept":"31"}},{"type":"Feature","geometry":{"type":"Point","coordinates":[0.937,43.24415]},"properties":{"nom":"BACHAS - Église","ag":["Réseau interurbain liO Occitanie"],"lt":1,"dept":"31"}},{"type":"Feature","geometry":{"type":"Point","coordinates":[0.62307,42.89568]},"properties":{"nom":"BACHOS - Anos","ag":["Réseau interurbain liO Occitanie"],"lt":1,"dept":"31"}},{"type":"Feature","geometry":{"type":"Point","coordinates":[0.6259,42.97631]},"properties":{"nom":"BAGIRY - Cimetière","ag":["Réseau interurbain liO Occitanie"],"lt":1,"dept":"31"}},{"type":"Feature","geometry":{"type":"Point","coordinates":[0.62494,42.99013]},"properties":{"nom":"BAGIRY - Pont de Galié","ag":["Réseau interurbain liO Occitanie"],"lt":1,"dept":"31"}},{"type":"Feature","geometry":{"type":"Point","coordinates":[0.59679,42.80697]},"properties":{"nom":"BAGNÈRES-DE-LUCHON - Bernadous","ag":["Réseau interurbain liO Occitanie"],"lt":1,"dept":"31"}},{"type":"Feature","geometry":{"type":"Point","coordinates":[0.59627,42.79741]},"properties":{"nom":"BAGNÈRES-DE-LUCHON - Gare","ag":["Réseau interurbain liO Occitanie"],"lt":1,"dept":"31"}},{"type":"Feature","geometry":{"type":"Point","coordinates":[0.59775,42.79144]},"properties":{"nom":"BAGNÈRES-DE-LUCHON - Lycée","ag":["Réseau interurbain liO Occitanie"],"lt":1,"dept":"31"}},{"type":"Feature","geometry":{"type":"Point","coordinates":[1.49746,43.59449]},"properties":{"nom":"BALMA - Aérodrome","ag":["Réseau interurbain liO Occitanie"],"lt":1,"dept":"31"}},{"type":"Feature","geometry":{"type":"Point","coordinates":[1.48259,43.62866]},"properties":{"nom":"BALMA - Gramont","ag":["Réseau interurbain liO Occitanie"],"lt":1,"dept":"31"}},{"type":"Feature","geometry":{"type":"Point","coordinates":[1.52191,43.58647]},"properties":{"nom":"BALMA - Montels","ag":["Réseau interurbain liO Occitanie"],"lt":1,"dept":"31"}},{"type":"Feature","geometry":{"type":"Point","coordinates":[1.51262,43.59008]},"properties":{"nom":"BALMA - Nollet","ag":["Réseau interurbain liO Occitanie"],"lt":1,"dept":"31"}},{"type":"Feature","geometry":{"type":"Point","coordinates":[1.51597,43.58886]},"properties":{"nom":"BALMA - Ribaute","ag":["Réseau interurbain liO Occitanie"],"lt":1,"dept":"31"}},{"type":"Feature","geometry":{"type":"Point","coordinates":[1.50426,43.59342]},"properties":{"nom":"BALMA - St Anne","ag":["Réseau interurbain liO Occitanie"],"lt":1,"dept":"31"}},{"type":"Feature","geometry":{"type":"Point","coordinates":[1.50057,43.63819]},"properties":{"nom":"BALMA - ZI Montredon","ag":["Réseau interurbain liO Occitanie"],"lt":1,"dept":"31"}},{"type":"Feature","geometry":{"type":"Point","coordinates":[0.62163,43.03308]},"properties":{"nom":"BARBAZAN - Gendarmerie","ag":["Réseau interurbain liO Occitanie"],"lt":1,"dept":"31"}},{"type":"Feature","geometry":{"type":"Point","coordinates":[1.64376,43.44317]},"properties":{"nom":"BAZIÈGE - Bellevue","ag":["Réseau interurbain liO Occitanie"],"lt":1,"dept":"31"}},{"type":"Feature","geometry":{"type":"Point","coordinates":[1.61097,43.45106]},"properties":{"nom":"BAZIÈGE - Engoudes","ag":["Réseau interurbain liO Occitanie"],"lt":1,"dept":"31"}},{"type":"Feature","geometry":{"type":"Point","coordinates":[1.62113,43.45372]},"properties":{"nom":"BAZIÈGE - Gare SNCF","ag":["Réseau interurbain liO Occitanie"],"lt":1,"dept":"31"}},{"type":"Feature","geometry":{"type":"Point","coordinates":[1.61684,43.45478]},"properties":{"nom":"BAZIÈGE - Grande Rue","ag":["Réseau interurbain liO Occitanie"],"lt":1,"dept":"31"}},{"type":"Feature","geometry":{"type":"Point","coordinates":[1.60863,43.4498]},"properties":{"nom":"BAZIÈGE - Las Puntos","ag":["Réseau interurbain liO Occitanie"],"lt":1,"dept":"31"}},{"type":"Feature","geometry":{"type":"Point","coordinates":[1.61389,43.455]},"properties":{"nom":"BAZIÈGE - Poste","ag":["Réseau interurbain liO Occitanie"],"lt":1,"dept":"31"}},{"type":"Feature","geometry":{"type":"Point","coordinates":[1.63022,43.44981]},"properties":{"nom":"BAZIÈGE - ZAC du Visenc","ag":["Réseau interurbain liO Occitanie"],"lt":1,"dept":"31"}},{"type":"Feature","geometry":{"type":"Point","coordinates":[1.61329,43.45392]},"properties":{"nom":"BAZIÈGE - Écoles","ag":["Réseau interurbain liO Occitanie"],"lt":1,"dept":"31"}},{"type":"Feature","geometry":{"type":"Point","coordinates":[0.86659,43.11041]},"properties":{"nom":"BEAUCHALOT - Le Baron","ag":["Réseau interurbain liO Occitanie"],"lt":1,"dept":"31"}},{"type":"Feature","geometry":{"type":"Point","coordinates":[0.86846,43.10778]},"properties":{"nom":"BEAUCHALOT - Église","ag":["Réseau interurbain liO Occitanie"],"lt":1,"dept":"31"}},{"type":"Feature","geometry":{"type":"Point","coordinates":[1.36891,43.40416]},"properties":{"nom":"BEAUMONT-SUR-LÈZE - Aujoulets","ag":["Réseau interurbain liO Occitanie"],"lt":1,"dept":"31"}},{"type":"Feature","geometry":{"type":"Point","coordinates":[1.34572,43.38238]},"properties":{"nom":"BEAUMONT-SUR-LÈZE - Château de Beaumont","ag":["Réseau interurbain liO Occitanie"],"lt":1,"dept":"31"}},{"type":"Feature","geometry":{"type":"Point","coordinates":[1.35062,43.38934]},"properties":{"nom":"BEAUMONT-SUR-LÈZE - Escloupère","ag":["Réseau interurbain liO Occitanie"],"lt":1,"dept":"31"}},{"type":"Feature","geometry":{"type":"Point","coordinates":[1.36266,43.39876]},"properties":{"nom":"BEAUMONT-SUR-LÈZE - La Trivalle","ag":["Réseau interurbain liO Occitanie"],"lt":1,"dept":"31"}},{"type":"Feature","geometry":{"type":"Point","coordinates":[1.35674,43.39377]},"properties":{"nom":"BEAUMONT-SUR-LÈZE - Pellepoix","ag":["Réseau interurbain liO Occitanie"],"lt":1,"dept":"31"}},{"type":"Feature","geometry":{"type":"Point","coordinates":[1.3478,43.3854]},"properties":{"nom":"BEAUMONT-SUR-LÈZE - Vignolles","ag":["Réseau interurbain liO Occitanie"],"lt":1,"dept":"31"}},{"type":"Feature","geometry":{"type":"Point","coordinates":[1.55437,43.64608]},"properties":{"nom":"BEAUPUY - Mairie","ag":["Réseau interurbain liO Occitanie"],"lt":1,"dept":"31"}},{"type":"Feature","geometry":{"type":"Point","coordinates":[1.74106,43.35223]},"properties":{"nom":"BEAUTEVILLE - Labarraque","ag":["Réseau interurbain liO Occitanie"],"lt":1,"dept":"31"}},{"type":"Feature","geometry":{"type":"Point","coordinates":[1.77991,43.46989]},"properties":{"nom":"BEAUVILLE - Nizac","ag":["Réseau interurbain liO Occitanie"],"lt":1,"dept":"31"}},{"type":"Feature","geometry":{"type":"Point","coordinates":[0.91714,43.26012]},"properties":{"nom":"BENQUE - Mairie","ag":["Réseau interurbain liO Occitanie"],"lt":1,"dept":"31"}},{"type":"Feature","geometry":{"type":"Point","coordinates":[0.62139,42.99488]},"properties":{"nom":"BERTREN - Sud","ag":["Réseau interurbain liO Occitanie"],"lt":1,"dept":"31"}},{"type":"Feature","geometry":{"type":"Point","coordinates":[1.56933,43.8091]},"properties":{"nom":"BESSIÈRES - Barrèses","ag":["Réseau interurbain liO Occitanie"],"lt":1,"dept":"31"}},{"type":"Feature","geometry":{"type":"Point","coordinates":[1.61195,43.79798]},"properties":{"nom":"BESSIÈRES - C.Pitchou","ag":["Réseau interurbain liO Occitanie"],"lt":1,"dept":"31"}},{"type":"Feature","geometry":{"type":"Point","coordinates":[1.6074,43.8]},"properties":{"nom":"BESSIÈRES - Esplanade","ag":["Réseau interurbain liO Occitanie"],"lt":1,"dept":"31"}},{"type":"Feature","geometry":{"type":"Point","coordinates":[1.56869,43.80849]},"properties":{"nom":"BESSIÈRES - Le Triangle","ag":["Réseau interurbain liO Occitanie"],"lt":1,"dept":"31"}},{"type":"Feature","geometry":{"type":"Point","coordinates":[1.57857,43.79507]},"properties":{"nom":"BESSIÈRES - Les Friques","ag":["Réseau interurbain liO Occitanie"],"lt":1,"dept":"31"}},{"type":"Feature","geometry":{"type":"Point","coordinates":[1.60194,43.80095]},"properties":{"nom":"BESSIÈRES - Mazade","ag":["Réseau interurbain liO Occitanie"],"lt":1,"dept":"31"}},{"type":"Feature","geometry":{"type":"Point","coordinates":[1.59179,43.80099]},"properties":{"nom":"BESSIÈRES - Plaisance","ag":["Réseau interurbain liO Occitanie"],"lt":1,"dept":"31"}},{"type":"Feature","geometry":{"type":"Point","coordinates":[1.5826,43.80069]},"properties":{"nom":"BESSIÈRES - Taillefer","ag":["Réseau interurbain liO Occitanie"],"lt":1,"dept":"31"}},{"type":"Feature","geometry":{"type":"Point","coordinates":[1.37585,43.65468]},"properties":{"nom":"BLAGNAC - Andromède Lycée","ag":["Réseau interurbain liO Occitanie"],"lt":1,"dept":"31"}},{"type":"Feature","geometry":{"type":"Point","coordinates":[1.36291,43.66283]},"properties":{"nom":"BLAGNAC - Aéroconstellation","ag":["Réseau interurbain liO Occitanie"],"lt":1,"dept":"31"}},{"type":"Feature","geometry":{"type":"Point","coordinates":[1.38513,43.62711]},"properties":{"nom":"BLAGNAC - Bellonte","ag":["Réseau interurbain liO Occitanie"],"lt":1,"dept":"31"}},{"type":"Feature","geometry":{"type":"Point","coordinates":[1.38267,43.62536]},"properties":{"nom":"BLAGNAC - Dewoitine","ag":["Réseau interurbain liO Occitanie"],"lt":1,"dept":"31"}},{"type":"Feature","geometry":{"type":"Point","coordinates":[0.65181,43.25955]},"properties":{"nom":"BLAJAN - Cité Bellevue","ag":["Réseau interurbain liO Occitanie"],"lt":1,"dept":"31"}},{"type":"Feature","geometry":{"type":"Point","coordinates":[0.66703,43.2603]},"properties":{"nom":"BLAJAN - La Tuilerie","ag":["Réseau interurbain liO Occitanie"],"lt":1,"dept":"31"}},{"type":"Feature","geometry":{"type":"Point","coordinates":[0.64295,43.25961]},"properties":{"nom":"BLAJAN - Mairie","ag":["Réseau interurbain liO Occitanie"],"lt":1,"dept":"31"}},{"type":"Feature","geometry":{"type":"Point","coordinates":[1.16345,43.3416]},"properties":{"nom":"BOIS-DE-LA-PIERRE - La Bordasse","ag":["Réseau interurbain liO Occitanie"],"lt":1,"dept":"31"}},{"type":"Feature","geometry":{"type":"Point","coordinates":[1.5405,43.84011]},"properties":{"nom":"BONDIGOUX - École","ag":["Réseau interurbain liO Occitanie"],"lt":1,"dept":"31"}},{"type":"Feature","geometry":{"type":"Point","coordinates":[0.63498,43.11098]},"properties":{"nom":"BORDES-DE-RIVIÈRE - RD 75a / École","ag":["Réseau interurbain liO Occitanie"],"lt":1,"dept":"31"}},{"type":"Feature","geometry":{"type":"Point","coordinates":[1.42113,43.81398]},"properties":{"nom":"BOULOC - Betinats","ag":["Réseau interurbain liO Occitanie"],"lt":1,"dept":"31"}},{"type":"Feature","geometry":{"type":"Point","coordinates":[1.41441,43.79307]},"properties":{"nom":"BOULOC - Brugues","ag":["Réseau interurbain liO Occitanie"],"lt":1,"dept":"31"}},{"type":"Feature","geometry":{"type":"Point","coordinates":[1.40866,43.78319]},"properties":{"nom":"BOULOC - Fombertier","ag":["Réseau interurbain liO Occitanie"],"lt":1,"dept":"31"}},{"type":"Feature","geometry":{"type":"Point","coordinates":[1.42319,43.78332]},"properties":{"nom":"BOULOC - La Nauze","ag":["Réseau interurbain liO Occitanie"],"lt":1,"dept":"31"}},{"type":"Feature","geometry":{"type":"Point","coordinates":[1.40836,43.78209]},"properties":{"nom":"BOULOC - La Tuilerie","ag":["Réseau interurbain liO Occitanie"],"lt":1,"dept":"31"}},{"type":"Feature","geometry":{"type":"Point","coordinates":[1.412,43.78244]},"properties":{"nom":"BOULOC - Le Mas de Coppelia","ag":["Réseau interurbain liO Occitanie"],"lt":1,"dept":"31"}},{"type":"Feature","geometry":{"type":"Point","coordinates":[1.43001,43.78328]},"properties":{"nom":"BOULOC - Les Aynats","ag":["Réseau interurbain liO Occitanie"],"lt":1,"dept":"31"}},{"type":"Feature","geometry":{"type":"Point","coordinates":[1.41264,43.79875]},"properties":{"nom":"BOULOC - Les Gourgues","ag":["Réseau interurbain liO Occitanie"],"lt":1,"dept":"31"}},{"type":"Feature","geometry":{"type":"Point","coordinates":[1.40544,43.78128]},"properties":{"nom":"BOULOC - Mairie","ag":["Réseau interurbain liO Occitanie"],"lt":1,"dept":"31"}},{"type":"Feature","geometry":{"type":"Point","coordinates":[1.41171,43.78851]},"properties":{"nom":"BOULOC - Mougnet","ag":["Réseau interurbain liO Occitanie"],"lt":1,"dept":"31"}},{"type":"Feature","geometry":{"type":"Point","coordinates":[1.40665,43.79634]},"properties":{"nom":"BOULOC - Praynets","ag":["Réseau interurbain liO Occitanie"],"lt":1,"dept":"31"}},{"type":"Feature","geometry":{"type":"Point","coordinates":[1.40574,43.778]},"properties":{"nom":"BOULOC - Vieux Stade","ag":["Réseau interurbain liO Occitanie"],"lt":1,"dept":"31"}},{"type":"Feature","geometry":{"type":"Point","coordinates":[0.64808,43.29113]},"properties":{"nom":"BOULOGNE-SUR-GESSE - Collège","ag":["Réseau interurbain liO Occitanie"],"lt":1,"dept":"31"}},{"type":"Feature","geometry":{"type":"Point","coordinates":[0.65024,43.28625]},"properties":{"nom":"BOULOGNE-SUR-GESSE - HLM","ag":["Réseau interurbain liO Occitanie"],"lt":1,"dept":"31"}},{"type":"Feature","geometry":{"type":"Point","coordinates":[1.68427,43.59283]},"properties":{"nom":"BOURG-SAINT-BERNARD - Lacassagne","ag":["Réseau interurbain liO Occitanie"],"lt":1,"dept":"31"}},{"type":"Feature","geometry":{"type":"Point","coordinates":[1.71294,43.5998]},"properties":{"nom":"BOURG-SAINT-BERNARD - Mairie","ag":["Réseau interurbain liO Occitanie"],"lt":1,"dept":"31"}},{"type":"Feature","geometry":{"type":"Point","coordinates":[1.71239,43.60256]},"properties":{"nom":"BOURG-SAINT-BERNARD - Église","ag":["Réseau interurbain liO Occitanie"],"lt":1,"dept":"31"}},{"type":"Feature","geometry":{"type":"Point","coordinates":[0.88848,43.24451]},"properties":{"nom":"BOUSSAN - Salle Polyvalente","ag":["Réseau interurbain liO Occitanie"],"lt":1,"dept":"31"}},{"type":"Feature","geometry":{"type":"Point","coordinates":[0.96974,43.18179]},"properties":{"nom":"BOUSSENS - Boïdures","ag":["Réseau interurbain liO Occitanie"],"lt":1,"dept":"31"}},{"type":"Feature","geometry":{"type":"Point","coordinates":[0.97264,43.17964]},"properties":{"nom":"BOUSSENS - Gare SNCF","ag":["Réseau interurbain liO Occitanie"],"lt":1,"dept":"31"}},{"type":"Feature","geometry":{"type":"Point","coordinates":[0.96852,43.17657]},"properties":{"nom":"BOUSSENS - Lalanne","ag":["Réseau interurbain liO Occitanie"],"lt":1,"dept":"31"}},{"type":"Feature","geometry":{"type":"Point","coordinates":[0.96521,43.17997]},"properties":{"nom":"BOUSSENS - Pic du Midi","ag":["Réseau interurbain liO Occitanie"],"lt":1,"dept":"31"}},{"type":"Feature","geometry":{"type":"Point","coordinates":[0.96303,43.16779]},"properties":{"nom":"BOUSSENS - Sansonnet","ag":["Réseau interurbain liO Occitanie"],"lt":1,"dept":"31"}},{"type":"Feature","geometry":{"type":"Point","coordinates":[1.07062,43.48282]},"properties":{"nom":"BRAGAYRAC - Mairie-Église","ag":["Réseau interurbain liO Occitanie"],"lt":1,"dept":"31"}},{"type":"Feature","geometry":{"type":"Point","coordinates":[1.08615,43.48926]},"properties":{"nom":"BRAGAYRAC - Pourcet","ag":["Réseau interurbain liO Occitanie"],"lt":1,"dept":"31"}},{"type":"Feature","geometry":{"type":"Point","coordinates":[1.19826,43.70698]},"properties":{"nom":"BRETX - Le Bouet","ag":["Réseau interurbain liO Occitanie"],"lt":1,"dept":"31"}},{"type":"Feature","geometry":{"type":"Point","coordinates":[1.40729,43.72126]},"properties":{"nom":"BRUGUIÈRES - Gamouna","ag":["Réseau interurbain liO Occitanie"],"lt":1,"dept":"31"}},{"type":"Feature","geometry":{"type":"Point","coordinates":[1.41534,43.73253]},"properties":{"nom":"BRUGUIÈRES - La Côte","ag":["Réseau interurbain liO Occitanie"],"lt":1,"dept":"31"}},{"type":"Feature","geometry":{"type":"Point","coordinates":[1.41129,43.72772]},"properties":{"nom":"BRUGUIÈRES - Mairie","ag":["Réseau interurbain liO Occitanie"],"lt":1,"dept":"31"}},{"type":"Feature","geometry":{"type":"Point","coordinates":[1.40967,43.72361]},"properties":{"nom":"BRUGUIÈRES - Écoles","ag":["Réseau interurbain liO Occitanie"],"lt":1,"dept":"31"}},{"type":"Feature","geometry":{"type":"Point","coordinates":[1.62633,43.77893]},"properties":{"nom":"BUZET-SUR-TARN - Al Cros","ag":["Réseau interurbain liO Occitanie"],"lt":1,"dept":"31"}},{"type":"Feature","geometry":{"type":"Point","coordinates":[1.62897,43.78224]},"properties":{"nom":"BUZET-SUR-TARN - Cimetière","ag":["Réseau interurbain liO Occitanie"],"lt":1,"dept":"31"}},{"type":"Feature","geometry":{"type":"Point","coordinates":[1.61812,43.76112]},"properties":{"nom":"BUZET-SUR-TARN - Laurentie","ag":["Réseau interurbain liO Occitanie"],"lt":1,"dept":"31"}},{"type":"Feature","geometry":{"type":"Point","coordinates":[1.63409,43.77636]},"properties":{"nom":"BUZET-SUR-TARN - Parro","ag":["Réseau interurbain liO Occitanie"],"lt":1,"dept":"31"}},{"type":"Feature","geometry":{"type":"Point","coordinates":[1.62676,43.77239]},"properties":{"nom":"BUZET-SUR-TARN - Pigeron","ag":["Réseau interurbain liO Occitanie"],"lt":1,"dept":"31"}},{"type":"Feature","geometry":{"type":"Point","coordinates":[1.61039,43.75298]},"properties":{"nom":"BUZET-SUR-TARN - Sayers","ag":["Réseau interurbain liO Occitanie"],"lt":1,"dept":"31"}},{"type":"Feature","geometry":{"type":"Point","coordinates":[1.18985,43.39488]},"properties":{"nom":"BÉRAT - Baque","ag":["Réseau interurbain liO Occitanie"],"lt":1,"dept":"31"}},{"type":"Feature","geometry":{"type":"Point","coordinates":[1.19128,43.3991]},"properties":{"nom":"BÉRAT - Canalette","ag":["Réseau interurbain liO Occitanie"],"lt":1,"dept":"31"}},{"type":"Feature","geometry":{"type":"Point","coordinates":[1.18673,43.38683]},"properties":{"nom":"BÉRAT - Cap Debat","ag":["Réseau interurbain liO Occitanie"],"lt":1,"dept":"31"}},{"type":"Feature","geometry":{"type":"Point","coordinates":[1.18828,43.39097]},"properties":{"nom":"BÉRAT - Cap Debat 2","ag":["Réseau interurbain liO Occitanie"],"lt":1,"dept":"31"}},{"type":"Feature","geometry":{"type":"Point","coordinates":[1.16997,43.37136]},"properties":{"nom":"BÉRAT - Cité des Jardins","ag":["Réseau interurbain liO Occitanie"],"lt":1,"dept":"31"}},{"type":"Feature","geometry":{"type":"Point","coordinates":[1.18521,43.38494]},"properties":{"nom":"BÉRAT - Coume","ag":["Réseau interurbain liO Occitanie"],"lt":1,"dept":"31"}},{"type":"Feature","geometry":{"type":"Point","coordinates":[1.17673,43.37959]},"properties":{"nom":"BÉRAT - Mairie","ag":["Réseau interurbain liO Occitanie"],"lt":1,"dept":"31"}},{"type":"Feature","geometry":{"type":"Point","coordinates":[0.7402,43.03431]},"properties":{"nom":"CABANAC-CAZAUX - Église","ag":["Réseau interurbain liO Occitanie"],"lt":1,"dept":"31"}},{"type":"Feature","geometry":{"type":"Point","coordinates":[1.05054,43.72858]},"properties":{"nom":"CADOURS - Ecole","ag":["Réseau interurbain liO Occitanie"],"lt":1,"dept":"31"}},{"type":"Feature","geometry":{"type":"Point","coordinates":[1.04879,43.72905]},"properties":{"nom":"CADOURS - La Halle","ag":["Réseau interurbain liO Occitanie"],"lt":1,"dept":"31"}},{"type":"Feature","geometry":{"type":"Point","coordinates":[1.71138,43.32139]},"properties":{"nom":"CAIGNAC - Souleilla des Moulins","ag":["Réseau interurbain liO Occitanie"],"lt":1,"dept":"31"}},{"type":"Feature","geometry":{"type":"Point","coordinates":[1.63255,43.28552]},"properties":{"nom":"CALMONT - Canelles","ag":["Réseau interurbain liO Occitanie"],"lt":1,"dept":"31"}},{"type":"Feature","geometry":{"type":"Point","coordinates":[1.60139,43.2892]},"properties":{"nom":"CALMONT - Fortanier","ag":["Réseau interurbain liO Occitanie"],"lt":1,"dept":"31"}},{"type":"Feature","geometry":{"type":"Point","coordinates":[1.58776,43.29098]},"properties":{"nom":"CALMONT - Gilis","ag":["Réseau interurbain liO Occitanie"],"lt":1,"dept":"31"}},{"type":"Feature","geometry":{"type":"Point","coordinates":[1.63556,43.28441]},"properties":{"nom":"CALMONT - Mairie","ag":["Réseau interurbain liO Occitanie"],"lt":1,"dept":"31"}},{"type":"Feature","geometry":{"type":"Point","coordinates":[1.6257,43.28728]},"properties":{"nom":"CALMONT - Maison de Retraite","ag":["Réseau interurbain liO Occitanie"],"lt":1,"dept":"31"}},{"type":"Feature","geometry":{"type":"Point","coordinates":[1.19202,43.45079]},"properties":{"nom":"CAMBERNARD - Les Galiers","ag":["Réseau interurbain liO Occitanie"],"lt":1,"dept":"31"}},{"type":"Feature","geometry":{"type":"Point","coordinates":[1.25869,43.34124]},"properties":{"nom":"CAPENS - Le Pont","ag":["Réseau interurbain liO Occitanie"],"lt":1,"dept":"31"}},{"type":"Feature","geometry":{"type":"Point","coordinates":[1.74683,43.53472]},"properties":{"nom":"CARAMAN - Briquetterie","ag":["Réseau interurbain liO Occitanie"],"lt":1,"dept":"31"}},{"type":"Feature","geometry":{"type":"Point","coordinates":[1.77074,43.52544]},"properties":{"nom":"CARAMAN - Coopérative","ag":["Réseau interurbain liO Occitanie"],"lt":1,"dept":"31"}},{"type":"Feature","geometry":{"type":"Point","coordinates":[1.73463,43.53788]},"properties":{"nom":"CARAMAN - Couge","ag":["Réseau interurbain liO Occitanie"],"lt":1,"dept":"31"}},{"type":"Feature","geometry":{"type":"Point","coordinates":[1.75579,43.53102]},"properties":{"nom":"CARAMAN - Cours Alsace Lorraine","ag":["Réseau interurbain liO Occitanie"],"lt":1,"dept":"31"}},{"type":"Feature","geometry":{"type":"Point","coordinates":[1.74158,43.5361]},"properties":{"nom":"CARAMAN - Le Colombier","ag":["Réseau interurbain liO Occitanie"],"lt":1,"dept":"31"}},{"type":"Feature","geometry":{"type":"Point","coordinates":[1.76088,43.52945]},"properties":{"nom":"CARAMAN - Mairie","ag":["Réseau interurbain liO Occitanie"],"lt":1,"dept":"31"}},{"type":"Feature","geometry":{"type":"Point","coordinates":[1.22483,43.30064]},"properties":{"nom":"CARBONNE - Avenue de Toulouse","ag":["Réseau interurbain liO Occitanie"],"lt":1,"dept":"31"}},{"type":"Feature","geometry":{"type":"Point","coordinates":[1.22425,43.30519]},"properties":{"nom":"CARBONNE - Château d'Eau","ag":["Réseau interurbain liO Occitanie"],"lt":1,"dept":"31"}},{"type":"Feature","geometry":{"type":"Point","coordinates":[1.22948,43.30682]},"properties":{"nom":"CARBONNE - Collège","ag":["Réseau interurbain liO Occitanie"],"lt":1,"dept":"31"}},{"type":"Feature","geometry":{"type":"Point","coordinates":[1.21285,43.29803]},"properties":{"nom":"CARBONNE - Gare SNCF","ag":["Réseau interurbain liO Occitanie"],"lt":1,"dept":"31"}},{"type":"Feature","geometry":{"type":"Point","coordinates":[1.2252,43.29589]},"properties":{"nom":"CARBONNE - Jardin Public","ag":["Réseau interurbain liO Occitanie"],"lt":1,"dept":"31"}},{"type":"Feature","geometry":{"type":"Point","coordinates":[1.21778,43.29624]},"properties":{"nom":"CARBONNE - La Barre","ag":["Réseau interurbain liO Occitanie"],"lt":1,"dept":"31"}},{"type":"Feature","geometry":{"type":"Point","coordinates":[1.22771,43.30482]},"properties":{"nom":"CARBONNE - La Guinguette","ag":["Réseau interurbain liO Occitanie"],"lt":1,"dept":"31"}},{"type":"Feature","geometry":{"type":"Point","coordinates":[1.20595,43.28902]},"properties":{"nom":"CARBONNE - La Terrasse","ag":["Réseau interurbain liO Occitanie"],"lt":1,"dept":"31"}},{"type":"Feature","geometry":{"type":"Point","coordinates":[0.7921,43.22782]},"properties":{"nom":"CASSAGNABÈRE-TOURNAS - Village","ag":["Réseau interurbain liO Occitanie"],"lt":1,"dept":"31"}},{"type":"Feature","geometry":{"type":"Point","coordinates":[0.79208,43.22782]},"properties":{"nom":"CASSAGNABÈRE-TOURNAS - École","ag":["Réseau interurbain liO Occitanie"],"lt":1,"dept":"31"}},{"type":"Feature","geometry":{"type":"Point","coordinates":[0.9895,43.1228]},"properties":{"nom":"CASSAGNE - École","ag":["Réseau interurbain liO Occitanie"],"lt":1,"dept":"31"}},{"type":"Feature","geometry":{"type":"Point","coordinates":[0.9892,43.12301]},"properties":{"nom":"CASSAGNE - École Elémentaire","ag":["Réseau interurbain liO Occitanie"],"lt":1,"dept":"31"}},{"type":"Feature","geometry":{"type":"Point","coordinates":[0.98019,43.05413]},"properties":{"nom":"CASTAGNÈDE - Poste","ag":["Réseau interurbain liO Occitanie"],"lt":1,"dept":"31"}},{"type":"Feature","geometry":{"type":"Point","coordinates":[0.97912,43.05528]},"properties":{"nom":"CASTAGNÈDE - RD117/RD60F","ag":["Réseau interurbain liO Occitanie"],"lt":1,"dept":"31"}},{"type":"Feature","geometry":{"type":"Point","coordinates":[1.49812,43.51683]},"properties":{"nom":"CASTANET-TOLOSAN - Mairie","ag":["Réseau interurbain liO Occitanie"],"lt":1,"dept":"31"}},{"type":"Feature","geometry":{"type":"Point","coordinates":[1.49444,43.52336]},"properties":{"nom":"CASTANET-TOLOSAN - Peupliers","ag":["Réseau interurbain liO Occitanie"],"lt":1,"dept":"31"}},{"type":"Feature","geometry":{"type":"Point","coordinates":[1.50065,43.51298]},"properties":{"nom":"CASTANET-TOLOSAN - Péries","ag":["Réseau interurbain liO Occitanie"],"lt":1,"dept":"31"}},{"type":"Feature","geometry":{"type":"Point","coordinates":[1.49635,43.51987]},"properties":{"nom":"CASTANET-TOLOSAN - Écoles","ag":["Réseau interurbain liO Occitanie"],"lt":1,"dept":"31"}},{"type":"Feature","geometry":{"type":"Point","coordinates":[1.45083,43.69233]},"properties":{"nom":"CASTELGINEST - Clotilde","ag":["Réseau interurbain liO Occitanie"],"lt":1,"dept":"31"}},{"type":"Feature","geometry":{"type":"Point","coordinates":[1.45109,43.68639]},"properties":{"nom":"CASTELGINEST - Grazidou","ag":["Réseau interurbain liO Occitanie"],"lt":1,"dept":"31"}},{"type":"Feature","geometry":{"type":"Point","coordinates":[1.45083,43.69591]},"properties":{"nom":"CASTELGINEST - Peyrandrieu","ag":["Réseau interurbain liO Occitanie"],"lt":1,"dept":"31"}},{"type":"Feature","geometry":{"type":"Point","coordinates":[1.5328,43.67739]},"properties":{"nom":"CASTELMAUROU - Mairie","ag":["Réseau interurbain liO Occitanie"],"lt":1,"dept":"31"}},{"type":"Feature","geometry":{"type":"Point","coordinates":[1.55285,43.69499]},"properties":{"nom":"CASTELMAUROU - Montvert","ag":["Réseau interurbain liO Occitanie"],"lt":1,"dept":"31"}},{"type":"Feature","geometry":{"type":"Point","coordinates":[1.52838,43.6756]},"properties":{"nom":"CASTELMAUROU - Rouergue","ag":["Réseau interurbain liO Occitanie"],"lt":1,"dept":"31"}},{"type":"Feature","geometry":{"type":"Point","coordinates":[1.53847,43.67968]},"properties":{"nom":"CASTELMAUROU - Route d'Albi","ag":["Réseau interurbain liO Occitanie"],"lt":1,"dept":"31"}},{"type":"Feature","geometry":{"type":"Point","coordinates":[1.35857,43.77167]},"properties":{"nom":"CASTELNAU-D'ESTRÉTEFONDS - Avenue de Toulouse","ag":["Réseau interurbain liO Occitanie"],"lt":1,"dept":"31"}},{"type":"Feature","geometry":{"type":"Point","coordinates":[1.34713,43.78842]},"properties":{"nom":"CASTELNAU-D'ESTRÉTEFONDS - Bordeneuve","ag":["Réseau interurbain liO Occitanie"],"lt":1,"dept":"31"}},{"type":"Feature","geometry":{"type":"Point","coordinates":[1.35325,43.78626]},"properties":{"nom":"CASTELNAU-D'ESTRÉTEFONDS - Boulbènes","ag":["Réseau interurbain liO Occitanie"],"lt":1,"dept":"31"}},{"type":"Feature","geometry":{"type":"Point","coordinates":[1.33544,43.7956]},"properties":{"nom":"CASTELNAU-D'ESTRÉTEFONDS - Embalens","ag":["Réseau interurbain liO Occitanie"],"lt":1,"dept":"31"}},{"type":"Feature","geometry":{"type":"Point","coordinates":[1.36052,43.76949]},"properties":{"nom":"CASTELNAU-D'ESTRÉTEFONDS - Eurocentre Nord","ag":["Réseau interurbain liO Occitanie"],"lt":1,"dept":"31"}},{"type":"Feature","geometry":{"type":"Point","coordinates":[1.37309,43.76483]},"properties":{"nom":"CASTELNAU-D'ESTRÉTEFONDS - Eurocentre Sud","ag":["Réseau interurbain liO Occitanie"],"lt":1,"dept":"31"}},{"type":"Feature","geometry":{"type":"Point","coordinates":[1.36013,43.7807]},"properties":{"nom":"CASTELNAU-D'ESTRÉTEFONDS - L'Ourmède","ag":["Réseau interurbain liO Occitanie"],"lt":1,"dept":"31"}},{"type":"Feature","geometry":{"type":"Point","coordinates":[1.35726,43.78386]},"properties":{"nom":"CASTELNAU-D'ESTRÉTEFONDS - Mairie","ag":["Réseau interurbain liO Occitanie"],"lt":1,"dept":"31"}},{"type":"Feature","geometry":{"type":"Point","coordinates":[1.35934,43.77618]},"properties":{"nom":"CASTELNAU-D'ESTRÉTEFONDS - Péradère","ag":["Réseau interurbain liO Occitanie"],"lt":1,"dept":"31"}},{"type":"Feature","geometry":{"type":"Point","coordinates":[1.34286,43.78805]},"properties":{"nom":"CASTELNAU-D'ESTRÉTEFONDS - Route d'Ondes-Gare","ag":["Réseau interurbain liO Occitanie"],"lt":1,"dept":"31"}},{"type":"Feature","geometry":{"type":"Point","coordinates":[0.91867,43.13059]},"properties":{"nom":"CASTILLON-DE-SAINT-MARTORY - Apas","ag":["Réseau interurbain liO Occitanie"],"lt":1,"dept":"31"}},{"type":"Feature","geometry":{"type":"Point","coordinates":[0.85865,43.13443]},"properties":{"nom":"CASTILLON-DE-SAINT-MARTORY - Place/Église","ag":["Réseau interurbain liO Occitanie"],"lt":1,"dept":"31"}},{"type":"Feature","geometry":{"type":"Point","coordinates":[0.85861,43.1344]},"properties":{"nom":"CASTILLON-DE-SAINT-MARTORY - École","ag":["Réseau interurbain liO Occitanie"],"lt":1,"dept":"31"}},{"type":"Feature","geometry":{"type":"Point","coordinates":[1.0629,43.7189]},"properties":{"nom":"CAUBIAC - En Hourquet","ag":["Réseau interurbain liO Occitanie"],"lt":1,"dept":"31"}},{"type":"Feature","geometry":{"type":"Point","coordinates":[1.08514,43.71415]},"properties":{"nom":"CAUBIAC - Village","ag":["Réseau interurbain liO Occitanie"],"lt":1,"dept":"31"}},{"type":"Feature","geometry":{"type":"Point","coordinates":[1.47022,43.29933]},"properties":{"nom":"CAUJAC - Village","ag":["Réseau interurbain liO Occitanie"],"lt":1,"dept":"31"}},{"type":"Feature","geometry":{"type":"Point","coordinates":[0.73055,42.98477]},"properties":{"nom":"CAZAUNOUS - Les Escoumes","ag":["Réseau interurbain liO Occitanie"],"lt":1,"dept":"31"}},{"type":"Feature","geometry":{"type":"Point","coordinates":[0.60821,42.8691]},"properties":{"nom":"CAZAUX-LAYRISSE - Village","ag":["Réseau interurbain liO Occitanie"],"lt":1,"dept":"31"}},{"type":"Feature","geometry":{"type":"Point","coordinates":[0.6072,42.86756]},"properties":{"nom":"CAZAUX-LAYRISSE - Église","ag":["Réseau interurbain liO Occitanie"],"lt":1,"dept":"31"}},{"type":"Feature","geometry":{"type":"Point","coordinates":[1.08409,43.20528]},"properties":{"nom":"CAZÈRES - Jean Jaurès","ag":["Réseau interurbain liO Occitanie"],"lt":1,"dept":"31"}},{"type":"Feature","geometry":{"type":"Point","coordinates":[1.09224,43.20975]},"properties":{"nom":"CAZÈRES - Labrioulette","ag":["Réseau interurbain liO Occitanie"],"lt":1,"dept":"31"}},{"type":"Feature","geometry":{"type":"Point","coordinates":[0.65835,42.93097]},"properties":{"nom":"CHAUM - Saspis","ag":["Réseau interurbain liO Occitanie"],"lt":1,"dept":"31"}},{"type":"Feature","geometry":{"type":"Point","coordinates":[0.65261,42.9366]},"properties":{"nom":"CHAUM - Village","ag":["Réseau interurbain liO Occitanie"],"lt":1,"dept":"31"}},{"type":"Feature","geometry":{"type":"Point","coordinates":[0.73614,43.25981]},"properties":{"nom":"CIADOUX - Centre","ag":["Réseau interurbain liO Occitanie"],"lt":1,"dept":"31"}},{"type":"Feature","geometry":{"type":"Point","coordinates":[0.60303,42.85283]},"properties":{"nom":"CIER-DE-LUCHON - Castéra","ag":["Réseau interurbain liO Occitanie"],"lt":1,"dept":"31"}},{"type":"Feature","geometry":{"type":"Point","coordinates":[0.6038,42.84442]},"properties":{"nom":"CIER-DE-LUCHON - Pratviel","ag":["Réseau interurbain liO Occitanie"],"lt":1,"dept":"31"}},{"type":"Feature","geometry":{"type":"Point","coordinates":[0.63653,43.06236]},"properties":{"nom":"CIER-DE-RIVIÈRE - Comminges","ag":["Réseau interurbain liO Occitanie"],"lt":1,"dept":"31"}},{"type":"Feature","geometry":{"type":"Point","coordinates":[0.63485,43.05534]},"properties":{"nom":"CIER-DE-RIVIÈRE - Las Verdures","ag":["Réseau interurbain liO Occitanie"],"lt":1,"dept":"31"}},{"type":"Feature","geometry":{"type":"Point","coordinates":[0.63943,42.91447]},"properties":{"nom":"CIERP-GAUD - Centre","ag":["Réseau interurbain liO Occitanie"],"lt":1,"dept":"31"}},{"type":"Feature","geometry":{"type":"Point","coordinates":[0.64597,42.91462]},"properties":{"nom":"CIERP-GAUD - Cité Douanes","ag":["Réseau interurbain liO Occitanie"],"lt":1,"dept":"31"}},{"type":"Feature","geometry":{"type":"Point","coordinates":[0.64065,42.92175]},"properties":{"nom":"CIERP-GAUD - Gendarmerie","ag":["Réseau interurbain liO Occitanie"],"lt":1,"dept":"31"}},{"type":"Feature","geometry":{"type":"Point","coordinates":[0.63288,42.89956]},"properties":{"nom":"CIERP-GAUD - Muna","ag":["Réseau interurbain liO Occitanie"],"lt":1,"dept":"31"}},{"type":"Feature","geometry":{"type":"Point","coordinates":[1.53622,43.3092]},"properties":{"nom":"CINTEGABELLE - 4 Chemins","ag":["Réseau interurbain liO Occitanie"],"lt":1,"dept":"31"}},{"type":"Feature","geometry":{"type":"Point","coordinates":[1.50268,43.31899]},"properties":{"nom":"CINTEGABELLE - Guilhem","ag":["Réseau interurbain liO Occitanie"],"lt":1,"dept":"31"}},{"type":"Feature","geometry":{"type":"Point","coordinates":[1.55406,43.30801]},"properties":{"nom":"CINTEGABELLE - Le Port","ag":["Réseau interurbain liO Occitanie"],"lt":1,"dept":"31"}},{"type":"Feature","geometry":{"type":"Point","coordinates":[1.51116,43.31255]},"properties":{"nom":"CINTEGABELLE - Les Baccarets","ag":["Réseau interurbain liO Occitanie"],"lt":1,"dept":"31"}},{"type":"Feature","geometry":{"type":"Point","coordinates":[1.49893,43.32187]},"properties":{"nom":"CINTEGABELLE - Les Plaines","ag":["Réseau interurbain liO Occitanie"],"lt":1,"dept":"31"}},{"type":"Feature","geometry":{"type":"Point","coordinates":[1.49279,43.32743]},"properties":{"nom":"CINTEGABELLE - Les Salvaignous","ag":["Réseau interurbain liO Occitanie"],"lt":1,"dept":"31"}},{"type":"Feature","geometry":{"type":"Point","coordinates":[1.5326,43.31379]},"properties":{"nom":"CINTEGABELLE - Mairie","ag":["Réseau interurbain liO Occitanie"],"lt":1,"dept":"31"}},{"type":"Feature","geometry":{"type":"Point","coordinates":[1.57229,43.29371]},"properties":{"nom":"CINTEGABELLE - Picarrou","ag":["Réseau interurbain liO Occitanie"],"lt":1,"dept":"31"}},{"type":"Feature","geometry":{"type":"Point","coordinates":[1.53286,43.31139]},"properties":{"nom":"CINTEGABELLE - Pont","ag":["Réseau interurbain liO Occitanie"],"lt":1,"dept":"31"}},{"type":"Feature","geometry":{"type":"Point","coordinates":[0.62672,43.09862]},"properties":{"nom":"CLARAC - Clarac","ag":["Réseau interurbain liO Occitanie"],"lt":1,"dept":"31"}},{"type":"Feature","geometry":{"type":"Point","coordinates":[1.41623,43.45664]},"properties":{"nom":"CLERMONT-LE-FORT - La Riverotte","ag":["Réseau interurbain liO Occitanie"],"lt":1,"dept":"31"}},{"type":"Feature","geometry":{"type":"Point","coordinates":[1.33567,43.60555]},"properties":{"nom":"COLOMIERS - Gare SNCF","ag":["Réseau interurbain liO Occitanie"],"lt":1,"dept":"31"}},{"type":"Feature","geometry":{"type":"Point","coordinates":[1.08872,43.20351]},"properties":{"nom":"COULADÈRE - Pont","ag":["Réseau interurbain liO Occitanie"],"lt":1,"dept":"31"}},{"type":"Feature","geometry":{"type":"Point","coordinates":[1.08898,43.20077]},"properties":{"nom":"COULADÈRE - Village","ag":["Réseau interurbain liO Occitanie"],"lt":1,"dept":"31"}},{"type":"Feature","geometry":{"type":"Point","coordinates":[1.42946,43.74912]},"properties":{"nom":"CÉPET - 19-Mars-62","ag":["Réseau interurbain liO Occitanie"],"lt":1,"dept":"31"}},{"type":"Feature","geometry":{"type":"Point","coordinates":[1.42401,43.75041]},"properties":{"nom":"CÉPET - La Corvette","ag":["Réseau interurbain liO Occitanie"],"lt":1,"dept":"31"}},{"type":"Feature","geometry":{"type":"Point","coordinates":[1.43295,43.74815]},"properties":{"nom":"CÉPET - Route de Labastide","ag":["Réseau interurbain liO Occitanie"],"lt":1,"dept":"31"}},{"type":"Feature","geometry":{"type":"Point","coordinates":[1.27502,43.68367]},"properties":{"nom":"DAUX - Babonneau","ag":["Réseau interurbain liO Occitanie"],"lt":1,"dept":"31"}},{"type":"Feature","geometry":{"type":"Point","coordinates":[1.28007,43.67674]},"properties":{"nom":"DAUX - Bourdou","ag":["Réseau interurbain liO Occitanie"],"lt":1,"dept":"31"}},{"type":"Feature","geometry":{"type":"Point","coordinates":[1.26847,43.69321]},"properties":{"nom":"DAUX - Chemin des Châteaux","ag":["Réseau interurbain liO Occitanie"],"lt":1,"dept":"31"}},{"type":"Feature","geometry":{"type":"Point","coordinates":[1.2728,43.68769]},"properties":{"nom":"DAUX - Saint-Roch","ag":["Réseau interurbain liO Occitanie"],"lt":1,"dept":"31"}},{"type":"Feature","geometry":{"type":"Point","coordinates":[1.25873,43.69227]},"properties":{"nom":"DAUX - Stade","ag":["Réseau interurbain liO Occitanie"],"lt":1,"dept":"31"}},{"type":"Feature","geometry":{"type":"Point","coordinates":[1.52805,43.48401]},"properties":{"nom":"DEYME - Amandiers","ag":["Réseau interurbain liO Occitanie"],"lt":1,"dept":"31"}},{"type":"Feature","geometry":{"type":"Point","coordinates":[1.52622,43.4799]},"properties":{"nom":"DEYME - Le Moulin","ag":["Réseau interurbain liO Occitanie"],"lt":1,"dept":"31"}},{"type":"Feature","geometry":{"type":"Point","coordinates":[1.53119,43.48691]},"properties":{"nom":"DEYME - Les Violettes","ag":["Réseau interurbain liO Occitanie"],"lt":1,"dept":"31"}},{"type":"Feature","geometry":{"type":"Point","coordinates":[1.55289,43.47202]},"properties":{"nom":"DONNEVILLE - Mairie","ag":["Réseau interurbain liO Occitanie"],"lt":1,"dept":"31"}},{"type":"Feature","geometry":{"type":"Point","coordinates":[1.6261,43.59951]},"properties":{"nom":"DRÉMIL-LAFAGE - Beaupuy","ag":["Réseau interurbain liO Occitanie"],"lt":1,"dept":"31"}},{"type":"Feature","geometry":{"type":"Point","coordinates":[1.6,43.57898]},"properties":{"nom":"DRÉMIL-LAFAGE - Chênaie","ag":["Réseau interurbain liO Occitanie"],"lt":1,"dept":"31"}},{"type":"Feature","geometry":{"type":"Point","coordinates":[1.60314,43.57737]},"properties":{"nom":"DRÉMIL-LAFAGE - Hameau de Lafage","ag":["Réseau interurbain liO Occitanie"],"lt":1,"dept":"31"}},{"type":"Feature","geometry":{"type":"Point","coordinates":[1.5862,43.5859]},"properties":{"nom":"DRÉMIL-LAFAGE - L'Auriol","ag":["Réseau interurbain liO Occitanie"],"lt":1,"dept":"31"}},{"type":"Feature","geometry":{"type":"Point","coordinates":[1.57944,43.58702]},"properties":{"nom":"DRÉMIL-LAFAGE - Moussard","ag":["Réseau interurbain liO Occitanie"],"lt":1,"dept":"31"}},{"type":"Feature","geometry":{"type":"Point","coordinates":[1.35772,43.4262]},"properties":{"nom":"EAUNES - La Croix Blanche 1","ag":["Réseau interurbain liO Occitanie"],"lt":1,"dept":"31"}},{"type":"Feature","geometry":{"type":"Point","coordinates":[1.36079,43.42415]},"properties":{"nom":"EAUNES - La Croix Blanche 2","ag":["Réseau interurbain liO Occitanie"],"lt":1,"dept":"31"}},{"type":"Feature","geometry":{"type":"Point","coordinates":[1.34973,43.43068]},"properties":{"nom":"EAUNES - La Croix Rouge","ag":["Réseau interurbain liO Occitanie"],"lt":1,"dept":"31"}},{"type":"Feature","geometry":{"type":"Point","coordinates":[1.37882,43.43343]},"properties":{"nom":"EAUNES - La Guinguette","ag":["Réseau interurbain liO Occitanie"],"lt":1,"dept":"31"}},{"type":"Feature","geometry":{"type":"Point","coordinates":[1.37232,43.412]},"properties":{"nom":"EAUNES - La Source","ag":["Réseau interurbain liO Occitanie"],"lt":1,"dept":"31"}},{"type":"Feature","geometry":{"type":"Point","coordinates":[1.37364,43.42073]},"properties":{"nom":"EAUNES - Moulin d'Augé","ag":["Réseau interurbain liO Occitanie"],"lt":1,"dept":"31"}},{"type":"Feature","geometry":{"type":"Point","coordinates":[1.35419,43.42835]},"properties":{"nom":"EAUNES - Plaine du Pitou","ag":["Réseau interurbain liO Occitanie"],"lt":1,"dept":"31"}},{"type":"Feature","geometry":{"type":"Point","coordinates":[1.38451,43.44473]},"properties":{"nom":"EAUNES - Prouzet","ag":["Réseau interurbain liO Occitanie"],"lt":1,"dept":"31"}},{"type":"Feature","geometry":{"type":"Point","coordinates":[1.37858,43.43713]},"properties":{"nom":"EAUNES - Puntis","ag":["Réseau interurbain liO Occitanie"],"lt":1,"dept":"31"}},{"type":"Feature","geometry":{"type":"Point","coordinates":[0.74188,43.04934]},"properties":{"nom":"ENCAUSSE-LES-THERMES - Thermes","ag":["Réseau interurbain liO Occitanie"],"lt":1,"dept":"31"}},{"type":"Feature","geometry":{"type":"Point","coordinates":[0.73289,43.28129]},"properties":{"nom":"ESCANECRABE - Las Bordes","ag":["Réseau interurbain liO Occitanie"],"lt":1,"dept":"31"}},{"type":"Feature","geometry":{"type":"Point","coordinates":[0.76068,43.11743]},"properties":{"nom":"ESTANCARBON - Centre Leclerc","ag":["Réseau interurbain liO Occitanie"],"lt":1,"dept":"31"}},{"type":"Feature","geometry":{"type":"Point","coordinates":[0.64137,42.94694]},"properties":{"nom":"ESTÉNOS - Mairie","ag":["Réseau interurbain liO Occitanie"],"lt":1,"dept":"31"}},{"type":"Feature","geometry":{"type":"Point","coordinates":[0.64518,42.93843]},"properties":{"nom":"ESTÉNOS - Pont de Chaum","ag":["Réseau interurbain liO Occitanie"],"lt":1,"dept":"31"}},{"type":"Feature","geometry":{"type":"Point","coordinates":[0.68371,42.92273]},"properties":{"nom":"EUP - Géry","ag":["Réseau interurbain liO Occitanie"],"lt":1,"dept":"31"}},{"type":"Feature","geometry":{"type":"Point","coordinates":[0.91476,43.0959]},"properties":{"nom":"FIGAROL - Les Mourères","ag":["Réseau interurbain liO Occitanie"],"lt":1,"dept":"31"}},{"type":"Feature","geometry":{"type":"Point","coordinates":[0.89781,43.08455]},"properties":{"nom":"FIGAROL - Église","ag":["Réseau interurbain liO Occitanie"],"lt":1,"dept":"31"}},{"type":"Feature","geometry":{"type":"Point","coordinates":[1.22948,43.53554]},"properties":{"nom":"FONSORBES - 11 Novembre 1918","ag":["Réseau interurbain liO Occitanie"],"lt":1,"dept":"31"}},{"type":"Feature","geometry":{"type":"Point","coordinates":[1.22669,43.53354]},"properties":{"nom":"FONSORBES - Bénech","ag":["Réseau interurbain liO Occitanie"],"lt":1,"dept":"31"}},{"type":"Feature","geometry":{"type":"Point","coordinates":[1.21519,43.52931]},"properties":{"nom":"FONSORBES - Cantegraille","ag":["Réseau interurbain liO Occitanie"],"lt":1,"dept":"31"}},{"type":"Feature","geometry":{"type":"Point","coordinates":[1.23446,43.53907]},"properties":{"nom":"FONSORBES - Cimetière","ag":["Réseau interurbain liO Occitanie"],"lt":1,"dept":"31"}},{"type":"Feature","geometry":{"type":"Point","coordinates":[1.19305,43.55769]},"properties":{"nom":"FONTENILLES - 08-Mai-45","ag":["Réseau interurbain liO Occitanie"],"lt":1,"dept":"31"}},{"type":"Feature","geometry":{"type":"Point","coordinates":[1.19631,43.56552]},"properties":{"nom":"FONTENILLES - Bordeneuve","ag":["Réseau interurbain liO Occitanie"],"lt":1,"dept":"31"}},{"type":"Feature","geometry":{"type":"Point","coordinates":[1.1918,43.55461]},"properties":{"nom":"FONTENILLES - Lascrabères","ag":["Réseau interurbain liO Occitanie"],"lt":1,"dept":"31"}},{"type":"Feature","geometry":{"type":"Point","coordinates":[1.19128,43.55279]},"properties":{"nom":"FONTENILLES - Mairie","ag":["Réseau interurbain liO Occitanie"],"lt":1,"dept":"31"}},{"type":"Feature","geometry":{"type":"Point","coordinates":[0.73647,42.87221]},"properties":{"nom":"FOS - Mairie","ag":["Réseau interurbain liO Occitanie"],"lt":1,"dept":"31"}},{"type":"Feature","geometry":{"type":"Point","coordinates":[1.61197,43.50461]},"properties":{"nom":"FOURQUEVAUX - Bicinis","ag":["Réseau interurbain liO Occitanie"],"lt":1,"dept":"31"}},{"type":"Feature","geometry":{"type":"Point","coordinates":[1.60625,43.50753]},"properties":{"nom":"FOURQUEVAUX - Borde Haute","ag":["Réseau interurbain liO Occitanie"],"lt":1,"dept":"31"}},{"type":"Feature","geometry":{"type":"Point","coordinates":[1.6148,43.50315]},"properties":{"nom":"FOURQUEVAUX - Centre","ag":["Réseau interurbain liO Occitanie"],"lt":1,"dept":"31"}},{"type":"Feature","geometry":{"type":"Point","coordinates":[1.62199,43.4992]},"properties":{"nom":"FOURQUEVAUX - Cimetière Saint-Pierre","ag":["Réseau interurbain liO Occitanie"],"lt":1,"dept":"31"}},{"type":"Feature","geometry":{"type":"Point","coordinates":[1.6424,43.49096]},"properties":{"nom":"FOURQUEVAUX - La Douce","ag":["Réseau interurbain liO Occitanie"],"lt":1,"dept":"31"}},{"type":"Feature","geometry":{"type":"Point","coordinates":[1.63277,43.49473]},"properties":{"nom":"FOURQUEVAUX - Tiffaut","ag":["Réseau interurbain liO Occitanie"],"lt":1,"dept":"31"}},{"type":"Feature","geometry":{"type":"Point","coordinates":[1.75138,43.58166]},"properties":{"nom":"FRANCARVILLE - Le Moulin","ag":["Réseau interurbain liO Occitanie"],"lt":1,"dept":"31"}},{"type":"Feature","geometry":{"type":"Point","coordinates":[0.64858,42.95194]},"properties":{"nom":"FRONSAC - Monument aux Morts","ag":["Réseau interurbain liO Occitanie"],"lt":1,"dept":"31"}},{"type":"Feature","geometry":{"type":"Point","coordinates":[0.66043,42.96508]},"properties":{"nom":"FRONTIGNAN-DE-COMMINGES - Campardon","ag":["Réseau interurbain liO Occitanie"],"lt":1,"dept":"31"}},{"type":"Feature","geometry":{"type":"Point","coordinates":[1.39164,43.83282]},"properties":{"nom":"FRONTON - Gendarmerie","ag":["Réseau interurbain liO Occitanie"],"lt":1,"dept":"31"}},{"type":"Feature","geometry":{"type":"Point","coordinates":[1.39681,43.82299]},"properties":{"nom":"FRONTON - Les 4 Chemins","ag":["Réseau interurbain liO Occitanie"],"lt":1,"dept":"31"}},{"type":"Feature","geometry":{"type":"Point","coordinates":[1.40147,43.83448]},"properties":{"nom":"FRONTON - Lycée","ag":["Réseau interurbain liO Occitanie"],"lt":1,"dept":"31"}},{"type":"Feature","geometry":{"type":"Point","coordinates":[1.38891,43.84017]},"properties":{"nom":"FRONTON - Mairie","ag":["Réseau interurbain liO Occitanie"],"lt":1,"dept":"31"}},{"type":"Feature","geometry":{"type":"Point","coordinates":[1.40218,43.83491]},"properties":{"nom":"FRONTON - Parking Lycée","ag":["Réseau interurbain liO Occitanie"],"lt":1,"dept":"31"}},{"type":"Feature","geometry":{"type":"Point","coordinates":[1.39235,43.83879]},"properties":{"nom":"FRONTON - Poste","ag":["Réseau interurbain liO Occitanie"],"lt":1,"dept":"31"}},{"type":"Feature","geometry":{"type":"Point","coordinates":[1.38869,43.83833]},"properties":{"nom":"FRONTON - St Roch","ag":["Réseau interurbain liO Occitanie"],"lt":1,"dept":"31"}},{"type":"Feature","geometry":{"type":"Point","coordinates":[1.47098,43.25403]},"properties":{"nom":"GAILLAC-TOULZA - Mairie","ag":["Réseau interurbain liO Occitanie"],"lt":1,"dept":"31"}},{"type":"Feature","geometry":{"type":"Point","coordinates":[1.68477,43.39218]},"properties":{"nom":"GARDOUCH - La Vierge","ag":["Réseau interurbain liO Occitanie"],"lt":1,"dept":"31"}},{"type":"Feature","geometry":{"type":"Point","coordinates":[1.67644,43.39932]},"properties":{"nom":"GARDOUCH - Laval","ag":["Réseau interurbain liO Occitanie"],"lt":1,"dept":"31"}},{"type":"Feature","geometry":{"type":"Point","coordinates":[1.68466,43.39063]},"properties":{"nom":"GARDOUCH - Poids Public","ag":["Réseau interurbain liO Occitanie"],"lt":1,"dept":"31"}},{"type":"Feature","geometry":{"type":"Point","coordinates":[1.47038,43.7488]},"properties":{"nom":"GARGAS - Moussiagues","ag":["Réseau interurbain liO Occitanie"],"lt":1,"dept":"31"}},{"type":"Feature","geometry":{"type":"Point","coordinates":[1.4671,43.7563]},"properties":{"nom":"GARGAS - Église","ag":["Réseau interurbain liO Occitanie"],"lt":1,"dept":"31"}},{"type":"Feature","geometry":{"type":"Point","coordinates":[1.56084,43.70366]},"properties":{"nom":"GARIDECH - Cité","ag":["Réseau interurbain liO Occitanie"],"lt":1,"dept":"31"}},{"type":"Feature","geometry":{"type":"Point","coordinates":[1.56084,43.71161]},"properties":{"nom":"GARIDECH - Église","ag":["Réseau interurbain liO Occitanie"],"lt":1,"dept":"31"}},{"type":"Feature","geometry":{"type":"Point","coordinates":[1.64182,43.61034]},"properties":{"nom":"GAURÉ - Mairie","ag":["Réseau interurbain liO Occitanie"],"lt":1,"dept":"31"}},{"type":"Feature","geometry":{"type":"Point","coordinates":[1.63178,43.61375]},"properties":{"nom":"GAURÉ - Village","ag":["Réseau interurbain liO Occitanie"],"lt":1,"dept":"31"}},{"type":"Feature","geometry":{"type":"Point","coordinates":[1.15679,43.23292]},"properties":{"nom":"GENSAC-SUR-GARONNE - Labesse","ag":["Réseau interurbain liO Occitanie"],"lt":1,"dept":"31"}},{"type":"Feature","geometry":{"type":"Point","coordinates":[1.13134,43.2166]},"properties":{"nom":"GENSAC-SUR-GARONNE - Lavoir","ag":["Réseau interurbain liO Occitanie"],"lt":1,"dept":"31"}},{"type":"Feature","geometry":{"type":"Point","coordinates":[1.12021,43.20858]},"properties":{"nom":"GENSAC-SUR-GARONNE - Le Plan d'Eau","ag":["Réseau interurbain liO Occitanie"],"lt":1,"dept":"31"}},{"type":"Feature","geometry":{"type":"Point","coordinates":[1.69063,43.30508]},"properties":{"nom":"GIBEL - Calvaire","ag":["Réseau interurbain liO Occitanie"],"lt":1,"dept":"31"}},{"type":"Feature","geometry":{"type":"Point","coordinates":[0.58569,43.07248]},"properties":{"nom":"GOURDAN-POLIGNAN - Antian","ag":["Réseau interurbain liO Occitanie"],"lt":1,"dept":"31"}},{"type":"Feature","geometry":{"type":"Point","coordinates":[0.59114,43.06033]},"properties":{"nom":"GOURDAN-POLIGNAN - Croix du Bazert","ag":["Réseau interurbain liO Occitanie"],"lt":1,"dept":"31"}},{"type":"Feature","geometry":{"type":"Point","coordinates":[0.57372,43.07813]},"properties":{"nom":"GOURDAN-POLIGNAN - Gare","ag":["Réseau interurbain liO Occitanie"],"lt":1,"dept":"31"}},{"type":"Feature","geometry":{"type":"Point","coordinates":[0.58432,43.07701]},"properties":{"nom":"GOURDAN-POLIGNAN - Lycée","ag":["Réseau interurbain liO Occitanie"],"lt":1,"dept":"31"}},{"type":"Feature","geometry":{"type":"Point","coordinates":[0.57712,43.07765]},"properties":{"nom":"GOURDAN-POLIGNAN - Mairie","ag":["Réseau interurbain liO Occitanie"],"lt":1,"dept":"31"}},{"type":"Feature","geometry":{"type":"Point","coordinates":[0.5747,43.0811]},"properties":{"nom":"GOURDAN-POLIGNAN - Poste","ag":["Réseau interurbain liO Occitanie"],"lt":1,"dept":"31"}},{"type":"Feature","geometry":{"type":"Point","coordinates":[1.57673,43.69723]},"properties":{"nom":"GRAGNAGUE - Lycée","ag":["Réseau interurbain liO Occitanie"],"lt":1,"dept":"31"}},{"type":"Feature","geometry":{"type":"Point","coordinates":[1.5701,43.68806]},"properties":{"nom":"GRAGNAGUE - Poney Club","ag":["Réseau interurbain liO Occitanie"],"lt":1,"dept":"31"}},{"type":"Feature","geometry":{"type":"Point","coordinates":[1.5843,43.68168]},"properties":{"nom":"GRAGNAGUE - Église","ag":["Réseau interurbain liO Occitanie"],"lt":1,"dept":"31"}},{"type":"Feature","geometry":{"type":"Point","coordinates":[1.12268,43.32033]},"properties":{"nom":"GRATENS - Giratoire Rd7","ag":["Réseau interurbain liO Occitanie"],"lt":1,"dept":"31"}},{"type":"Feature","geometry":{"type":"Point","coordinates":[1.12454,43.32214]},"properties":{"nom":"GRATENS - Pilot","ag":["Réseau interurbain liO Occitanie"],"lt":1,"dept":"31"}},{"type":"Feature","geometry":{"type":"Point","coordinates":[1.45531,43.31592]},"properties":{"nom":"GRAZAC - Rabet","ag":["Réseau interurbain liO Occitanie"],"lt":1,"dept":"31"}},{"type":"Feature","geometry":{"type":"Point","coordinates":[1.33365,43.76927]},"properties":{"nom":"GRENADE - Bagnols","ag":["Réseau interurbain liO Occitanie"],"lt":1,"dept":"31"}},{"type":"Feature","geometry":{"type":"Point","coordinates":[1.29058,43.7703]},"properties":{"nom":"GRENADE - Cours Valmy","ag":["Réseau interurbain liO Occitanie"],"lt":1,"dept":"31"}},{"type":"Feature","geometry":{"type":"Point","coordinates":[1.24952,43.74879]},"properties":{"nom":"GRENADE - Engarres","ag":["Réseau interurbain liO Occitanie"],"lt":1,"dept":"31"}},{"type":"Feature","geometry":{"type":"Point","coordinates":[1.29541,43.76932]},"properties":{"nom":"GRENADE - Mairie","ag":["Réseau interurbain liO Occitanie"],"lt":1,"dept":"31"}},{"type":"Feature","geometry":{"type":"Point","coordinates":[1.29772,43.76579]},"properties":{"nom":"GRENADE - Mélican","ag":["Réseau interurbain liO Occitanie"],"lt":1,"dept":"31"}},{"type":"Feature","geometry":{"type":"Point","coordinates":[1.21296,43.75583]},"properties":{"nom":"GRENADE - Picalou","ag":["Réseau interurbain liO Occitanie"],"lt":1,"dept":"31"}},{"type":"Feature","geometry":{"type":"Point","coordinates":[1.30271,43.7556]},"properties":{"nom":"GRENADE - Proxima","ag":["Réseau interurbain liO Occitanie"],"lt":1,"dept":"31"}},{"type":"Feature","geometry":{"type":"Point","coordinates":[1.29667,43.77208]},"properties":{"nom":"GRENADE - Quai de Garonne","ag":["Réseau interurbain liO Occitanie"],"lt":1,"dept":"31"}},{"type":"Feature","geometry":{"type":"Point","coordinates":[1.33185,43.7584]},"properties":{"nom":"GRENADE - Saint-Caprais","ag":["Réseau interurbain liO Occitanie"],"lt":1,"dept":"31"}},{"type":"Feature","geometry":{"type":"Point","coordinates":[1.30026,43.76047]},"properties":{"nom":"GRENADE - Saint-Sulpice","ag":["Réseau interurbain liO Occitanie"],"lt":1,"dept":"31"}},{"type":"Feature","geometry":{"type":"Point","coordinates":[1.44999,43.401]},"properties":{"nom":"GRÉPIAC - Baget","ag":["Réseau interurbain liO Occitanie"],"lt":1,"dept":"31"}},{"type":"Feature","geometry":{"type":"Point","coordinates":[1.45719,43.39072]},"properties":{"nom":"GRÉPIAC - Gaillard-Tournié","ag":["Réseau interurbain liO Occitanie"],"lt":1,"dept":"31"}},{"type":"Feature","geometry":{"type":"Point","coordinates":[1.45436,43.39456]},"properties":{"nom":"GRÉPIAC - Mazérat","ag":["Réseau interurbain liO Occitanie"],"lt":1,"dept":"31"}},{"type":"Feature","geometry":{"type":"Point","coordinates":[1.44869,43.40419]},"properties":{"nom":"GRÉPIAC - Poste","ag":["Réseau interurbain liO Occitanie"],"lt":1,"dept":"31"}},{"type":"Feature","geometry":{"type":"Point","coordinates":[0.61664,42.88478]},"properties":{"nom":"GURAN - Artigueplan","ag":["Réseau interurbain liO Occitanie"],"lt":1,"dept":"31"}},{"type":"Feature","geometry":{"type":"Point","coordinates":[1.59111,43.73514]},"properties":{"nom":"GÉMIL - Mairie","ag":["Réseau interurbain liO Occitanie"],"lt":1,"dept":"31"}},{"type":"Feature","geometry":{"type":"Point","coordinates":[0.67278,42.99964]},"properties":{"nom":"GÉNOS - Mairie","ag":["Réseau interurbain liO Occitanie"],"lt":1,"dept":"31"}},{"type":"Feature","geometry":{"type":"Point","coordinates":[0.96976,43.06524]},"properties":{"nom":"HIS - Village","ag":["Réseau interurbain liO Occitanie"],"lt":1,"dept":"31"}},{"type":"Feature","geometry":{"type":"Point","coordinates":[0.75369,43.01563]},"properties":{"nom":"IZAUT-DE-L'HÔTEL - Église","ag":["Réseau interurbain liO Occitanie"],"lt":1,"dept":"31"}},{"type":"Feature","geometry":{"type":"Point","coordinates":[0.75989,42.97832]},"properties":{"nom":"JUZET-D'IZAUT - Église","ag":["Réseau interurbain liO Occitanie"],"lt":1,"dept":"31"}},{"type":"Feature","geometry":{"type":"Point","coordinates":[0.83719,43.38911]},"properties":{"nom":"L'ISLE-EN-DODON - La Bourdette","ag":["Réseau interurbain liO Occitanie"],"lt":1,"dept":"31"}},{"type":"Feature","geometry":{"type":"Point","coordinates":[0.83725,43.38162]},"properties":{"nom":"L'ISLE-EN-DODON - Mairie","ag":["Réseau interurbain liO Occitanie"],"lt":1,"dept":"31"}},{"type":"Feature","geometry":{"type":"Point","coordinates":[0.83359,43.38099]},"properties":{"nom":"L'ISLE-EN-DODON - Pyrénées","ag":["Réseau interurbain liO Occitanie"],"lt":1,"dept":"31"}},{"type":"Feature","geometry":{"type":"Point","coordinates":[0.83529,43.38626]},"properties":{"nom":"L'ISLE-EN-DODON - Ramounat","ag":["Réseau interurbain liO Occitanie"],"lt":1,"dept":"31"}},{"type":"Feature","geometry":{"type":"Point","coordinates":[1.48884,43.65992]},"properties":{"nom":"L'UNION - Belle Hôtesse","ag":["Réseau interurbain liO Occitanie"],"lt":1,"dept":"31"}},{"type":"Feature","geometry":{"type":"Point","coordinates":[1.50525,43.64312]},"properties":{"nom":"L'UNION - Brunel","ag":["Réseau interurbain liO Occitanie"],"lt":1,"dept":"31"}},{"type":"Feature","geometry":{"type":"Point","coordinates":[1.47967,43.6568]},"properties":{"nom":"L'UNION - Centre Commercial","ag":["Réseau interurbain liO Occitanie"],"lt":1,"dept":"31"}},{"type":"Feature","geometry":{"type":"Point","coordinates":[1.48431,43.65845]},"properties":{"nom":"L'UNION - Grive","ag":["Réseau interurbain liO Occitanie"],"lt":1,"dept":"31"}},{"type":"Feature","geometry":{"type":"Point","coordinates":[1.49182,43.66092]},"properties":{"nom":"L'UNION - Mirabelles","ag":["Réseau interurbain liO Occitanie"],"lt":1,"dept":"31"}},{"type":"Feature","geometry":{"type":"Point","coordinates":[1.54595,43.80603]},"properties":{"nom":"LA MAGDELAINE-SUR-TARN - La Rouyasse","ag":["Réseau interurbain liO Occitanie"],"lt":1,"dept":"31"}},{"type":"Feature","geometry":{"type":"Point","coordinates":[1.53828,43.81541]},"properties":{"nom":"LA MAGDELAINE-SUR-TARN - Les 5 Chemins","ag":["Réseau interurbain liO Occitanie"],"lt":1,"dept":"31"}},{"type":"Feature","geometry":{"type":"Point","coordinates":[1.54416,43.8116]},"properties":{"nom":"LA MAGDELAINE-SUR-TARN - Mairie","ag":["Réseau interurbain liO Occitanie"],"lt":1,"dept":"31"}},{"type":"Feature","geometry":{"type":"Point","coordinates":[0.83452,43.11303]},"properties":{"nom":"LABARTHE-INARD - Gaudines","ag":["Réseau interurbain liO Occitanie"],"lt":1,"dept":"31"}},{"type":"Feature","geometry":{"type":"Point","coordinates":[0.8345,43.11297]},"properties":{"nom":"LABARTHE-INARD - Gaudines","ag":["Réseau interurbain liO Occitanie"],"lt":1,"dept":"31"}},{"type":"Feature","geometry":{"type":"Point","coordinates":[0.67055,43.08091]},"properties":{"nom":"LABARTHE-RIVIÈRE - Centre","ag":["Réseau interurbain liO Occitanie"],"lt":1,"dept":"31"}},{"type":"Feature","geometry":{"type":"Point","coordinates":[0.67187,43.08096]},"properties":{"nom":"LABARTHE-RIVIÈRE - Pl.Massenet","ag":["Réseau interurbain liO Occitanie"],"lt":1,"dept":"31"}},{"type":"Feature","geometry":{"type":"Point","coordinates":[0.68102,43.08384]},"properties":{"nom":"LABARTHE-RIVIÈRE - Souc","ag":["Réseau interurbain liO Occitanie"],"lt":1,"dept":"31"}},{"type":"Feature","geometry":{"type":"Point","coordinates":[1.39716,43.46123]},"properties":{"nom":"LABARTHE-SUR-LÈZE - Cailhabat","ag":["Réseau interurbain liO Occitanie"],"lt":1,"dept":"31"}},{"type":"Feature","geometry":{"type":"Point","coordinates":[1.3975,43.46391]},"properties":{"nom":"LABARTHE-SUR-LÈZE - Collège","ag":["Réseau interurbain liO Occitanie"],"lt":1,"dept":"31"}},{"type":"Feature","geometry":{"type":"Point","coordinates":[1.39786,43.46807]},"properties":{"nom":"LABARTHE-SUR-LÈZE - La Ruque","ag":["Réseau interurbain liO Occitanie"],"lt":1,"dept":"31"}},{"type":"Feature","geometry":{"type":"Point","coordinates":[1.39449,43.45414]},"properties":{"nom":"LABARTHE-SUR-LÈZE - Le Canton","ag":["Réseau interurbain liO Occitanie"],"lt":1,"dept":"31"}},{"type":"Feature","geometry":{"type":"Point","coordinates":[1.39582,43.45695]},"properties":{"nom":"LABARTHE-SUR-LÈZE - Ponchou","ag":["Réseau interurbain liO Occitanie"],"lt":1,"dept":"31"}},{"type":"Feature","geometry":{"type":"Point","coordinates":[1.65983,43.48434]},"properties":{"nom":"LABASTIDE-BEAUVOIR - Le Pas du Merle","ag":["Réseau interurbain liO Occitanie"],"lt":1,"dept":"31"}},{"type":"Feature","geometry":{"type":"Point","coordinates":[1.6661,43.48207]},"properties":{"nom":"LABASTIDE-BEAUVOIR - Mairie","ag":["Réseau interurbain liO Occitanie"],"lt":1,"dept":"31"}},{"type":"Feature","geometry":{"type":"Point","coordinates":[1.66333,43.48308]},"properties":{"nom":"LABASTIDE-BEAUVOIR - Oiseaux","ag":["Réseau interurbain liO Occitanie"],"lt":1,"dept":"31"}},{"type":"Feature","geometry":{"type":"Point","coordinates":[1.08793,43.35565]},"properties":{"nom":"LABASTIDE-CLERMONT - Bidot","ag":["Réseau interurbain liO Occitanie"],"lt":1,"dept":"31"}},{"type":"Feature","geometry":{"type":"Point","coordinates":[1.11679,43.36181]},"properties":{"nom":"LABASTIDE-CLERMONT - Le Moulin","ag":["Réseau interurbain liO Occitanie"],"lt":1,"dept":"31"}},{"type":"Feature","geometry":{"type":"Point","coordinates":[1.12201,43.34895]},"properties":{"nom":"LABASTIDE-CLERMONT - Église","ag":["Réseau interurbain liO Occitanie"],"lt":1,"dept":"31"}},{"type":"Feature","geometry":{"type":"Point","coordinates":[1.47657,43.73485]},"properties":{"nom":"LABASTIDE-SAINT-SERNIN - Cité","ag":["Réseau interurbain liO Occitanie"],"lt":1,"dept":"31"}},{"type":"Feature","geometry":{"type":"Point","coordinates":[1.46841,43.73678]},"properties":{"nom":"LABASTIDE-SAINT-SERNIN - L'Enclos","ag":["Réseau interurbain liO Occitanie"],"lt":1,"dept":"31"}},{"type":"Feature","geometry":{"type":"Point","coordinates":[1.47614,43.73706]},"properties":{"nom":"LABASTIDE-SAINT-SERNIN - Le Not","ag":["Réseau interurbain liO Occitanie"],"lt":1,"dept":"31"}},{"type":"Feature","geometry":{"type":"Point","coordinates":[1.45865,43.73481]},"properties":{"nom":"LABASTIDE-SAINT-SERNIN - Maurel","ag":["Réseau interurbain liO Occitanie"],"lt":1,"dept":"31"}},{"type":"Feature","geometry":{"type":"Point","coordinates":[1.46929,43.74108]},"properties":{"nom":"LABASTIDE-SAINT-SERNIN - Route de Gargas","ag":["Réseau interurbain liO Occitanie"],"lt":1,"dept":"31"}},{"type":"Feature","geometry":{"type":"Point","coordinates":[1.47129,43.7393]},"properties":{"nom":"LABASTIDE-SAINT-SERNIN - Église","ag":["Réseau interurbain liO Occitanie"],"lt":1,"dept":"31"}},{"type":"Feature","geometry":{"type":"Point","coordinates":[1.24725,43.46263]},"properties":{"nom":"LABASTIDETTE - Banque","ag":["Réseau interurbain liO Occitanie"],"lt":1,"dept":"31"}},{"type":"Feature","geometry":{"type":"Point","coordinates":[1.25045,43.46632]},"properties":{"nom":"LABASTIDETTE - La Carrère","ag":["Réseau interurbain liO Occitanie"],"lt":1,"dept":"31"}},{"type":"Feature","geometry":{"type":"Point","coordinates":[1.24532,43.4604]},"properties":{"nom":"LABASTIDETTE - Mairie","ag":["Réseau interurbain liO Occitanie"],"lt":1,"dept":"31"}},{"type":"Feature","geometry":{"type":"Point","coordinates":[1.24129,43.45513]},"properties":{"nom":"LABASTIDETTE - Marcus","ag":["Réseau interurbain liO Occitanie"],"lt":1,"dept":"31"}},{"type":"Feature","geometry":{"type":"Point","coordinates":[0.5933,43.03589]},"properties":{"nom":"LABROQUÈRE - Moulin","ag":["Réseau interurbain liO Occitanie"],"lt":1,"dept":"31"}},{"type":"Feature","geometry":{"type":"Point","coordinates":[0.59243,43.04172]},"properties":{"nom":"LABROQUÈRE - Poste","ag":["Réseau interurbain liO Occitanie"],"lt":1,"dept":"31"}},{"type":"Feature","geometry":{"type":"Point","coordinates":[0.59272,43.0384]},"properties":{"nom":"LABROQUÈRE - Église","ag":["Réseau interurbain liO Occitanie"],"lt":1,"dept":"31"}},{"type":"Feature","geometry":{"type":"Point","coordinates":[1.16327,43.29964]},"properties":{"nom":"LAFITTE-VIGORDANE - Mairie","ag":["Réseau interurbain liO Occitanie"],"lt":1,"dept":"31"}},{"type":"Feature","geometry":{"type":"Point","coordinates":[1.16662,43.3013]},"properties":{"nom":"LAFITTE-VIGORDANE - Notre Dame","ag":["Réseau interurbain liO Occitanie"],"lt":1,"dept":"31"}},{"type":"Feature","geometry":{"type":"Point","coordinates":[1.71367,43.3451]},"properties":{"nom":"LAGARDE - Village","ag":["Réseau interurbain liO Occitanie"],"lt":1,"dept":"31"}},{"type":"Feature","geometry":{"type":"Point","coordinates":[1.39457,43.40397]},"properties":{"nom":"LAGARDELLE-SUR-LÈZE - Balsa","ag":["Réseau interurbain liO Occitanie"],"lt":1,"dept":"31"}},{"type":"Feature","geometry":{"type":"Point","coordinates":[1.39128,43.40943]},"properties":{"nom":"LAGARDELLE-SUR-LÈZE - Cimetière","ag":["Réseau interurbain liO Occitanie"],"lt":1,"dept":"31"}},{"type":"Feature","geometry":{"type":"Point","coordinates":[1.3749,43.42076]},"properties":{"nom":"LAGARDELLE-SUR-LÈZE - Moulin d'Augé","ag":["Réseau interurbain liO Occitanie"],"lt":1,"dept":"31"}},{"type":"Feature","geometry":{"type":"Point","coordinates":[1.38852,43.41303]},"properties":{"nom":"LAGARDELLE-SUR-LÈZE - Ravelins","ag":["Réseau interurbain liO Occitanie"],"lt":1,"dept":"31"}},{"type":"Feature","geometry":{"type":"Point","coordinates":[1.43014,43.34511]},"properties":{"nom":"LAGRÂCE-DIEU - Berny","ag":["Réseau interurbain liO Occitanie"],"lt":1,"dept":"31"}},{"type":"Feature","geometry":{"type":"Point","coordinates":[1.24578,43.49266]},"properties":{"nom":"LAMASQUÈRE - Fougarouse","ag":["Réseau interurbain liO Occitanie"],"lt":1,"dept":"31"}},{"type":"Feature","geometry":{"type":"Point","coordinates":[1.24661,43.4888]},"properties":{"nom":"LAMASQUÈRE - Le Petit Pierre","ag":["Réseau interurbain liO Occitanie"],"lt":1,"dept":"31"}},{"type":"Feature","geometry":{"type":"Point","coordinates":[1.25944,43.47735]},"properties":{"nom":"LAMASQUÈRE - Moundas","ag":["Réseau interurbain liO Occitanie"],"lt":1,"dept":"31"}},{"type":"Feature","geometry":{"type":"Point","coordinates":[1.24398,43.48329]},"properties":{"nom":"LAMASQUÈRE - Rue de la Paix","ag":["Réseau interurbain liO Occitanie"],"lt":1,"dept":"31"}},{"type":"Feature","geometry":{"type":"Point","coordinates":[1.24326,43.48415]},"properties":{"nom":"LAMASQUÈRE - Écoles","ag":["Réseau interurbain liO Occitanie"],"lt":1,"dept":"31"}},{"type":"Feature","geometry":{"type":"Point","coordinates":[0.78162,43.13219]},"properties":{"nom":"LANDORTHE - École","ag":["Réseau interurbain liO Occitanie"],"lt":1,"dept":"31"}},{"type":"Feature","geometry":{"type":"Point","coordinates":[0.78192,43.13216]},"properties":{"nom":"LANDORTHE - Écoles","ag":["Réseau interurbain liO Occitanie"],"lt":1,"dept":"31"}},{"type":"Feature","geometry":{"type":"Point","coordinates":[1.6552,43.56132]},"properties":{"nom":"LANTA - Centre Commercial","ag":["Réseau interurbain liO Occitanie"],"lt":1,"dept":"31"}},{"type":"Feature","geometry":{"type":"Point","coordinates":[1.66006,43.56121]},"properties":{"nom":"LANTA - La Couronne","ag":["Réseau interurbain liO Occitanie"],"lt":1,"dept":"31"}},{"type":"Feature","geometry":{"type":"Point","coordinates":[1.67348,43.55546]},"properties":{"nom":"LANTA - Les Avignous","ag":["Réseau interurbain liO Occitanie"],"lt":1,"dept":"31"}},{"type":"Feature","geometry":{"type":"Point","coordinates":[1.64691,43.56276]},"properties":{"nom":"LANTA - Les Perrots","ag":["Réseau interurbain liO Occitanie"],"lt":1,"dept":"31"}},{"type":"Feature","geometry":{"type":"Point","coordinates":[1.21958,43.75732]},"properties":{"nom":"LARRA - Bragnères","ag":["Réseau interurbain liO Occitanie"],"lt":1,"dept":"31"}},{"type":"Feature","geometry":{"type":"Point","coordinates":[1.22017,43.74778]},"properties":{"nom":"LARRA - Cantegril","ag":["Réseau interurbain liO Occitanie"],"lt":1,"dept":"31"}},{"type":"Feature","geometry":{"type":"Point","coordinates":[1.23271,43.73978]},"properties":{"nom":"LARRA - La Plaine","ag":["Réseau interurbain liO Occitanie"],"lt":1,"dept":"31"}},{"type":"Feature","geometry":{"type":"Point","coordinates":[1.23133,43.73868]},"properties":{"nom":"LARRA - École","ag":["Réseau interurbain liO Occitanie"],"lt":1,"dept":"31"}},{"type":"Feature","geometry":{"type":"Point","coordinates":[1.16623,43.63992]},"properties":{"nom":"LASSERRE-PRADÈRE - Écoles","ag":["Réseau interurbain liO Occitanie"],"lt":1,"dept":"31"}},{"type":"Feature","geometry":{"type":"Point","coordinates":[0.78754,43.16806]},"properties":{"nom":"LATOUE - Stade","ag":["Réseau interurbain liO Occitanie"],"lt":1,"dept":"31"}},{"type":"Feature","geometry":{"type":"Point","coordinates":[1.14099,43.75733]},"properties":{"nom":"LAUNAC - Galembrun","ag":["Réseau interurbain liO Occitanie"],"lt":1,"dept":"31"}},{"type":"Feature","geometry":{"type":"Point","coordinates":[1.18108,43.74334]},"properties":{"nom":"LAUNAC - La Halle","ag":["Réseau interurbain liO Occitanie"],"lt":1,"dept":"31"}},{"type":"Feature","geometry":{"type":"Point","coordinates":[1.44539,43.67071]},"properties":{"nom":"LAUNAGUET - Nobles","ag":["Réseau interurbain liO Occitanie"],"lt":1,"dept":"31"}},{"type":"Feature","geometry":{"type":"Point","coordinates":[1.57187,43.64751]},"properties":{"nom":"LAVALETTE - Clinique","ag":["Réseau interurbain liO Occitanie"],"lt":1,"dept":"31"}},{"type":"Feature","geometry":{"type":"Point","coordinates":[1.5975,43.64655]},"properties":{"nom":"LAVALETTE - Grousset","ag":["Réseau interurbain liO Occitanie"],"lt":1,"dept":"31"}},{"type":"Feature","geometry":{"type":"Point","coordinates":[1.60409,43.64479]},"properties":{"nom":"LAVALETTE - Lamothe","ag":["Réseau interurbain liO Occitanie"],"lt":1,"dept":"31"}},{"type":"Feature","geometry":{"type":"Point","coordinates":[1.59148,43.61522]},"properties":{"nom":"LAVALETTE - Les Laques","ag":["Réseau interurbain liO Occitanie"],"lt":1,"dept":"31"}},{"type":"Feature","geometry":{"type":"Point","coordinates":[1.58646,43.6475]},"properties":{"nom":"LAVALETTE - St Jean","ag":["Réseau interurbain liO Occitanie"],"lt":1,"dept":"31"}},{"type":"Feature","geometry":{"type":"Point","coordinates":[1.11879,43.25572]},"properties":{"nom":"LAVELANET-DE-COMMINGES - Centre Église","ag":["Réseau interurbain liO Occitanie"],"lt":1,"dept":"31"}},{"type":"Feature","geometry":{"type":"Point","coordinates":[1.12453,43.25295]},"properties":{"nom":"LAVELANET-DE-COMMINGES - Château d'Eau","ag":["Réseau interurbain liO Occitanie"],"lt":1,"dept":"31"}},{"type":"Feature","geometry":{"type":"Point","coordinates":[1.13529,43.2493]},"properties":{"nom":"LAVELANET-DE-COMMINGES - Douat","ag":["Réseau interurbain liO Occitanie"],"lt":1,"dept":"31"}},{"type":"Feature","geometry":{"type":"Point","coordinates":[1.1167,43.25661]},"properties":{"nom":"LAVELANET-DE-COMMINGES - Tachoire","ag":["Réseau interurbain liO Occitanie"],"lt":1,"dept":"31"}},{"type":"Feature","geometry":{"type":"Point","coordinates":[1.55588,43.83416]},"properties":{"nom":"LAYRAC-SUR-TARN - Mairie","ag":["Réseau interurbain liO Occitanie"],"lt":1,"dept":"31"}},{"type":"Feature","geometry":{"type":"Point","coordinates":[1.55511,43.83431]},"properties":{"nom":"LAYRAC-SUR-TARN - Écoles","ag":["Réseau interurbain liO Occitanie"],"lt":1,"dept":"31"}},{"type":"Feature","geometry":{"type":"Point","coordinates":[1.55499,43.83431]},"properties":{"nom":"LAYRAC-SUR-TARN - Écoles","ag":["Réseau interurbain liO Occitanie"],"lt":1,"dept":"31"}},{"type":"Feature","geometry":{"type":"Point","coordinates":[1.16227,43.79455]},"properties":{"nom":"LE BURGAUD - Halle","ag":["Réseau interurbain liO Occitanie"],"lt":1,"dept":"31"}},{"type":"Feature","geometry":{"type":"Point","coordinates":[1.87076,43.50499]},"properties":{"nom":"LE CABANIAL - Chople","ag":["Réseau interurbain liO Occitanie"],"lt":1,"dept":"31"}},{"type":"Feature","geometry":{"type":"Point","coordinates":[1.85842,43.51426]},"properties":{"nom":"LE CABANIAL - La Bartelle","ag":["Réseau interurbain liO Occitanie"],"lt":1,"dept":"31"}},{"type":"Feature","geometry":{"type":"Point","coordinates":[1.86534,43.5084]},"properties":{"nom":"LE CABANIAL - Les Barthes\\Gare","ag":["Réseau interurbain liO Occitanie"],"lt":1,"dept":"31"}},{"type":"Feature","geometry":{"type":"Point","coordinates":[1.80127,43.58091]},"properties":{"nom":"LE FAGET - Maynadel","ag":["Réseau interurbain liO Occitanie"],"lt":1,"dept":"31"}},{"type":"Feature","geometry":{"type":"Point","coordinates":[1.82467,43.56756]},"properties":{"nom":"LE FAGET - Église","ag":["Réseau interurbain liO Occitanie"],"lt":1,"dept":"31"}},{"type":"Feature","geometry":{"type":"Point","coordinates":[1.29117,43.3978]},"properties":{"nom":"LE FAUGA - Luxembourg","ag":["Réseau interurbain liO Occitanie"],"lt":1,"dept":"31"}},{"type":"Feature","geometry":{"type":"Point","coordinates":[1.06934,43.27314]},"properties":{"nom":"LE FOUSSERET - Benque","ag":["Réseau interurbain liO Occitanie"],"lt":1,"dept":"31"}},{"type":"Feature","geometry":{"type":"Point","coordinates":[1.06674,43.28368]},"properties":{"nom":"LE FOUSSERET - Place du Paty","ag":["Réseau interurbain liO Occitanie"],"lt":1,"dept":"31"}},{"type":"Feature","geometry":{"type":"Point","coordinates":[1.10078,43.72195]},"properties":{"nom":"LE GRÈS - Boulodrome","ag":["Réseau interurbain liO Occitanie"],"lt":1,"dept":"31"}},{"type":"Feature","geometry":{"type":"Point","coordinates":[0.75942,43.06745]},"properties":{"nom":"LESPITEAU - Centre","ag":["Réseau interurbain liO Occitanie"],"lt":1,"dept":"31"}},{"type":"Feature","geometry":{"type":"Point","coordinates":[0.75842,43.06865]},"properties":{"nom":"LESPITEAU - Village","ag":["Réseau interurbain liO Occitanie"],"lt":1,"dept":"31"}},{"type":"Feature","geometry":{"type":"Point","coordinates":[0.91508,43.12285]},"properties":{"nom":"LESTELLE-DE-SAINT-MARTORY - Place","ag":["Réseau interurbain liO Occitanie"],"lt":1,"dept":"31"}},{"type":"Feature","geometry":{"type":"Point","coordinates":[0.91092,43.12156]},"properties":{"nom":"LESTELLE-DE-SAINT-MARTORY - Village","ag":["Réseau interurbain liO Occitanie"],"lt":1,"dept":"31"}},{"type":"Feature","geometry":{"type":"Point","coordinates":[1.22455,43.43474]},"properties":{"nom":"LHERM - Camin","ag":["Réseau interurbain liO Occitanie"],"lt":1,"dept":"31"}},{"type":"Feature","geometry":{"type":"Point","coordinates":[1.221,43.4298]},"properties":{"nom":"LHERM - Cimetière","ag":["Réseau interurbain liO Occitanie"],"lt":1,"dept":"31"}},{"type":"Feature","geometry":{"type":"Point","coordinates":[1.23106,43.4322]},"properties":{"nom":"LHERM - L'Orangerie","ag":["Réseau interurbain liO Occitanie"],"lt":1,"dept":"31"}},{"type":"Feature","geometry":{"type":"Point","coordinates":[1.22284,43.42996]},"properties":{"nom":"LHERM - Place de l'Église","ag":["Réseau interurbain liO Occitanie"],"lt":1,"dept":"31"}},{"type":"Feature","geometry":{"type":"Point","coordinates":[1.21305,43.42364]},"properties":{"nom":"LHERM - Puymulens","ag":["Réseau interurbain liO Occitanie"],"lt":1,"dept":"31"}},{"type":"Feature","geometry":{"type":"Point","coordinates":[0.77071,43.15227]},"properties":{"nom":"LIEOUX - Lieoux","ag":["Réseau interurbain liO Occitanie"],"lt":1,"dept":"31"}},{"type":"Feature","geometry":{"type":"Point","coordinates":[0.67609,43.16955]},"properties":{"nom":"LODES - Village","ag":["Réseau interurbain liO Occitanie"],"lt":1,"dept":"31"}},{"type":"Feature","geometry":{"type":"Point","coordinates":[1.23664,43.35349]},"properties":{"nom":"LONGAGES - Garros","ag":["Réseau interurbain liO Occitanie"],"lt":1,"dept":"31"}},{"type":"Feature","geometry":{"type":"Point","coordinates":[1.23568,43.35573]},"properties":{"nom":"LONGAGES - Mairie","ag":["Réseau interurbain liO Occitanie"],"lt":1,"dept":"31"}},{"type":"Feature","geometry":{"type":"Point","coordinates":[1.20624,43.34143]},"properties":{"nom":"LONGAGES - Pas-Bastere","ag":["Réseau interurbain liO Occitanie"],"lt":1,"dept":"31"}},{"type":"Feature","geometry":{"type":"Point","coordinates":[1.77652,43.58128]},"properties":{"nom":"LOUBENS-LAURAGAIS - En Pinel","ag":["Réseau interurbain liO Occitanie"],"lt":1,"dept":"31"}},{"type":"Feature","geometry":{"type":"Point","coordinates":[0.62161,43.01544]},"properties":{"nom":"LUSCAN - Village","ag":["Réseau interurbain liO Occitanie"],"lt":1,"dept":"31"}},{"type":"Feature","geometry":{"type":"Point","coordinates":[0.61321,42.87559]},"properties":{"nom":"LÈGE - Le Pont de Lège","ag":["Réseau interurbain liO Occitanie"],"lt":1,"dept":"31"}},{"type":"Feature","geometry":{"type":"Point","coordinates":[1.22809,43.59061]},"properties":{"nom":"LÉGUEVIN - Astarac","ag":["Réseau interurbain liO Occitanie"],"lt":1,"dept":"31"}},{"type":"Feature","geometry":{"type":"Point","coordinates":[1.23422,43.5994]},"properties":{"nom":"LÉGUEVIN - Avenue des Pyrénées","ag":["Réseau interurbain liO Occitanie"],"lt":1,"dept":"31"}},