{"type":"FeatureCollection","features":[{"type":"Feature","geometry":{"type":"Point","coordinates":[2.02254,47.00705]},"properties":{"nom":"Mairie","ag":["Réseau urbain TIG","Agrégat des réseaux urbains et interurbains du Centre-Val-de-Loire"],"lt":1,"dept":"36"}},{"type":"Feature","geometry":{"type":"Point","coordinates":[1.97806,46.95306]},"properties":{"nom":"Chinault","ag":["Réseau urbain TIG","Agrégat des réseaux urbains et interurbains du Centre-Val-de-Loire"],"lt":1,"dept":"36"}},{"type":"Feature","geometry":{"type":"Point","coordinates":[2.06776,47.02439]},"properties":{"nom":"Mairie","ag":["Réseau urbain TIG","Agrégat des réseaux urbains et interurbains du Centre-Val-de-Loire"],"lt":1,"dept":"36"}},{"type":"Feature","geometry":{"type":"Point","coordinates":[2.08204,46.86993]},"properties":{"nom":"RD 16","ag":["Réseau urbain TIG","Agrégat des réseaux urbains et interurbains du Centre-Val-de-Loire"],"lt":1,"dept":"36"}},{"type":"Feature","geometry":{"type":"Point","coordinates":[2.01214,46.99825]},"properties":{"nom":"Route d'Issoudun 2","ag":["Réseau urbain TIG","Agrégat des réseaux urbains et interurbains du Centre-Val-de-Loire"],"lt":1,"dept":"36"}},{"type":"Feature","geometry":{"type":"Point","coordinates":[1.99056,46.94972]},"properties":{"nom":"Centre Ville","ag":["Réseau urbain TIG","Agrégat des réseaux urbains et interurbains du Centre-Val-de-Loire"],"lt":1,"dept":"36"}},{"type":"Feature","geometry":{"type":"Point","coordinates":[1.98028,46.95139]},"properties":{"nom":"Citrouille","ag":["Réseau urbain TIG","Agrégat des réseaux urbains et interurbains du Centre-Val-de-Loire"],"lt":1,"dept":"36"}},{"type":"Feature","geometry":{"type":"Point","coordinates":[1.98834,46.95972]},"properties":{"nom":"Saint-Denis","ag":["Réseau urbain TIG","Agrégat des réseaux urbains et interurbains du Centre-Val-de-Loire"],"lt":1,"dept":"36"}},{"type":"Feature","geometry":{"type":"Point","coordinates":[2.06421,46.89088]},"properties":{"nom":"Place de la Mairie","ag":["Réseau urbain TIG","Agrégat des réseaux urbains et interurbains du Centre-Val-de-Loire"],"lt":1,"dept":"36"}},{"type":"Feature","geometry":{"type":"Point","coordinates":[2.0828,46.891]},"properties":{"nom":"Abribus","ag":["Réseau urbain TIG","Agrégat des réseaux urbains et interurbains du Centre-Val-de-Loire"],"lt":1,"dept":"36"}},{"type":"Feature","geometry":{"type":"Point","coordinates":[1.98639,46.94111]},"properties":{"nom":"Auteroche","ag":["Réseau urbain TIG","Agrégat des réseaux urbains et interurbains du Centre-Val-de-Loire"],"lt":1,"dept":"36"}},{"type":"Feature","geometry":{"type":"Point","coordinates":[1.99667,46.94417]},"properties":{"nom":"Villatte","ag":["Réseau urbain TIG","Agrégat des réseaux urbains et interurbains du Centre-Val-de-Loire"],"lt":1,"dept":"36"}},{"type":"Feature","geometry":{"type":"Point","coordinates":[1.98584,46.94834]},"properties":{"nom":"Issoudun Gare SNCF","ag":["Réseau urbain TIG","Agrégat des réseaux urbains et interurbains du Centre-Val-de-Loire"],"lt":1,"dept":"36"}},{"type":"Feature","geometry":{"type":"Point","coordinates":[1.99889,46.93917]},"properties":{"nom":"Rose","ag":["Réseau urbain TIG","Agrégat des réseaux urbains et interurbains du Centre-Val-de-Loire"],"lt":1,"dept":"36"}},{"type":"Feature","geometry":{"type":"Point","coordinates":[1.99723,46.94806]},"properties":{"nom":"Croix de Pierre","ag":["Réseau urbain TIG","Agrégat des réseaux urbains et interurbains du Centre-Val-de-Loire"],"lt":1,"dept":"36"}},{"type":"Feature","geometry":{"type":"Point","coordinates":[1.98278,46.95695]},"properties":{"nom":"Varennes","ag":["Réseau urbain TIG","Agrégat des réseaux urbains et interurbains du Centre-Val-de-Loire"],"lt":1,"dept":"36"}},{"type":"Feature","geometry":{"type":"Point","coordinates":[2.00334,46.93861]},"properties":{"nom":"Lilas","ag":["Réseau urbain TIG","Agrégat des réseaux urbains et interurbains du Centre-Val-de-Loire"],"lt":1,"dept":"36"}},{"type":"Feature","geometry":{"type":"Point","coordinates":[2.00139,46.94361]},"properties":{"nom":"Charles de Gaulle","ag":["Réseau urbain TIG","Agrégat des réseaux urbains et interurbains du Centre-Val-de-Loire"],"lt":1,"dept":"36"}},{"type":"Feature","geometry":{"type":"Point","coordinates":[2.00556,46.94389]},"properties":{"nom":"Père Noir","ag":["Réseau urbain TIG","Agrégat des réseaux urbains et interurbains du Centre-Val-de-Loire"],"lt":1,"dept":"36"}},{"type":"Feature","geometry":{"type":"Point","coordinates":[2.00778,46.94556]},"properties":{"nom":"Nation","ag":["Réseau urbain TIG","Agrégat des réseaux urbains et interurbains du Centre-Val-de-Loire"],"lt":1,"dept":"36"}},{"type":"Feature","geometry":{"type":"Point","coordinates":[2.00278,46.94111]},"properties":{"nom":"Bel Air","ag":["Réseau urbain TIG","Agrégat des réseaux urbains et interurbains du Centre-Val-de-Loire"],"lt":1,"dept":"36"}},{"type":"Feature","geometry":{"type":"Point","coordinates":[2.00806,46.94139]},"properties":{"nom":"Provence","ag":["Réseau urbain TIG","Agrégat des réseaux urbains et interurbains du Centre-Val-de-Loire"],"lt":1,"dept":"36"}},{"type":"Feature","geometry":{"type":"Point","coordinates":[2.00945,46.93972]},"properties":{"nom":"Jean de la Fontaine","ag":["Réseau urbain TIG","Agrégat des réseaux urbains et interurbains du Centre-Val-de-Loire"],"lt":1,"dept":"36"}},{"type":"Feature","geometry":{"type":"Point","coordinates":[2.00806,46.94417]},"properties":{"nom":"Nivernais","ag":["Réseau urbain TIG","Agrégat des réseaux urbains et interurbains du Centre-Val-de-Loire"],"lt":1,"dept":"36"}},{"type":"Feature","geometry":{"type":"Point","coordinates":[2.00973,46.94306]},"properties":{"nom":"La Marche","ag":["Réseau urbain TIG","Agrégat des réseaux urbains et interurbains du Centre-Val-de-Loire"],"lt":1,"dept":"36"}},{"type":"Feature","geometry":{"type":"Point","coordinates":[1.99686,46.95776]},"properties":{"nom":"Centre Hospitalier","ag":["Réseau urbain TIG"],"lt":1,"dept":"36"}},{"type":"Feature","geometry":{"type":"Point","coordinates":[2.00251,46.95667]},"properties":{"nom":"La Limoise","ag":["Réseau urbain TIG","Agrégat des réseaux urbains et interurbains du Centre-Val-de-Loire"],"lt":1,"dept":"36"}},{"type":"Feature","geometry":{"type":"Point","coordinates":[2.00028,46.94722]},"properties":{"nom":"La Chaume","ag":["Réseau urbain TIG","Agrégat des réseaux urbains et interurbains du Centre-Val-de-Loire"],"lt":1,"dept":"36"}},{"type":"Feature","geometry":{"type":"Point","coordinates":[2.00389,46.95167]},"properties":{"nom":"Cimetière","ag":["Réseau urbain TIG","Agrégat des réseaux urbains et interurbains du Centre-Val-de-Loire"],"lt":1,"dept":"36"}},{"type":"Feature","geometry":{"type":"Point","coordinates":[2.00417,46.95556]},"properties":{"nom":"Tassigny","ag":["Réseau urbain TIG","Agrégat des réseaux urbains et interurbains du Centre-Val-de-Loire"],"lt":1,"dept":"36"}},{"type":"Feature","geometry":{"type":"Point","coordinates":[1.91983,47.03857]},"properties":{"nom":"Place de la Mairie","ag":["Réseau urbain TIG","Agrégat des réseaux urbains et interurbains du Centre-Val-de-Loire"],"lt":1,"dept":"36"}},{"type":"Feature","geometry":{"type":"Point","coordinates":[2.02563,47.08149]},"properties":{"nom":"Bois-Saint-Denis","ag":["Réseau urbain TIG","Agrégat des réseaux urbains et interurbains du Centre-Val-de-Loire"],"lt":1,"dept":"36"}},{"type":"Feature","geometry":{"type":"Point","coordinates":[2.01111,46.95355]},"properties":{"nom":"Coinchettes 2","ag":["Réseau urbain TIG","Agrégat des réseaux urbains et interurbains du Centre-Val-de-Loire"],"lt":1,"dept":"36"}},{"type":"Feature","geometry":{"type":"Point","coordinates":[2.01538,46.95588]},"properties":{"nom":"Coinchettes 1","ag":["Réseau urbain TIG","Agrégat des réseaux urbains et interurbains du Centre-Val-de-Loire"],"lt":1,"dept":"36"}},{"type":"Feature","geometry":{"type":"Point","coordinates":[2.04062,47.08519]},"properties":{"nom":"Monuments aux Morts","ag":["Réseau urbain TIG","Agrégat des réseaux urbains et interurbains du Centre-Val-de-Loire"],"lt":1,"dept":"36"}},{"type":"Feature","geometry":{"type":"Point","coordinates":[2.00612,46.94945]},"properties":{"nom":"PEPSI","ag":["Réseau urbain TIG","Agrégat des réseaux urbains et interurbains du Centre-Val-de-Loire"],"lt":1,"dept":"36"}},{"type":"Feature","geometry":{"type":"Point","coordinates":[1.99528,46.94917]},"properties":{"nom":"Roosevelt","ag":["Réseau urbain TIG","Agrégat des réseaux urbains et interurbains du Centre-Val-de-Loire"],"lt":1,"dept":"36"}},{"type":"Feature","geometry":{"type":"Point","coordinates":[1.99652,46.95628]},"properties":{"nom":"Piscine","ag":["Réseau urbain TIG","Agrégat des réseaux urbains et interurbains du Centre-Val-de-Loire"],"lt":1,"dept":"36"}},{"type":"Feature","geometry":{"type":"Point","coordinates":[1.98473,46.94556]},"properties":{"nom":"Les Ponts","ag":["Réseau urbain TIG","Agrégat des réseaux urbains et interurbains du Centre-Val-de-Loire"],"lt":1,"dept":"36"}},{"type":"Feature","geometry":{"type":"Point","coordinates":[1.98106,46.97875]},"properties":{"nom":"Lotissement Champs Levants","ag":["Réseau urbain TIG","Agrégat des réseaux urbains et interurbains du Centre-Val-de-Loire"],"lt":1,"dept":"36"}},{"type":"Feature","geometry":{"type":"Point","coordinates":[2.00547,46.94297]},"properties":{"nom":"Patinoire","ag":["Réseau urbain TIG","Agrégat des réseaux urbains et interurbains du Centre-Val-de-Loire"],"lt":1,"dept":"36"}},{"type":"Feature","geometry":{"type":"Point","coordinates":[2.01356,46.95378]},"properties":{"nom":"Coinchettes","ag":["Réseau urbain TIG","Agrégat des réseaux urbains et interurbains du Centre-Val-de-Loire"],"lt":1,"dept":"36"}},{"type":"Feature","geometry":{"type":"Point","coordinates":[1.98334,46.94028]},"properties":{"nom":"Lucien Coupet","ag":["Réseau urbain TIG","Agrégat des réseaux urbains et interurbains du Centre-Val-de-Loire"],"lt":1,"dept":"36"}},{"type":"Feature","geometry":{"type":"Point","coordinates":[1.98528,46.94028]},"properties":{"nom":"Flandres Dunkerque","ag":["Réseau urbain TIG","Agrégat des réseaux urbains et interurbains du Centre-Val-de-Loire"],"lt":1,"dept":"36"}},{"type":"Feature","geometry":{"type":"Point","coordinates":[1.97224,46.93285]},"properties":{"nom":"Terres Rouges 2","ag":["Réseau urbain TIG","Agrégat des réseaux urbains et interurbains du Centre-Val-de-Loire"],"lt":1,"dept":"36"}},{"type":"Feature","geometry":{"type":"Point","coordinates":[1.97596,46.9807]},"properties":{"nom":"Bourg-Abribus","ag":["Réseau urbain TIG","Agrégat des réseaux urbains et interurbains du Centre-Val-de-Loire"],"lt":1,"dept":"36"}},{"type":"Feature","geometry":{"type":"Point","coordinates":[1.98097,46.93977]},"properties":{"nom":"Terres Rouges 1","ag":["Réseau urbain TIG","Agrégat des réseaux urbains et interurbains du Centre-Val-de-Loire"],"lt":1,"dept":"36"}},{"type":"Feature","geometry":{"type":"Point","coordinates":[2.02471,47.04755]},"properties":{"nom":"Mairie","ag":["Réseau urbain TIG","Agrégat des réseaux urbains et interurbains du Centre-Val-de-Loire"],"lt":1,"dept":"36"}},{"type":"Feature","geometry":{"type":"Point","coordinates":[1.99455,46.95082]},"properties":{"nom":"Place du Sacré-Coeur","ag":["Réseau urbain TIG","Agrégat des réseaux urbains et interurbains du Centre-Val-de-Loire"],"lt":1,"dept":"36"}},{"type":"Feature","geometry":{"type":"Point","coordinates":[2.03684,47.07036]},"properties":{"nom":"La Ferté","ag":["Réseau urbain TIG","Agrégat des réseaux urbains et interurbains du Centre-Val-de-Loire"],"lt":1,"dept":"36"}},{"type":"Feature","geometry":{"type":"Point","coordinates":[1.99657,46.94037]},"properties":{"nom":"Centre Culturel Albert Camus","ag":["Réseau urbain TIG","Agrégat des réseaux urbains et interurbains du Centre-Val-de-Loire"],"lt":1,"dept":"36"}},{"type":"Feature","geometry":{"type":"Point","coordinates":[1.99639,46.94083]},"properties":{"nom":"Méli","ag":["Réseau urbain TIG","Agrégat des réseaux urbains et interurbains du Centre-Val-de-Loire"],"lt":1,"dept":"36"}},{"type":"Feature","geometry":{"type":"Point","coordinates":[1.99667,46.95778]},"properties":{"nom":"Hôpital","ag":["Réseau urbain TIG","Agrégat des réseaux urbains et interurbains du Centre-Val-de-Loire"],"lt":0,"dept":"36"}},{"type":"Feature","geometry":{"type":"Point","coordinates":[2.01356,46.95378]},"properties":{"nom":"Les Coinchettes","ag":["Réseau urbain TIG","Agrégat des réseaux urbains et interurbains du Centre-Val-de-Loire"],"lt":0,"dept":"36"}},{"type":"Feature","geometry":{"type":"Point","coordinates":[1.98584,46.94834]},"properties":{"nom":"Gare","ag":["Réseau urbain TIG","Agrégat des réseaux urbains et interurbains du Centre-Val-de-Loire"],"lt":0,"dept":"36"}},{"type":"Feature","geometry":{"type":"Point","coordinates":[1.8292,46.74605]},"properties":{"nom":"AGORA","ag":["Réseau urbain Horizon","Agrégat des réseaux urbains et interurbains du Centre-Val-de-Loire"],"lt":0,"dept":"36"}},{"type":"Feature","geometry":{"type":"Point","coordinates":[1.82997,46.74534]},"properties":{"nom":"AGORA","ag":["Réseau urbain Horizon","Agrégat des réseaux urbains et interurbains du Centre-Val-de-Loire"],"lt":0,"dept":"36"}},{"type":"Feature","geometry":{"type":"Point","coordinates":[1.83131,46.7422]},"properties":{"nom":"ARDENTES","ag":["Réseau urbain Horizon","Agrégat des réseaux urbains et interurbains du Centre-Val-de-Loire"],"lt":0,"dept":"36"}},{"type":"Feature","geometry":{"type":"Point","coordinates":[1.83122,46.74202]},"properties":{"nom":"ARDENTES","ag":["Réseau urbain Horizon","Agrégat des réseaux urbains et interurbains du Centre-Val-de-Loire"],"lt":0,"dept":"36"}},{"type":"Feature","geometry":{"type":"Point","coordinates":[1.80348,46.76317]},"properties":{"nom":"CLAVIÈRES","ag":["Réseau urbain Horizon","Agrégat des réseaux urbains et interurbains du Centre-Val-de-Loire"],"lt":0,"dept":"36"}},{"type":"Feature","geometry":{"type":"Point","coordinates":[1.8031,46.76331]},"properties":{"nom":"CLAVIÈRES","ag":["Réseau urbain Horizon","Agrégat des réseaux urbains et interurbains du Centre-Val-de-Loire"],"lt":0,"dept":"36"}},{"type":"Feature","geometry":{"type":"Point","coordinates":[1.81844,46.74204]},"properties":{"nom":"ÉGLANTIERS","ag":["Réseau urbain Horizon","Agrégat des réseaux urbains et interurbains du Centre-Val-de-Loire"],"lt":0,"dept":"36"}},{"type":"Feature","geometry":{"type":"Point","coordinates":[1.81844,46.74259]},"properties":{"nom":"ÉGLANTIERS","ag":["Réseau urbain Horizon","Agrégat des réseaux urbains et interurbains du Centre-Val-de-Loire"],"lt":0,"dept":"36"}},{"type":"Feature","geometry":{"type":"Point","coordinates":[1.82381,46.73849]},"properties":{"nom":"ARDENTES GARE","ag":["Réseau urbain Horizon","Agrégat des réseaux urbains et interurbains du Centre-Val-de-Loire"],"lt":0,"dept":"36"}},{"type":"Feature","geometry":{"type":"Point","coordinates":[1.82384,46.73856]},"properties":{"nom":"ARDENTES GARE","ag":["Réseau urbain Horizon","Agrégat des réseaux urbains et interurbains du Centre-Val-de-Loire"],"lt":0,"dept":"36"}},{"type":"Feature","geometry":{"type":"Point","coordinates":[1.81972,46.73996]},"properties":{"nom":"GRANDS BUISSONS","ag":["Réseau urbain Horizon","Agrégat des réseaux urbains et interurbains du Centre-Val-de-Loire"],"lt":0,"dept":"36"}},{"type":"Feature","geometry":{"type":"Point","coordinates":[1.81932,46.74042]},"properties":{"nom":"GRANDS BUISSONS","ag":["Réseau urbain Horizon","Agrégat des réseaux urbains et interurbains du Centre-Val-de-Loire"],"lt":0,"dept":"36"}},{"type":"Feature","geometry":{"type":"Point","coordinates":[1.82097,46.7439]},"properties":{"nom":"PASTEUR","ag":["Réseau urbain Horizon","Agrégat des réseaux urbains et interurbains du Centre-Val-de-Loire"],"lt":0,"dept":"36"}},{"type":"Feature","geometry":{"type":"Point","coordinates":[1.82148,46.74377]},"properties":{"nom":"PASTEUR","ag":["Réseau urbain Horizon","Agrégat des réseaux urbains et interurbains du Centre-Val-de-Loire"],"lt":0,"dept":"36"}},{"type":"Feature","geometry":{"type":"Point","coordinates":[1.70503,46.70914]},"properties":{"nom":"COTINIÈRE","ag":["Réseau urbain Horizon"],"lt":0,"dept":"36"}},{"type":"Feature","geometry":{"type":"Point","coordinates":[1.70352,46.70876]},"properties":{"nom":"COTINIÈRE","ag":["Réseau urbain Horizon","Agrégat des réseaux urbains et interurbains du Centre-Val-de-Loire"],"lt":0,"dept":"36"}},{"type":"Feature","geometry":{"type":"Point","coordinates":[1.69833,46.6936]},"properties":{"nom":"ARTHON","ag":["Réseau urbain Horizon","Agrégat des réseaux urbains et interurbains du Centre-Val-de-Loire"],"lt":0,"dept":"36"}},{"type":"Feature","geometry":{"type":"Point","coordinates":[1.69841,46.69359]},"properties":{"nom":"ARTHON","ag":["Réseau urbain Horizon"],"lt":0,"dept":"36"}},{"type":"Feature","geometry":{"type":"Point","coordinates":[1.69295,46.69393]},"properties":{"nom":"LONGEROLLE","ag":["Réseau urbain Horizon","Agrégat des réseaux urbains et interurbains du Centre-Val-de-Loire"],"lt":0,"dept":"36"}},{"type":"Feature","geometry":{"type":"Point","coordinates":[1.69313,46.69376]},"properties":{"nom":"LONGEROLLE","ag":["Réseau urbain Horizon","Agrégat des réseaux urbains et interurbains du Centre-Val-de-Loire"],"lt":0,"dept":"36"}},{"type":"Feature","geometry":{"type":"Point","coordinates":[1.69685,46.70271]},"properties":{"nom":"PONT AU CHAT","ag":["Réseau urbain Horizon","Agrégat des réseaux urbains et interurbains du Centre-Val-de-Loire"],"lt":0,"dept":"36"}},{"type":"Feature","geometry":{"type":"Point","coordinates":[1.69662,46.70231]},"properties":{"nom":"PONT AU CHAT","ag":["Réseau urbain Horizon","Agrégat des réseaux urbains et interurbains du Centre-Val-de-Loire"],"lt":0,"dept":"36"}},{"type":"Feature","geometry":{"type":"Point","coordinates":[1.69781,46.68166]},"properties":{"nom":"TREMBLÈRE","ag":["Réseau urbain Horizon","Agrégat des réseaux urbains et interurbains du Centre-Val-de-Loire"],"lt":0,"dept":"36"}},{"type":"Feature","geometry":{"type":"Point","coordinates":[1.70867,46.81934]},"properties":{"nom":"3ÈME RAC","ag":["Réseau urbain Horizon","Agrégat des réseaux urbains et interurbains du Centre-Val-de-Loire"],"lt":0,"dept":"36"}},{"type":"Feature","geometry":{"type":"Point","coordinates":[1.70854,46.81927]},"properties":{"nom":"3ÈME RAC","ag":["Réseau urbain Horizon"],"lt":0,"dept":"36"}},{"type":"Feature","geometry":{"type":"Point","coordinates":[1.68007,46.80882]},"properties":{"nom":"ANATOLE FRANCE","ag":["Réseau urbain Horizon","Agrégat des réseaux urbains et interurbains du Centre-Val-de-Loire"],"lt":0,"dept":"36"}},{"type":"Feature","geometry":{"type":"Point","coordinates":[1.67994,46.80874]},"properties":{"nom":"ANATOLE FRANCE","ag":["Réseau urbain Horizon","Agrégat des réseaux urbains et interurbains du Centre-Val-de-Loire"],"lt":0,"dept":"36"}},{"type":"Feature","geometry":{"type":"Point","coordinates":[1.73248,46.80591]},"properties":{"nom":"ANDRÉ","ag":["Réseau urbain Horizon","Agrégat des réseaux urbains et interurbains du Centre-Val-de-Loire"],"lt":0,"dept":"36"}},{"type":"Feature","geometry":{"type":"Point","coordinates":[1.73263,46.80576]},"properties":{"nom":"ANDRÉ","ag":["Réseau urbain Horizon","Agrégat des réseaux urbains et interurbains du Centre-Val-de-Loire"],"lt":0,"dept":"36"}},{"type":"Feature","geometry":{"type":"Point","coordinates":[1.67403,46.80357]},"properties":{"nom":"ANJOU","ag":["Réseau urbain Horizon","Agrégat des réseaux urbains et interurbains du Centre-Val-de-Loire"],"lt":0,"dept":"36"}},{"type":"Feature","geometry":{"type":"Point","coordinates":[1.67374,46.80363]},"properties":{"nom":"ANJOU","ag":["Réseau urbain Horizon","Agrégat des réseaux urbains et interurbains du Centre-Val-de-Loire"],"lt":0,"dept":"36"}},{"type":"Feature","geometry":{"type":"Point","coordinates":[1.72749,46.80877]},"properties":{"nom":"ANVAUX","ag":["Réseau urbain Horizon","Agrégat des réseaux urbains et interurbains du Centre-Val-de-Loire"],"lt":0,"dept":"36"}},{"type":"Feature","geometry":{"type":"Point","coordinates":[1.72769,46.80872]},"properties":{"nom":"ANVAUX","ag":["Réseau urbain Horizon","Agrégat des réseaux urbains et interurbains du Centre-Val-de-Loire"],"lt":0,"dept":"36"}},{"type":"Feature","geometry":{"type":"Point","coordinates":[1.68031,46.8036]},"properties":{"nom":"AQUITAINE","ag":["Réseau urbain Horizon","Agrégat des réseaux urbains et interurbains du Centre-Val-de-Loire"],"lt":0,"dept":"36"}},{"type":"Feature","geometry":{"type":"Point","coordinates":[1.68069,46.80427]},"properties":{"nom":"AQUITAINE","ag":["Réseau urbain Horizon","Agrégat des réseaux urbains et interurbains du Centre-Val-de-Loire"],"lt":0,"dept":"36"}},{"type":"Feature","geometry":{"type":"Point","coordinates":[1.69032,46.80458]},"properties":{"nom":"ARAGO","ag":["Réseau urbain Horizon","Agrégat des réseaux urbains et interurbains du Centre-Val-de-Loire"],"lt":0,"dept":"36"}},{"type":"Feature","geometry":{"type":"Point","coordinates":[1.67109,46.80141]},"properties":{"nom":"ARGENTON","ag":["Réseau urbain Horizon","Agrégat des réseaux urbains et interurbains du Centre-Val-de-Loire"],"lt":0,"dept":"36"}},{"type":"Feature","geometry":{"type":"Point","coordinates":[1.67153,46.80177]},"properties":{"nom":"ARGENTON","ag":["Réseau urbain Horizon","Agrégat des réseaux urbains et interurbains du Centre-Val-de-Loire"],"lt":0,"dept":"36"}},{"type":"Feature","geometry":{"type":"Point","coordinates":[1.6698,46.7925]},"properties":{"nom":"BEAUPRÉ","ag":["Réseau urbain Horizon","Agrégat des réseaux urbains et interurbains du Centre-Val-de-Loire"],"lt":0,"dept":"36"}},{"type":"Feature","geometry":{"type":"Point","coordinates":[1.66965,46.79245]},"properties":{"nom":"BEAUPRÉ","ag":["Réseau urbain Horizon","Agrégat des réseaux urbains et interurbains du Centre-Val-de-Loire"],"lt":0,"dept":"36"}},{"type":"Feature","geometry":{"type":"Point","coordinates":[1.7112,46.80827]},"properties":{"nom":"BALZAC","ag":["Réseau urbain Horizon","Agrégat des réseaux urbains et interurbains du Centre-Val-de-Loire"],"lt":0,"dept":"36"}},{"type":"Feature","geometry":{"type":"Point","coordinates":[1.71133,46.80817]},"properties":{"nom":"BALZAC","ag":["Réseau urbain Horizon","Agrégat des réseaux urbains et interurbains du Centre-Val-de-Loire"],"lt":0,"dept":"36"}},{"type":"Feature","geometry":{"type":"Point","coordinates":[1.66948,46.79958]},"properties":{"nom":"BERRY COOP","ag":["Réseau urbain Horizon","Agrégat des réseaux urbains et interurbains du Centre-Val-de-Loire"],"lt":0,"dept":"36"}},{"type":"Feature","geometry":{"type":"Point","coordinates":[1.66941,46.79936]},"properties":{"nom":"BERRY COOP","ag":["Réseau urbain Horizon","Agrégat des réseaux urbains et interurbains du Centre-Val-de-Loire"],"lt":0,"dept":"36"}},{"type":"Feature","geometry":{"type":"Point","coordinates":[1.67654,46.80305]},"properties":{"nom":"BEAULIEU","ag":["Réseau urbain Horizon"],"lt":0,"dept":"36"}},{"type":"Feature","geometry":{"type":"Point","coordinates":[1.67671,46.80315]},"properties":{"nom":"BEAULIEU","ag":["Réseau urbain Horizon","Agrégat des réseaux urbains et interurbains du Centre-Val-de-Loire"],"lt":0,"dept":"36"}},{"type":"Feature","geometry":{"type":"Point","coordinates":[1.71282,46.80782]},"properties":{"nom":"BERLIOZ","ag":["Réseau urbain Horizon","Agrégat des réseaux urbains et interurbains du Centre-Val-de-Loire"],"lt":0,"dept":"36"}},{"type":"Feature","geometry":{"type":"Point","coordinates":[1.713,46.80814]},"properties":{"nom":"BERLIOZ","ag":["Réseau urbain Horizon","Agrégat des réseaux urbains et interurbains du Centre-Val-de-Loire"],"lt":0,"dept":"36"}},{"type":"Feature","geometry":{"type":"Point","coordinates":[1.69556,46.81821]},"properties":{"nom":"BELLE-ISLE","ag":["Réseau urbain Horizon","Agrégat des réseaux urbains et interurbains du Centre-Val-de-Loire"],"lt":0,"dept":"36"}},{"type":"Feature","geometry":{"type":"Point","coordinates":[1.69541,46.81815]},"properties":{"nom":"BELLE-ISLE","ag":["Réseau urbain Horizon","Agrégat des réseaux urbains et interurbains du Centre-Val-de-Loire"],"lt":0,"dept":"36"}},{"type":"Feature","geometry":{"type":"Point","coordinates":[1.7191,46.82099]},"properties":{"nom":"BITRAY","ag":["Réseau urbain Horizon","Agrégat des réseaux urbains et interurbains du Centre-Val-de-Loire"],"lt":0,"dept":"36"}},{"type":"Feature","geometry":{"type":"Point","coordinates":[1.71978,46.82095]},"properties":{"nom":"BITRAY","ag":["Réseau urbain Horizon","Agrégat des réseaux urbains et interurbains du Centre-Val-de-Loire"],"lt":0,"dept":"36"}},{"type":"Feature","geometry":{"type":"Point","coordinates":[1.68144,46.82626]},"properties":{"nom":"BLOIS","ag":["Réseau urbain Horizon","Agrégat des réseaux urbains et interurbains du Centre-Val-de-Loire"],"lt":0,"dept":"36"}},{"type":"Feature","geometry":{"type":"Point","coordinates":[1.68123,46.82651]},"properties":{"nom":"BLOIS","ag":["Réseau urbain Horizon","Agrégat des réseaux urbains et interurbains du Centre-Val-de-Loire"],"lt":0,"dept":"36"}},{"type":"Feature","geometry":{"type":"Point","coordinates":[1.67499,46.80585]},"properties":{"nom":"BOURGOGNE","ag":["Réseau urbain Horizon","Agrégat des réseaux urbains et interurbains du Centre-Val-de-Loire"],"lt":0,"dept":"36"}},{"type":"Feature","geometry":{"type":"Point","coordinates":[1.67531,46.80611]},"properties":{"nom":"BOURGOGNE","ag":["Réseau urbain Horizon","Agrégat des réseaux urbains et interurbains du Centre-Val-de-Loire"],"lt":0,"dept":"36"}},{"type":"Feature","geometry":{"type":"Point","coordinates":[1.71114,46.79794]},"properties":{"nom":"BLAISE PASCAL","ag":["Réseau urbain Horizon","Agrégat des réseaux urbains et interurbains du Centre-Val-de-Loire"],"lt":0,"dept":"36"}},{"type":"Feature","geometry":{"type":"Point","coordinates":[1.71165,46.79832]},"properties":{"nom":"BLAISE PASCAL","ag":["Réseau urbain Horizon","Agrégat des réseaux urbains et interurbains du Centre-Val-de-Loire"],"lt":0,"dept":"36"}},{"type":"Feature","geometry":{"type":"Point","coordinates":[1.68486,46.82482]},"properties":{"nom":"BRAILLE","ag":["Réseau urbain Horizon","Agrégat des réseaux urbains et interurbains du Centre-Val-de-Loire"],"lt":0,"dept":"36"}},{"type":"Feature","geometry":{"type":"Point","coordinates":[1.6846,46.82509]},"properties":{"nom":"BRAILLE","ag":["Réseau urbain Horizon","Agrégat des réseaux urbains et interurbains du Centre-Val-de-Loire"],"lt":0,"dept":"36"}},{"type":"Feature","geometry":{"type":"Point","coordinates":[1.70611,46.81121]},"properties":{"nom":"BRYAS","ag":["Réseau urbain Horizon","Agrégat des réseaux urbains et interurbains du Centre-Val-de-Loire"],"lt":0,"dept":"36"}},{"type":"Feature","geometry":{"type":"Point","coordinates":[1.70629,46.81126]},"properties":{"nom":"BRYAS","ag":["Réseau urbain Horizon","Agrégat des réseaux urbains et interurbains du Centre-Val-de-Loire"],"lt":0,"dept":"36"}},{"type":"Feature","geometry":{"type":"Point","coordinates":[1.72433,46.81015]},"properties":{"nom":"BUXERIOUX","ag":["Réseau urbain Horizon","Agrégat des réseaux urbains et interurbains du Centre-Val-de-Loire"],"lt":0,"dept":"36"}},{"type":"Feature","geometry":{"type":"Point","coordinates":[1.72442,46.80991]},"properties":{"nom":"BUXERIOUX","ag":["Réseau urbain Horizon","Agrégat des réseaux urbains et interurbains du Centre-Val-de-Loire"],"lt":0,"dept":"36"}},{"type":"Feature","geometry":{"type":"Point","coordinates":[1.68819,46.80692]},"properties":{"nom":"CITÉ ADMINISTRATIVE","ag":["Réseau urbain Horizon","Agrégat des réseaux urbains et interurbains du Centre-Val-de-Loire"],"lt":0,"dept":"36"}},{"type":"Feature","geometry":{"type":"Point","coordinates":[1.68803,46.80698]},"properties":{"nom":"CITÉ ADMINISTRATIVE","ag":["Réseau urbain Horizon","Agrégat des réseaux urbains et interurbains du Centre-Val-de-Loire"],"lt":0,"dept":"36"}},{"type":"Feature","geometry":{"type":"Point","coordinates":[1.7125,46.80516]},"properties":{"nom":"CAF","ag":["Réseau urbain Horizon","Agrégat des réseaux urbains et interurbains du Centre-Val-de-Loire"],"lt":0,"dept":"36"}},{"type":"Feature","geometry":{"type":"Point","coordinates":[1.71264,46.80501]},"properties":{"nom":"CAF","ag":["Réseau urbain Horizon","Agrégat des réseaux urbains et interurbains du Centre-Val-de-Loire"],"lt":0,"dept":"36"}},{"type":"Feature","geometry":{"type":"Point","coordinates":[1.69558,46.80968]},"properties":{"nom":"CAPUCINS","ag":["Réseau urbain Horizon"],"lt":0,"dept":"36"}},{"type":"Feature","geometry":{"type":"Point","coordinates":[1.68268,46.80938]},"properties":{"nom":"CLAUDE BERNARD","ag":["Réseau urbain Horizon","Agrégat des réseaux urbains et interurbains du Centre-Val-de-Loire"],"lt":0,"dept":"36"}},{"type":"Feature","geometry":{"type":"Point","coordinates":[1.6831,46.80936]},"properties":{"nom":"CLAUDE BERNARD","ag":["Réseau urbain Horizon","Agrégat des réseaux urbains et interurbains du Centre-Val-de-Loire"],"lt":0,"dept":"36"}},{"type":"Feature","geometry":{"type":"Point","coordinates":[1.67214,46.79459]},"properties":{"nom":"CHAMPS BOSSU","ag":["Réseau urbain Horizon","Agrégat des réseaux urbains et interurbains du Centre-Val-de-Loire"],"lt":0,"dept":"36"}},{"type":"Feature","geometry":{"type":"Point","coordinates":[1.6722,46.79468]},"properties":{"nom":"CHAMPS BOSSU","ag":["Réseau urbain Horizon","Agrégat des réseaux urbains et interurbains du Centre-Val-de-Loire"],"lt":0,"dept":"36"}},{"type":"Feature","geometry":{"type":"Point","coordinates":[1.71621,46.82086]},"properties":{"nom":"CLOS DE LA CROIX","ag":["Réseau urbain Horizon","Agrégat des réseaux urbains et interurbains du Centre-Val-de-Loire"],"lt":0,"dept":"36"}},{"type":"Feature","geometry":{"type":"Point","coordinates":[1.71586,46.82073]},"properties":{"nom":"CLOS DE LA CROIX","ag":["Réseau urbain Horizon","Agrégat des réseaux urbains et interurbains du Centre-Val-de-Loire"],"lt":0,"dept":"36"}},{"type":"Feature","geometry":{"type":"Point","coordinates":[1.68086,46.82335]},"properties":{"nom":"CÈDRES","ag":["Réseau urbain Horizon","Agrégat des réseaux urbains et interurbains du Centre-Val-de-Loire"],"lt":0,"dept":"36"}},{"type":"Feature","geometry":{"type":"Point","coordinates":[1.68095,46.82327]},"properties":{"nom":"CÈDRES","ag":["Réseau urbain Horizon","Agrégat des réseaux urbains et interurbains du Centre-Val-de-Loire"],"lt":0,"dept":"36"}},{"type":"Feature","geometry":{"type":"Point","coordinates":[1.73495,46.80417]},"properties":{"nom":"CÉRABATI","ag":["Réseau urbain Horizon","Agrégat des réseaux urbains et interurbains du Centre-Val-de-Loire"],"lt":0,"dept":"36"}},{"type":"Feature","geometry":{"type":"Point","coordinates":[1.73488,46.80413]},"properties":{"nom":"CÉRABATI","ag":["Réseau urbain Horizon","Agrégat des réseaux urbains et interurbains du Centre-Val-de-Loire"],"lt":0,"dept":"36"}},{"type":"Feature","geometry":{"type":"Point","coordinates":[1.69207,46.79696]},"properties":{"nom":"CFA","ag":["Réseau urbain Horizon","Agrégat des réseaux urbains et interurbains du Centre-Val-de-Loire"],"lt":0,"dept":"36"}},{"type":"Feature","geometry":{"type":"Point","coordinates":[1.6962,46.80614]},"properties":{"nom":"CHARLES DE GAULLE","ag":["Réseau urbain Horizon","Agrégat des réseaux urbains et interurbains du Centre-Val-de-Loire"],"lt":0,"dept":"36"}},{"type":"Feature","geometry":{"type":"Point","coordinates":[1.6962,46.80609]},"properties":{"nom":"CHARLES DE GAULLE","ag":["Réseau urbain Horizon","Agrégat des réseaux urbains et interurbains du Centre-Val-de-Loire"],"lt":0,"dept":"36"}},{"type":"Feature","geometry":{"type":"Point","coordinates":[1.67184,46.81928]},"properties":{"nom":"CROIX GUÉRAT","ag":["Réseau urbain Horizon","Agrégat des réseaux urbains et interurbains du Centre-Val-de-Loire"],"lt":0,"dept":"36"}},{"type":"Feature","geometry":{"type":"Point","coordinates":[1.67178,46.81926]},"properties":{"nom":"CROIX GUÉRAT","ag":["Réseau urbain Horizon","Agrégat des réseaux urbains et interurbains du Centre-Val-de-Loire"],"lt":0,"dept":"36"}},{"type":"Feature","geometry":{"type":"Point","coordinates":[1.71673,46.80098]},"properties":{"nom":"CHARMILLES","ag":["Réseau urbain Horizon","Agrégat des réseaux urbains et interurbains du Centre-Val-de-Loire"],"lt":0,"dept":"36"}},{"type":"Feature","geometry":{"type":"Point","coordinates":[1.71573,46.80039]},"properties":{"nom":"CHARMILLES","ag":["Réseau urbain Horizon","Agrégat des réseaux urbains et interurbains du Centre-Val-de-Loire"],"lt":0,"dept":"36"}},{"type":"Feature","geometry":{"type":"Point","coordinates":[1.68462,46.81614]},"properties":{"nom":"SAINT-CHRISTOPHE","ag":["Réseau urbain Horizon","Agrégat des réseaux urbains et interurbains du Centre-Val-de-Loire"],"lt":0,"dept":"36"}},{"type":"Feature","geometry":{"type":"Point","coordinates":[1.68465,46.81664]},"properties":{"nom":"SAINT-CHRISTOPHE","ag":["Réseau urbain Horizon","Agrégat des réseaux urbains et interurbains du Centre-Val-de-Loire"],"lt":0,"dept":"36"}},{"type":"Feature","geometry":{"type":"Point","coordinates":[1.70021,46.80607]},"properties":{"nom":"CLUIS","ag":["Réseau urbain Horizon","Agrégat des réseaux urbains et interurbains du Centre-Val-de-Loire"],"lt":0,"dept":"36"}},{"type":"Feature","geometry":{"type":"Point","coordinates":[1.69991,46.80607]},"properties":{"nom":"CLUIS","ag":["Réseau urbain Horizon","Agrégat des réseaux urbains et interurbains du Centre-Val-de-Loire"],"lt":0,"dept":"36"}},{"type":"Feature","geometry":{"type":"Point","coordinates":[1.69347,46.80384]},"properties":{"nom":"CROIX NORMAND","ag":["Réseau urbain Horizon","Agrégat des réseaux urbains et interurbains du Centre-Val-de-Loire"],"lt":0,"dept":"36"}},{"type":"Feature","geometry":{"type":"Point","coordinates":[1.69436,46.8038]},"properties":{"nom":"CROIX NORMAND","ag":["Réseau urbain Horizon","Agrégat des réseaux urbains et interurbains du Centre-Val-de-Loire"],"lt":0,"dept":"36"}},{"type":"Feature","geometry":{"type":"Point","coordinates":[1.70251,46.81003]},"properties":{"nom":"COLBERT","ag":["Réseau urbain Horizon","Agrégat des réseaux urbains et interurbains du Centre-Val-de-Loire"],"lt":0,"dept":"36"}},{"type":"Feature","geometry":{"type":"Point","coordinates":[1.70235,46.81]},"properties":{"nom":"COLBERT","ag":["Réseau urbain Horizon","Agrégat des réseaux urbains et interurbains du Centre-Val-de-Loire"],"lt":0,"dept":"36"}},{"type":"Feature","geometry":{"type":"Point","coordinates":[1.71369,46.802]},"properties":{"nom":"COMBANAIRE","ag":["Réseau urbain Horizon"],"lt":0,"dept":"36"}},{"type":"Feature","geometry":{"type":"Point","coordinates":[1.70192,46.7932]},"properties":{"nom":"LE CORBUSIER","ag":["Réseau urbain Horizon","Agrégat des réseaux urbains et interurbains du Centre-Val-de-Loire"],"lt":0,"dept":"36"}},{"type":"Feature","geometry":{"type":"Point","coordinates":[1.70157,46.79328]},"properties":{"nom":"LE CORBUSIER","ag":["Réseau urbain Horizon","Agrégat des réseaux urbains et interurbains du Centre-Val-de-Loire"],"lt":0,"dept":"36"}},{"type":"Feature","geometry":{"type":"Point","coordinates":[1.72002,46.80343]},"properties":{"nom":"COUBERTIN","ag":["Réseau urbain Horizon","Agrégat des réseaux urbains et interurbains du Centre-Val-de-Loire"],"lt":0,"dept":"36"}},{"type":"Feature","geometry":{"type":"Point","coordinates":[1.71972,46.80324]},"properties":{"nom":"COUBERTIN","ag":["Réseau urbain Horizon","Agrégat des réseaux urbains et interurbains du Centre-Val-de-Loire"],"lt":0,"dept":"36"}},{"type":"Feature","geometry":{"type":"Point","coordinates":[1.68324,46.81717]},"properties":{"nom":"CROIX-PERRINE","ag":["Réseau urbain Horizon","Agrégat des réseaux urbains et interurbains du Centre-Val-de-Loire"],"lt":0,"dept":"36"}},{"type":"Feature","geometry":{"type":"Point","coordinates":[1.68316,46.81724]},"properties":{"nom":"CROIX-PERRINE","ag":["Réseau urbain Horizon","Agrégat des réseaux urbains et interurbains du Centre-Val-de-Loire"],"lt":0,"dept":"36"}},{"type":"Feature","geometry":{"type":"Point","coordinates":[1.67663,46.78429]},"properties":{"nom":"CRÉ","ag":["Réseau urbain Horizon","Agrégat des réseaux urbains et interurbains du Centre-Val-de-Loire"],"lt":0,"dept":"36"}},{"type":"Feature","geometry":{"type":"Point","coordinates":[1.67668,46.78418]},"properties":{"nom":"CRÉ","ag":["Réseau urbain Horizon","Agrégat des réseaux urbains et interurbains du Centre-Val-de-Loire"],"lt":0,"dept":"36"}},{"type":"Feature","geometry":{"type":"Point","coordinates":[1.65531,46.80427]},"properties":{"nom":"CÉCILE SOREL","ag":["Réseau urbain Horizon"],"lt":0,"dept":"36"}},{"type":"Feature","geometry":{"type":"Point","coordinates":[1.70668,46.80321]},"properties":{"nom":"DELACROIX","ag":["Réseau urbain Horizon","Agrégat des réseaux urbains et interurbains du Centre-Val-de-Loire"],"lt":0,"dept":"36"}},{"type":"Feature","geometry":{"type":"Point","coordinates":[1.70662,46.80312]},"properties":{"nom":"DELACROIX","ag":["Réseau urbain Horizon","Agrégat des réseaux urbains et interurbains du Centre-Val-de-Loire"],"lt":0,"dept":"36"}},{"type":"Feature","geometry":{"type":"Point","coordinates":[1.70323,46.80135]},"properties":{"nom":"DESCARTES","ag":["Réseau urbain Horizon","Agrégat des réseaux urbains et interurbains du Centre-Val-de-Loire"],"lt":0,"dept":"36"}},{"type":"Feature","geometry":{"type":"Point","coordinates":[1.70306,46.80134]},"properties":{"nom":"DESCARTES","ag":["Réseau urbain Horizon","Agrégat des réseaux urbains et interurbains du Centre-Val-de-Loire"],"lt":0,"dept":"36"}},{"type":"Feature","geometry":{"type":"Point","coordinates":[1.70949,46.8036]},"properties":{"nom":"DUMAS","ag":["Réseau urbain Horizon","Agrégat des réseaux urbains et interurbains du Centre-Val-de-Loire"],"lt":0,"dept":"36"}},{"type":"Feature","geometry":{"type":"Point","coordinates":[1.70973,46.80359]},"properties":{"nom":"DUMAS","ag":["Réseau urbain Horizon","Agrégat des réseaux urbains et interurbains du Centre-Val-de-Loire"],"lt":0,"dept":"36"}},{"type":"Feature","geometry":{"type":"Point","coordinates":[1.71507,46.80668]},"properties":{"nom":"DUNANT","ag":["Réseau urbain Horizon","Agrégat des réseaux urbains et interurbains du Centre-Val-de-Loire"],"lt":0,"dept":"36"}},{"type":"Feature","geometry":{"type":"Point","coordinates":[1.71484,46.80672]},"properties":{"nom":"DUNANT","ag":["Réseau urbain Horizon","Agrégat des réseaux urbains et interurbains du Centre-Val-de-Loire"],"lt":0,"dept":"36"}},{"type":"Feature","geometry":{"type":"Point","coordinates":[1.69502,46.79927]},"properties":{"nom":"EDMOND AUGRAS","ag":["Réseau urbain Horizon","Agrégat des réseaux urbains et interurbains du Centre-Val-de-Loire"],"lt":0,"dept":"36"}},{"type":"Feature","geometry":{"type":"Point","coordinates":[1.70153,46.7897]},"properties":{"nom":"ÉGUILLON","ag":["Réseau urbain Horizon","Agrégat des réseaux urbains et interurbains du Centre-Val-de-Loire"],"lt":0,"dept":"36"}},{"type":"Feature","geometry":{"type":"Point","coordinates":[1.70094,46.79024]},"properties":{"nom":"ÉGUILLON","ag":["Réseau urbain Horizon","Agrégat des réseaux urbains et interurbains du Centre-Val-de-Loire"],"lt":0,"dept":"36"}},{"type":"Feature","geometry":{"type":"Point","coordinates":[1.69589,46.80302]},"properties":{"nom":"VERDUN","ag":["Réseau urbain Horizon","Agrégat des réseaux urbains et interurbains du Centre-Val-de-Loire"],"lt":0,"dept":"36"}},{"type":"Feature","geometry":{"type":"Point","coordinates":[1.72059,46.81282]},"properties":{"nom":"FADEAUX","ag":["Réseau urbain Horizon","Agrégat des réseaux urbains et interurbains du Centre-Val-de-Loire"],"lt":0,"dept":"36"}},{"type":"Feature","geometry":{"type":"Point","coordinates":[1.71987,46.8129]},"properties":{"nom":"FADEAUX","ag":["Réseau urbain Horizon","Agrégat des réseaux urbains et interurbains du Centre-Val-de-Loire"],"lt":0,"dept":"36"}},{"type":"Feature","geometry":{"type":"Point","coordinates":[1.71237,46.82007]},"properties":{"nom":"FONTCHOIR","ag":["Réseau urbain Horizon","Agrégat des réseaux urbains et interurbains du Centre-Val-de-Loire"],"lt":0,"dept":"36"}},{"type":"Feature","geometry":{"type":"Point","coordinates":[1.71264,46.82008]},"properties":{"nom":"FONTCHOIR","ag":["Réseau urbain Horizon","Agrégat des réseaux urbains et interurbains du Centre-Val-de-Loire"],"lt":0,"dept":"36"}},{"type":"Feature","geometry":{"type":"Point","coordinates":[1.73652,46.79141]},"properties":{"nom":"FORUM","ag":["Réseau urbain Horizon","Agrégat des réseaux urbains et interurbains du Centre-Val-de-Loire"],"lt":0,"dept":"36"}},{"type":"Feature","geometry":{"type":"Point","coordinates":[1.69481,46.8117]},"properties":{"nom":"GAMBETTA","ag":["Réseau urbain Horizon","Agrégat des réseaux urbains et interurbains du Centre-Val-de-Loire"],"lt":0,"dept":"36"}},{"type":"Feature","geometry":{"type":"Point","coordinates":[1.6981,46.80959]},"properties":{"nom":"GARES","ag":["Réseau urbain Horizon","Agrégat des réseaux urbains et interurbains du Centre-Val-de-Loire"],"lt":0,"dept":"36"}},{"type":"Feature","geometry":{"type":"Point","coordinates":[1.69808,46.8095]},"properties":{"nom":"GARES","ag":["Réseau urbain Horizon","Agrégat des réseaux urbains et interurbains du Centre-Val-de-Loire"],"lt":0,"dept":"36"}},{"type":"Feature","geometry":{"type":"Point","coordinates":[1.69542,46.79556]},"properties":{"nom":"GRANDS CHAMPS","ag":["Réseau urbain Horizon","Agrégat des réseaux urbains et interurbains du Centre-Val-de-Loire"],"lt":0,"dept":"36"}},{"type":"Feature","geometry":{"type":"Point","coordinates":[1.69552,46.79562]},"properties":{"nom":"GRANDS CHAMPS","ag":["Réseau urbain Horizon","Agrégat des réseaux urbains et interurbains du Centre-Val-de-Loire"],"lt":0,"dept":"36"}},{"type":"Feature","geometry":{"type":"Point","coordinates":[1.71598,46.80351]},"properties":{"nom":"GENÊTS","ag":["Réseau urbain Horizon","Agrégat des réseaux urbains et interurbains du Centre-Val-de-Loire"],"lt":0,"dept":"36"}},{"type":"Feature","geometry":{"type":"Point","coordinates":[1.71586,46.80347]},"properties":{"nom":"GENÊTS","ag":["Réseau urbain Horizon","Agrégat des réseaux urbains et interurbains du Centre-Val-de-Loire"],"lt":0,"dept":"36"}},{"type":"Feature","geometry":{"type":"Point","coordinates":[1.69674,46.81612]},"properties":{"nom":"GIRAUDOUX","ag":["Réseau urbain Horizon","Agrégat des réseaux urbains et interurbains du Centre-Val-de-Loire"],"lt":0,"dept":"36"}},{"type":"Feature","geometry":{"type":"Point","coordinates":[1.69692,46.81665]},"properties":{"nom":"GIRAUDOUX","ag":["Réseau urbain Horizon","Agrégat des réseaux urbains et interurbains du Centre-Val-de-Loire"],"lt":0,"dept":"36"}},{"type":"Feature","geometry":{"type":"Point","coordinates":[1.69568,46.79328]},"properties":{"nom":"GLYCINES","ag":["Réseau urbain Horizon","Agrégat des réseaux urbains et interurbains du Centre-Val-de-Loire"],"lt":0,"dept":"36"}},{"type":"Feature","geometry":{"type":"Point","coordinates":[1.69557,46.79313]},"properties":{"nom":"GLYCINES","ag":["Réseau urbain Horizon","Agrégat des réseaux urbains et interurbains du Centre-Val-de-Loire"],"lt":0,"dept":"36"}},{"type":"Feature","geometry":{"type":"Point","coordinates":[1.72027,46.80147]},"properties":{"nom":"GASTON PETIT","ag":["Réseau urbain Horizon","Agrégat des réseaux urbains et interurbains du Centre-Val-de-Loire"],"lt":0,"dept":"36"}},{"type":"Feature","geometry":{"type":"Point","coordinates":[1.71922,46.80187]},"properties":{"nom":"GASTON PETIT","ag":["Réseau urbain Horizon","Agrégat des réseaux urbains et interurbains du Centre-Val-de-Loire"],"lt":0,"dept":"36"}},{"type":"Feature","geometry":{"type":"Point","coordinates":[1.67019,46.80146]},"properties":{"nom":"GÉRARD PHILIPE","ag":["Réseau urbain Horizon","Agrégat des réseaux urbains et interurbains du Centre-Val-de-Loire"],"lt":0,"dept":"36"}},{"type":"Feature","geometry":{"type":"Point","coordinates":[1.67037,46.80144]},"properties":{"nom":"GÉRARD PHILIPE","ag":["Réseau urbain Horizon","Agrégat des réseaux urbains et interurbains du Centre-Val-de-Loire"],"lt":0,"dept":"36"}},{"type":"Feature","geometry":{"type":"Point","coordinates":[1.72243,46.79898]},"properties":{"nom":"GRAND POIRIER","ag":["Réseau urbain Horizon","Agrégat des réseaux urbains et interurbains du Centre-Val-de-Loire"],"lt":0,"dept":"36"}},{"type":"Feature","geometry":{"type":"Point","coordinates":[1.72205,46.79891]},"properties":{"nom":"GRAND POIRIER","ag":["Réseau urbain Horizon","Agrégat des réseaux urbains et interurbains du Centre-Val-de-Loire"],"lt":0,"dept":"36"}},{"type":"Feature","geometry":{"type":"Point","coordinates":[1.67836,46.79853]},"properties":{"nom":"GROUAILLES","ag":["Réseau urbain Horizon","Agrégat des réseaux urbains et interurbains du Centre-Val-de-Loire"],"lt":0,"dept":"36"}},{"type":"Feature","geometry":{"type":"Point","coordinates":[1.67836,46.79866]},"properties":{"nom":"GROUAILLES","ag":["Réseau urbain Horizon","Agrégat des réseaux urbains et interurbains du Centre-Val-de-Loire"],"lt":0,"dept":"36"}},{"type":"Feature","geometry":{"type":"Point","coordinates":[1.73019,46.80754]},"properties":{"nom":"GUINARD","ag":["Réseau urbain Horizon","Agrégat des réseaux urbains et interurbains du Centre-Val-de-Loire"],"lt":0,"dept":"36"}},{"type":"Feature","geometry":{"type":"Point","coordinates":[1.73029,46.80741]},"properties":{"nom":"GUINARD","ag":["Réseau urbain Horizon","Agrégat des réseaux urbains et interurbains du Centre-Val-de-Loire"],"lt":0,"dept":"36"}},{"type":"Feature","geometry":{"type":"Point","coordinates":[1.66646,46.79371]},"properties":{"nom":"HERVÉ FAYE","ag":["Réseau urbain Horizon","Agrégat des réseaux urbains et interurbains du Centre-Val-de-Loire"],"lt":0,"dept":"36"}},{"type":"Feature","geometry":{"type":"Point","coordinates":[1.66647,46.79378]},"properties":{"nom":"HERVÉ FAYE","ag":["Réseau urbain Horizon"],"lt":0,"dept":"36"}},{"type":"Feature","geometry":{"type":"Point","coordinates":[1.67014,46.80543]},"properties":{"nom":"HIPPODROME","ag":["Réseau urbain Horizon","Agrégat des réseaux urbains et interurbains du Centre-Val-de-Loire"],"lt":0,"dept":"36"}},{"type":"Feature","geometry":{"type":"Point","coordinates":[1.67042,46.8055]},"properties":{"nom":"HIPPODROME","ag":["Réseau urbain Horizon","Agrégat des réseaux urbains et interurbains du Centre-Val-de-Loire"],"lt":0,"dept":"36"}},{"type":"Feature","geometry":{"type":"Point","coordinates":[1.6979,46.79905]},"properties":{"nom":"HÔPITAL","ag":["Réseau urbain Horizon","Agrégat des réseaux urbains et interurbains du Centre-Val-de-Loire"],"lt":0,"dept":"36"}},{"type":"Feature","geometry":{"type":"Point","coordinates":[1.69819,46.79852]},"properties":{"nom":"HÔPITAL","ag":["Réseau urbain Horizon","Agrégat des réseaux urbains et interurbains du Centre-Val-de-Loire"],"lt":0,"dept":"36"}},{"type":"Feature","geometry":{"type":"Point","coordinates":[1.69185,46.811]},"properties":{"nom":"HÔTEL DE VILLE","ag":["Réseau urbain Horizon","Agrégat des réseaux urbains et interurbains du Centre-Val-de-Loire"],"lt":0,"dept":"36"}},{"type":"Feature","geometry":{"type":"Point","coordinates":[1.68331,46.81126]},"properties":{"nom":"IUT","ag":["Réseau urbain Horizon","Agrégat des réseaux urbains et interurbains du Centre-Val-de-Loire"],"lt":0,"dept":"36"}},{"type":"Feature","geometry":{"type":"Point","coordinates":[1.68386,46.81121]},"properties":{"nom":"IUT","ag":["Réseau urbain Horizon","Agrégat des réseaux urbains et interurbains du Centre-Val-de-Loire"],"lt":0,"dept":"36"}},{"type":"Feature","geometry":{"type":"Point","coordinates":[1.71161,46.79272]},"properties":{"nom":"JEAN D'ALEMBERT","ag":["Réseau urbain Horizon","Agrégat des réseaux urbains et interurbains du Centre-Val-de-Loire"],"lt":0,"dept":"36"}},{"type":"Feature","geometry":{"type":"Point","coordinates":[1.71144,46.79282]},"properties":{"nom":"JEAN D'ALEMBERT","ag":["Réseau urbain Horizon","Agrégat des réseaux urbains et interurbains du Centre-Val-de-Loire"],"lt":0,"dept":"36"}},{"type":"Feature","geometry":{"type":"Point","coordinates":[1.70752,46.81374]},"properties":{"nom":"JEANNE D'ARC","ag":["Réseau urbain Horizon","Agrégat des réseaux urbains et interurbains du Centre-Val-de-Loire"],"lt":0,"dept":"36"}},{"type":"Feature","geometry":{"type":"Point","coordinates":[1.7076,46.81352]},"properties":{"nom":"JEANNE D'ARC","ag":["Réseau urbain Horizon","Agrégat des réseaux urbains et interurbains du Centre-Val-de-Loire"],"lt":0,"dept":"36"}},{"type":"Feature","geometry":{"type":"Point","coordinates":[1.67955,46.8061]},"properties":{"nom":"JULES FERRY","ag":["Réseau urbain Horizon","Agrégat des réseaux urbains et interurbains du Centre-Val-de-Loire"],"lt":0,"dept":"36"}},{"type":"Feature","geometry":{"type":"Point","coordinates":[1.67974,46.80596]},"properties":{"nom":"JULES FERRY","ag":["Réseau urbain Horizon","Agrégat des réseaux urbains et interurbains du Centre-Val-de-Loire"],"lt":0,"dept":"36"}},{"type":"Feature","geometry":{"type":"Point","coordinates":[1.71849,46.79791]},"properties":{"nom":"JEAN MONNET","ag":["Réseau urbain Horizon","Agrégat des réseaux urbains et interurbains du Centre-Val-de-Loire"],"lt":0,"dept":"36"}},{"type":"Feature","geometry":{"type":"Point","coordinates":[1.71847,46.79778]},"properties":{"nom":"JEAN MONNET","ag":["Réseau urbain Horizon","Agrégat des réseaux urbains et interurbains du Centre-Val-de-Loire"],"lt":0,"dept":"36"}},{"type":"Feature","geometry":{"type":"Point","coordinates":[1.68808,46.81854]},"properties":{"nom":"JEAN RACINE","ag":["Réseau urbain Horizon","Agrégat des réseaux urbains et interurbains du Centre-Val-de-Loire"],"lt":0,"dept":"36"}},{"type":"Feature","geometry":{"type":"Point","coordinates":[1.68759,46.81868]},"properties":{"nom":"JEAN RACINE","ag":["Réseau urbain Horizon","Agrégat des réseaux urbains et interurbains du Centre-Val-de-Loire"],"lt":0,"dept":"36"}},{"type":"Feature","geometry":{"type":"Point","coordinates":[1.70905,46.81649]},"properties":{"nom":"JEAN ZAY","ag":["Réseau urbain Horizon","Agrégat des réseaux urbains et interurbains du Centre-Val-de-Loire"],"lt":0,"dept":"36"}},{"type":"Feature","geometry":{"type":"Point","coordinates":[1.70884,46.81579]},"properties":{"nom":"JEAN ZAY","ag":["Réseau urbain Horizon","Agrégat des réseaux urbains et interurbains du Centre-Val-de-Loire"],"lt":0,"dept":"36"}},{"type":"Feature","geometry":{"type":"Point","coordinates":[1.69233,46.79916]},"properties":{"nom":"KENNEDY","ag":["Réseau urbain Horizon","Agrégat des réseaux urbains et interurbains du Centre-Val-de-Loire"],"lt":0,"dept":"36"}},{"type":"Feature","geometry":{"type":"Point","coordinates":[1.69124,46.78608]},"properties":{"nom":"LYCÉE AGRICOLE","ag":["Réseau urbain Horizon","Agrégat des réseaux urbains et interurbains du Centre-Val-de-Loire"],"lt":0,"dept":"36"}},{"type":"Feature","geometry":{"type":"Point","coordinates":[1.69191,46.79285]},"properties":{"nom":"LAURIERS","ag":["Réseau urbain Horizon","Agrégat des réseaux urbains et interurbains du Centre-Val-de-Loire"],"lt":0,"dept":"36"}},{"type":"Feature","geometry":{"type":"Point","coordinates":[1.69232,46.79274]},"properties":{"nom":"LAURIERS","ag":["Réseau urbain Horizon","Agrégat des réseaux urbains et interurbains du Centre-Val-de-Loire"],"lt":0,"dept":"36"}},{"type":"Feature","geometry":{"type":"Point","coordinates":[1.68845,46.80305]},"properties":{"nom":"LA LOGE","ag":["Réseau urbain Horizon","Agrégat des réseaux urbains et interurbains du Centre-Val-de-Loire"],"lt":0,"dept":"36"}},{"type":"Feature","geometry":{"type":"Point","coordinates":[1.68776,46.80232]},"properties":{"nom":"LA LOGE","ag":["Réseau urbain Horizon","Agrégat des réseaux urbains et interurbains du Centre-Val-de-Loire"],"lt":0,"dept":"36"}},{"type":"Feature","geometry":{"type":"Point","coordinates":[1.70328,46.80339]},"properties":{"nom":"BERNARD LOUVET","ag":["Réseau urbain Horizon","Agrégat des réseaux urbains et interurbains du Centre-Val-de-Loire"],"lt":0,"dept":"36"}},{"type":"Feature","geometry":{"type":"Point","coordinates":[1.70349,46.80308]},"properties":{"nom":"BERNARD LOUVET","ag":["Réseau urbain Horizon","Agrégat des réseaux urbains et interurbains du Centre-Val-de-Loire"],"lt":0,"dept":"36"}},{"type":"Feature","geometry":{"type":"Point","coordinates":[1.69665,46.81095]},"properties":{"nom":"LEDRU ROLLIN","ag":["Réseau urbain Horizon","Agrégat des réseaux urbains et interurbains du Centre-Val-de-Loire"],"lt":0,"dept":"36"}},{"type":"Feature","geometry":{"type":"Point","coordinates":[1.71845,46.80492]},"properties":{"nom":"LYAUTEY","ag":["Réseau urbain Horizon","Agrégat des réseaux urbains et interurbains du Centre-Val-de-Loire"],"lt":0,"dept":"36"}},{"type":"Feature","geometry":{"type":"Point","coordinates":[1.71893,46.80463]},"properties":{"nom":"LYAUTEY","ag":["Réseau urbain Horizon","Agrégat des réseaux urbains et interurbains du Centre-Val-de-Loire"],"lt":0,"dept":"36"}},{"type":"Feature","geometry":{"type":"Point","coordinates":[1.69999,46.80437]},"properties":{"nom":"8 MAI","ag":["Réseau urbain Horizon","Agrégat des réseaux urbains et interurbains du Centre-Val-de-Loire"],"lt":0,"dept":"36"}},{"type":"Feature","geometry":{"type":"Point","coordinates":[1.69983,46.8043]},"properties":{"nom":"8 MAI","ag":["Réseau urbain Horizon","Agrégat des réseaux urbains et interurbains du Centre-Val-de-Loire"],"lt":0,"dept":"36"}},{"type":"Feature","geometry":{"type":"Point","coordinates":[1.7127,46.79155]},"properties":{"nom":"MARGOTIÈRE","ag":["Réseau urbain Horizon","Agrégat des réseaux urbains et interurbains du Centre-Val-de-Loire"],"lt":0,"dept":"36"}},{"type":"Feature","geometry":{"type":"Point","coordinates":[1.71315,46.79141]},"properties":{"nom":"MARGOTIÈRE","ag":["Réseau urbain Horizon","Agrégat des réseaux urbains et interurbains du Centre-Val-de-Loire"],"lt":0,"dept":"36"}},{"type":"Feature","geometry":{"type":"Point","coordinates":[1.72464,46.7994]},"properties":{"nom":"MARCEL DUSSAULT","ag":["Réseau urbain Horizon","Agrégat des réseaux urbains et interurbains du Centre-Val-de-Loire"],"lt":0,"dept":"36"}},{"type":"Feature","geometry":{"type":"Point","coordinates":[1.72495,46.79916]},"properties":{"nom":"MARCEL DUSSAULT","ag":["Réseau urbain Horizon","Agrégat des réseaux urbains et interurbains du Centre-Val-de-Loire"],"lt":0,"dept":"36"}},{"type":"Feature","geometry":{"type":"Point","coordinates":[1.69091,46.80876]},"properties":{"nom":"MÉDIATHÈQUE","ag":["Réseau urbain Horizon","Agrégat des réseaux urbains et interurbains du Centre-Val-de-Loire"],"lt":0,"dept":"36"}},{"type":"Feature","geometry":{"type":"Point","coordinates":[1.69015,46.80891]},"properties":{"nom":"MÉDIATHÈQUE","ag":["Réseau urbain Horizon","Agrégat des réseaux urbains et interurbains du Centre-Val-de-Loire"],"lt":0,"dept":"36"}},{"type":"Feature","geometry":{"type":"Point","coordinates":[1.68042,46.81116]},"properties":{"nom":"MENDES FRANCE","ag":["Réseau urbain Horizon"],"lt":0,"dept":"36"}},{"type":"Feature","geometry":{"type":"Point","coordinates":[1.67973,46.81106]},"properties":{"nom":"MENDES FRANCE","ag":["Réseau urbain Horizon","Agrégat des réseaux urbains et interurbains du Centre-Val-de-Loire"],"lt":0,"dept":"36"}},{"type":"Feature","geometry":{"type":"Point","coordinates":[1.67175,46.80542]},"properties":{"nom":"MAX HYMANS","ag":["Réseau urbain Horizon","Agrégat des réseaux urbains et interurbains du Centre-Val-de-Loire"],"lt":0,"dept":"36"}},{"type":"Feature","geometry":{"type":"Point","coordinates":[1.67272,46.80496]},"properties":{"nom":"MAX HYMANS","ag":["Réseau urbain Horizon","Agrégat des réseaux urbains et interurbains du Centre-Val-de-Loire"],"lt":0,"dept":"36"}},{"type":"Feature","geometry":{"type":"Point","coordinates":[1.71405,46.80005]},"properties":{"nom":"MIRABEAU","ag":["Réseau urbain Horizon","Agrégat des réseaux urbains et interurbains du Centre-Val-de-Loire"],"lt":0,"dept":"36"}},{"type":"Feature","geometry":{"type":"Point","coordinates":[1.71323,46.80094]},"properties":{"nom":"MIRABEAU","ag":["Réseau urbain Horizon","Agrégat des réseaux urbains et interurbains du Centre-Val-de-Loire"],"lt":0,"dept":"36"}},{"type":"Feature","geometry":{"type":"Point","coordinates":[1.70755,46.79574]},"properties":{"nom":"MONTAIGNE","ag":["Réseau urbain Horizon","Agrégat des réseaux urbains et interurbains du Centre-Val-de-Loire"],"lt":0,"dept":"36"}},{"type":"Feature","geometry":{"type":"Point","coordinates":[1.70717,46.79552]},"properties":{"nom":"MONTAIGNE","ag":["Réseau urbain Horizon","Agrégat des réseaux urbains et interurbains du Centre-Val-de-Loire"],"lt":0,"dept":"36"}},{"type":"Feature","geometry":{"type":"Point","coordinates":[1.69076,46.78662]},"properties":{"nom":"NATURAPOLIS","ag":["Réseau urbain Horizon","Agrégat des réseaux urbains et interurbains du Centre-Val-de-Loire"],"lt":0,"dept":"36"}},{"type":"Feature","geometry":{"type":"Point","coordinates":[1.69053,46.78577]},"properties":{"nom":"NATURAPOLIS","ag":["Réseau urbain Horizon","Agrégat des réseaux urbains et interurbains du Centre-Val-de-Loire"],"lt":0,"dept":"36"}},{"type":"Feature","geometry":{"type":"Point","coordinates":[1.66717,46.7915]},"properties":{"nom":"NOTZ","ag":["Réseau urbain Horizon","Agrégat des réseaux urbains et interurbains du Centre-Val-de-Loire"],"lt":0,"dept":"36"}},{"type":"Feature","geometry":{"type":"Point","coordinates":[1.66723,46.79105]},"properties":{"nom":"NOTZ","ag":["Réseau urbain Horizon","Agrégat des réseaux urbains et interurbains du Centre-Val-de-Loire"],"lt":0,"dept":"36"}},{"type":"Feature","geometry":{"type":"Point","coordinates":[1.70837,46.79396]},"properties":{"nom":"OSCAR NIEMEYER","ag":["Réseau urbain Horizon","Agrégat des réseaux urbains et interurbains du Centre-Val-de-Loire"],"lt":0,"dept":"36"}},{"type":"Feature","geometry":{"type":"Point","coordinates":[1.70856,46.79368]},"properties":{"nom":"OSCAR NIEMEYER","ag":["Réseau urbain Horizon","Agrégat des réseaux urbains et interurbains du Centre-Val-de-Loire"],"lt":0,"dept":"36"}},{"type":"Feature","geometry":{"type":"Point","coordinates":[1.68284,46.78964]},"properties":{"nom":"ORANGEONS","ag":["Réseau urbain Horizon","Agrégat des réseaux urbains et interurbains du Centre-Val-de-Loire"],"lt":0,"dept":"36"}},{"type":"Feature","geometry":{"type":"Point","coordinates":[1.68263,46.78943]},"properties":{"nom":"ORANGEONS","ag":["Réseau urbain Horizon","Agrégat des réseaux urbains et interurbains du Centre-Val-de-Loire"],"lt":0,"dept":"36"}},{"type":"Feature","geometry":{"type":"Point","coordinates":[1.69199,46.80275]},"properties":{"nom":"PASSAGEON","ag":["Réseau urbain Horizon","Agrégat des réseaux urbains et interurbains du Centre-Val-de-Loire"],"lt":0,"dept":"36"}},{"type":"Feature","geometry":{"type":"Point","coordinates":[1.70614,46.78363]},"properties":{"nom":"PATUREAU FRANCŒUR","ag":["Réseau urbain Horizon","Agrégat des réseaux urbains et interurbains du Centre-Val-de-Loire"],"lt":0,"dept":"36"}},{"type":"Feature","geometry":{"type":"Point","coordinates":[1.70602,46.78376]},"properties":{"nom":"PATUREAU FRANCŒUR","ag":["Réseau urbain Horizon","Agrégat des réseaux urbains et interurbains du Centre-Val-de-Loire"],"lt":0,"dept":"36"}},{"type":"Feature","geometry":{"type":"Point","coordinates":[1.73696,46.80273]},"properties":{"nom":"PIER AUGÉ","ag":["Réseau urbain Horizon","Agrégat des réseaux urbains et interurbains du Centre-Val-de-Loire"],"lt":0,"dept":"36"}},{"type":"Feature","geometry":{"type":"Point","coordinates":[1.73744,46.80232]},"properties":{"nom":"PIER AUGÉ","ag":["Réseau urbain Horizon","Agrégat des réseaux urbains et interurbains du Centre-Val-de-Loire"],"lt":0,"dept":"36"}},{"type":"Feature","geometry":{"type":"Point","coordinates":[1.70741,46.8098]},"properties":{"nom":"PIERRE ET MARIE CURIE","ag":["Réseau urbain Horizon","Agrégat des réseaux urbains et interurbains du Centre-Val-de-Loire"],"lt":0,"dept":"36"}},{"type":"Feature","geometry":{"type":"Point","coordinates":[1.70753,46.80968]},"properties":{"nom":"PIERRE ET MARIE CURIE","ag":["Réseau urbain Horizon","Agrégat des réseaux urbains et interurbains du Centre-Val-de-Loire"],"lt":0,"dept":"36"}},{"type":"Feature","geometry":{"type":"Point","coordinates":[1.68473,46.81994]},"properties":{"nom":"PERRIÈRES","ag":["Réseau urbain Horizon","Agrégat des réseaux urbains et interurbains du Centre-Val-de-Loire"],"lt":0,"dept":"36"}},{"type":"Feature","geometry":{"type":"Point","coordinates":[1.68491,46.81978]},"properties":{"nom":"PERRIÈRES","ag":["Réseau urbain Horizon","Agrégat des réseaux urbains et interurbains du Centre-Val-de-Loire"],"lt":0,"dept":"36"}},{"type":"Feature","geometry":{"type":"Point","coordinates":[1.68198,46.82048]},"properties":{"nom":"POINT DU JOUR","ag":["Réseau urbain Horizon","Agrégat des réseaux urbains et interurbains du Centre-Val-de-Loire"],"lt":0,"dept":"36"}},{"type":"Feature","geometry":{"type":"Point","coordinates":[1.68193,46.82041]},"properties":{"nom":"POINT DU JOUR","ag":["Réseau urbain Horizon","Agrégat des réseaux urbains et interurbains du Centre-Val-de-Loire"],"lt":0,"dept":"36"}},{"type":"Feature","geometry":{"type":"Point","coordinates":[1.70532,46.79817]},"properties":{"nom":"PIERRE LOTI","ag":["Réseau urbain Horizon","Agrégat des réseaux urbains et interurbains du Centre-Val-de-Loire"],"lt":0,"dept":"36"}},{"type":"Feature","geometry":{"type":"Point","coordinates":[1.70572,46.79778]},"properties":{"nom":"PIERRE LOTI","ag":["Réseau urbain Horizon","Agrégat des réseaux urbains et interurbains du Centre-Val-de-Loire"],"lt":0,"dept":"36"}},{"type":"Feature","geometry":{"type":"Point","coordinates":[1.664,46.7933]},"properties":{"nom":"PRÉ NAUDIN","ag":["Réseau urbain Horizon","Agrégat des réseaux urbains et interurbains du Centre-Val-de-Loire"],"lt":0,"dept":"36"}},{"type":"Feature","geometry":{"type":"Point","coordinates":[1.65555,46.80318]},"properties":{"nom":"POINTERIE","ag":["Réseau urbain Horizon"],"lt":0,"dept":"36"}},{"type":"Feature","geometry":{"type":"Point","coordinates":[1.65646,46.80318]},"properties":{"nom":"POINTERIE","ag":["Réseau urbain Horizon"],"lt":0,"dept":"36"}},{"type":"Feature","geometry":{"type":"Point","coordinates":[1.69388,46.80953]},"properties":{"nom":"POSTE","ag":["Réseau urbain Horizon","Agrégat des réseaux urbains et interurbains du Centre-Val-de-Loire"],"lt":0,"dept":"36"}},{"type":"Feature","geometry":{"type":"Point","coordinates":[1.69416,46.80979]},"properties":{"nom":"POSTE","ag":["Réseau urbain Horizon","Agrégat des réseaux urbains et interurbains du Centre-Val-de-Loire"],"lt":0,"dept":"36"}},{"type":"Feature","geometry":{"type":"Point","coordinates":[1.68669,46.81077]},"properties":{"nom":"PRÉFECTURE","ag":["Réseau urbain Horizon","Agrégat des réseaux urbains et interurbains du Centre-Val-de-Loire"],"lt":0,"dept":"36"}},{"type":"Feature","geometry":{"type":"Point","coordinates":[1.68574,46.81109]},"properties":{"nom":"PRÉFECTURE","ag":["Réseau urbain Horizon","Agrégat des réseaux urbains et interurbains du Centre-Val-de-Loire"],"lt":0,"dept":"36"}},{"type":"Feature","geometry":{"type":"Point","coordinates":[1.6774,46.80478]},"properties":{"nom":"PROVENCE","ag":["Réseau urbain Horizon","Agrégat des réseaux urbains et interurbains du Centre-Val-de-Loire"],"lt":0,"dept":"36"}},{"type":"Feature","geometry":{"type":"Point","coordinates":[1.67761,46.8051]},"properties":{"nom":"PROVENCE","ag":["Réseau urbain Horizon","Agrégat des réseaux urbains et interurbains du Centre-Val-de-Loire"],"lt":0,"dept":"36"}},{"type":"Feature","geometry":{"type":"Point","coordinates":[1.7088,46.79656]},"properties":{"nom":"PAUL VALÉRY","ag":["Réseau urbain Horizon","Agrégat des réseaux urbains et interurbains du Centre-Val-de-Loire"],"lt":0,"dept":"36"}},{"type":"Feature","geometry":{"type":"Point","coordinates":[1.70855,46.79649]},"properties":{"nom":"PAUL VALÉRY","ag":["Réseau urbain Horizon","Agrégat des réseaux urbains et interurbains du Centre-Val-de-Loire"],"lt":0,"dept":"36"}},{"type":"Feature","geometry":{"type":"Point","coordinates":[1.69113,46.79101]},"properties":{"nom":"QUATRE VENTS","ag":["Réseau urbain Horizon","Agrégat des réseaux urbains et interurbains du Centre-Val-de-Loire"],"lt":0,"dept":"36"}},{"type":"Feature","geometry":{"type":"Point","coordinates":[1.69119,46.79147]},"properties":{"nom":"QUATRE VENTS","ag":["Réseau urbain Horizon","Agrégat des réseaux urbains et interurbains du Centre-Val-de-Loire"],"lt":0,"dept":"36"}},{"type":"Feature","geometry":{"type":"Point","coordinates":[1.66776,46.80276]},"properties":{"nom":"RAIMU","ag":["Réseau urbain Horizon","Agrégat des réseaux urbains et interurbains du Centre-Val-de-Loire"],"lt":0,"dept":"36"}},{"type":"Feature","geometry":{"type":"Point","coordinates":[1.66768,46.80295]},"properties":{"nom":"RAIMU","ag":["Réseau urbain Horizon","Agrégat des réseaux urbains et interurbains du Centre-Val-de-Loire"],"lt":0,"dept":"36"}},{"type":"Feature","geometry":{"type":"Point","coordinates":[1.67762,46.82084]},"properties":{"nom":"MIRAND","ag":["Réseau urbain Horizon","Agrégat des réseaux urbains et interurbains du Centre-Val-de-Loire"],"lt":0,"dept":"36"}},{"type":"Feature","geometry":{"type":"Point","coordinates":[1.67717,46.82093]},"properties":{"nom":"MIRAND","ag":["Réseau urbain Horizon","Agrégat des réseaux urbains et interurbains du Centre-Val-de-Loire"],"lt":0,"dept":"36"}},{"type":"Feature","geometry":{"type":"Point","coordinates":[1.71336,46.80981]},"properties":{"nom":"RAVEL","ag":["Réseau urbain Horizon","Agrégat des réseaux urbains et interurbains du Centre-Val-de-Loire"],"lt":0,"dept":"36"}},{"type":"Feature","geometry":{"type":"Point","coordinates":[1.71345,46.80982]},"properties":{"nom":"RAVEL","ag":["Réseau urbain Horizon","Agrégat des réseaux urbains et interurbains du Centre-Val-de-Loire"],"lt":0,"dept":"36"}},{"type":"Feature","geometry":{"type":"Point","coordinates":[1.69957,46.79395]},"properties":{"nom":"ROGER COUDERC","ag":["Réseau urbain Horizon","Agrégat des réseaux urbains et interurbains du Centre-Val-de-Loire"],"lt":0,"dept":"36"}},{"type":"Feature","geometry":{"type":"Point","coordinates":[1.69966,46.79401]},"properties":{"nom":"ROGER COUDERC","ag":["Réseau urbain Horizon","Agrégat des réseaux urbains et interurbains du Centre-Val-de-Loire"],"lt":0,"dept":"36"}},{"type":"Feature","geometry":{"type":"Point","coordinates":[1.69089,46.81041]},"properties":{"nom":"RÉPUBLIQUE","ag":["Réseau urbain Horizon","Agrégat des réseaux urbains et interurbains du Centre-Val-de-Loire"],"lt":0,"dept":"36"}},{"type":"Feature","geometry":{"type":"Point","coordinates":[1.69098,46.8104]},"properties":{"nom":"RÉPUBLIQUE","ag":["Réseau urbain Horizon","Agrégat des réseaux urbains et interurbains du Centre-Val-de-Loire"],"lt":0,"dept":"36"}},{"type":"Feature","geometry":{"type":"Point","coordinates":[1.71519,46.81227]},"properties":{"nom":"ROLAND GARROS","ag":["Réseau urbain Horizon","Agrégat des réseaux urbains et interurbains du Centre-Val-de-Loire"],"lt":0,"dept":"36"}},{"type":"Feature","geometry":{"type":"Point","coordinates":[1.71515,46.81223]},"properties":{"nom":"ROLAND GARROS","ag":["Réseau urbain Horizon","Agrégat des réseaux urbains et interurbains du Centre-Val-de-Loire"],"lt":0,"dept":"36"}},{"type":"Feature","geometry":{"type":"Point","coordinates":[1.67678,46.80822]},"properties":{"nom":"MARINS","ag":["Réseau urbain Horizon","Agrégat des réseaux urbains et interurbains du Centre-Val-de-Loire"],"lt":0,"dept":"36"}},{"type":"Feature","geometry":{"type":"Point","coordinates":[1.67629,46.80932]},"properties":{"nom":"MARINS","ag":["Réseau urbain Horizon","Agrégat des réseaux urbains et interurbains du Centre-Val-de-Loire"],"lt":0,"dept":"36"}},{"type":"Feature","geometry":{"type":"Point","coordinates":[1.68105,46.80082]},"properties":{"nom":"RATOUIS DE LIMAY","ag":["Réseau urbain Horizon","Agrégat des réseaux urbains et interurbains du Centre-Val-de-Loire"],"lt":0,"dept":"36"}},{"type":"Feature","geometry":{"type":"Point","coordinates":[1.68078,46.80083]},"properties":{"nom":"RATOUIS DE LIMAY","ag":["Réseau urbain Horizon","Agrégat des réseaux urbains et interurbains du Centre-Val-de-Loire"],"lt":0,"dept":"36"}},{"type":"Feature","geometry":{"type":"Point","coordinates":[1.69769,46.8236]},"properties":{"nom":"ROCHAT","ag":["Réseau urbain Horizon","Agrégat des réseaux urbains et interurbains du Centre-Val-de-Loire"],"lt":0,"dept":"36"}},{"type":"Feature","geometry":{"type":"Point","coordinates":[1.69779,46.82337]},"properties":{"nom":"ROCHAT","ag":["Réseau urbain Horizon","Agrégat des réseaux urbains et interurbains du Centre-Val-de-Loire"],"lt":0,"dept":"36"}},{"type":"Feature","geometry":{"type":"Point","coordinates":[1.67194,46.82164]},"properties":{"nom":"ROCHEFORTS","ag":["Réseau urbain Horizon","Agrégat des réseaux urbains et interurbains du Centre-Val-de-Loire"],"lt":0,"dept":"36"}},{"type":"Feature","geometry":{"type":"Point","coordinates":[1.67185,46.82059]},"properties":{"nom":"ROCHEFORTS","ag":["Réseau urbain Horizon","Agrégat des réseaux urbains et interurbains du Centre-Val-de-Loire"],"lt":0,"dept":"36"}},{"type":"Feature","geometry":{"type":"Point","coordinates":[1.67575,46.81102]},"properties":{"nom":"BALSAN'ÉO","ag":["Réseau urbain Horizon","Agrégat des réseaux urbains et interurbains du Centre-Val-de-Loire"],"lt":0,"dept":"36"}},{"type":"Feature","geometry":{"type":"Point","coordinates":[1.67644,46.811]},"properties":{"nom":"BALSAN'ÉO","ag":["Réseau urbain Horizon","Agrégat des réseaux urbains et interurbains du Centre-Val-de-Loire"],"lt":0,"dept":"36"}},{"type":"Feature","geometry":{"type":"Point","coordinates":[1.65917,46.80343]},"properties":{"nom":"SARAH BERNHARDT","ag":["Réseau urbain Horizon","Agrégat des réseaux urbains et interurbains du Centre-Val-de-Loire"],"lt":0,"dept":"36"}},{"type":"Feature","geometry":{"type":"Point","coordinates":[1.65972,46.80341]},"properties":{"nom":"SARAH BERNHARDT","ag":["Réseau urbain Horizon","Agrégat des réseaux urbains et interurbains du Centre-Val-de-Loire"],"lt":0,"dept":"36"}},{"type":"Feature","geometry":{"type":"Point","coordinates":[1.70772,46.80742]},"properties":{"nom":"SCHUMAN","ag":["Réseau urbain Horizon","Agrégat des réseaux urbains et interurbains du Centre-Val-de-Loire"],"lt":0,"dept":"36"}},{"type":"Feature","geometry":{"type":"Point","coordinates":[1.70698,46.80768]},"properties":{"nom":"SCHUMAN","ag":["Réseau urbain Horizon","Agrégat des réseaux urbains et interurbains du Centre-Val-de-Loire"],"lt":0,"dept":"36"}},{"type":"Feature","geometry":{"type":"Point","coordinates":[1.70667,46.81854]},"properties":{"nom":"SAINT-DENIS","ag":["Réseau urbain Horizon","Agrégat des réseaux urbains et interurbains du Centre-Val-de-Loire"],"lt":0,"dept":"36"}},{"type":"Feature","geometry":{"type":"Point","coordinates":[1.7067,46.8186]},"properties":{"nom":"SAINT-DENIS","ag":["Réseau urbain Horizon","Agrégat des réseaux urbains et interurbains du Centre-Val-de-Loire"],"lt":0,"dept":"36"}},{"type":"Feature","geometry":{"type":"Point","coordinates":[1.7185,46.79192]},"properties":{"nom":"DE SÉGUR","ag":["Réseau urbain Horizon","Agrégat des réseaux urbains et interurbains du Centre-Val-de-Loire"],"lt":0,"dept":"36"}},{"type":"Feature","geometry":{"type":"Point","coordinates":[1.71834,46.79191]},"properties":{"nom":"DE SÉGUR","ag":["Réseau urbain Horizon","Agrégat des réseaux urbains et interurbains du Centre-Val-de-Loire"],"lt":0,"dept":"36"}},{"type":"Feature","geometry":{"type":"Point","coordinates":[1.6965,46.81377]},"properties":{"nom":"SAINTE-HÉLÈNE","ag":["Réseau urbain Horizon","Agrégat des réseaux urbains et interurbains du Centre-Val-de-Loire"],"lt":0,"dept":"36"}},{"type":"Feature","geometry":{"type":"Point","coordinates":[1.69705,46.8138]},"properties":{"nom":"SAINTE-HÉLÈNE","ag":["Réseau urbain Horizon","Agrégat des réseaux urbains et interurbains du Centre-Val-de-Loire"],"lt":0,"dept":"36"}},{"type":"Feature","geometry":{"type":"Point","coordinates":[1.71486,46.79903]},"properties":{"nom":"SAINT-JACQUES","ag":["Réseau urbain Horizon","Agrégat des réseaux urbains et interurbains du Centre-Val-de-Loire"],"lt":0,"dept":"36"}},{"type":"Feature","geometry":{"type":"Point","coordinates":[1.71476,46.799]},"properties":{"nom":"SAINT-JACQUES","ag":["Réseau urbain Horizon","Agrégat des réseaux urbains et interurbains du Centre-Val-de-Loire"],"lt":0,"dept":"36"}},{"type":"Feature","geometry":{"type":"Point","coordinates":[1.6977,46.81232]},"properties":{"nom":"SAINT-LUC","ag":["Réseau urbain Horizon","Agrégat des réseaux urbains et interurbains du Centre-Val-de-Loire"],"lt":0,"dept":"36"}},{"type":"Feature","geometry":{"type":"Point","coordinates":[1.69787,46.81233]},"properties":{"nom":"SAINT-LUC","ag":["Réseau urbain Horizon","Agrégat des réseaux urbains et interurbains du Centre-Val-de-Loire"],"lt":0,"dept":"36"}},{"type":"Feature","geometry":{"type":"Point","coordinates":[1.69724,46.82]},"properties":{"nom":"SOUPIRS","ag":["Réseau urbain Horizon","Agrégat des réseaux urbains et interurbains du Centre-Val-de-Loire"],"lt":0,"dept":"36"}},{"type":"Feature","geometry":{"type":"Point","coordinates":[1.69738,46.81995]},"properties":{"nom":"SOUPIRS","ag":["Réseau urbain Horizon","Agrégat des réseaux urbains et interurbains du Centre-Val-de-Loire"],"lt":0,"dept":"36"}},{"type":"Feature","geometry":{"type":"Point","coordinates":[1.70404,46.78752]},"properties":{"nom":"SKATE PARK","ag":["Réseau urbain Horizon","Agrégat des réseaux urbains et interurbains du Centre-Val-de-Loire"],"lt":0,"dept":"36"}},{"type":"Feature","geometry":{"type":"Point","coordinates":[1.70391,46.7874]},"properties":{"nom":"SKATE PARK","ag":["Réseau urbain Horizon","Agrégat des réseaux urbains et interurbains du Centre-Val-de-Loire"],"lt":0,"dept":"36"}},{"type":"Feature","geometry":{"type":"Point","coordinates":[1.68069,46.80761]},"properties":{"nom":"SAINT-PIERRE","ag":["Réseau urbain Horizon","Agrégat des réseaux urbains et interurbains du Centre-Val-de-Loire"],"lt":0,"dept":"36"}},{"type":"Feature","geometry":{"type":"Point","coordinates":[1.66736,46.80457]},"properties":{"nom":"CHÂTELLERAULT","ag":["Réseau urbain Horizon","Agrégat des réseaux urbains et interurbains du Centre-Val-de-Loire"],"lt":0,"dept":"36"}},{"type":"Feature","geometry":{"type":"Point","coordinates":[1.66639,46.80419]},"properties":{"nom":"CHÂTELLERAULT","ag":["Réseau urbain Horizon","Agrégat des réseaux urbains et interurbains du Centre-Val-de-Loire"],"lt":0,"dept":"36"}},{"type":"Feature","geometry":{"type":"Point","coordinates":[1.66644,46.79668]},"properties":{"nom":"TOUTIFAUT","ag":["Réseau urbain Horizon","Agrégat des réseaux urbains et interurbains du Centre-Val-de-Loire"],"lt":0,"dept":"36"}},{"type":"Feature","geometry":{"type":"Point","coordinates":[1.66701,46.7969]},"properties":{"nom":"TOUTIFAUT","ag":["Réseau urbain Horizon","Agrégat des réseaux urbains et interurbains du Centre-Val-de-Loire"],"lt":0,"dept":"36"}},{"type":"Feature","geometry":{"type":"Point","coordinates":[1.67868,46.81813]},"properties":{"nom":"TOURS","ag":["Réseau urbain Horizon","Agrégat des réseaux urbains et interurbains du Centre-Val-de-Loire"],"lt":0,"dept":"36"}},{"type":"Feature","geometry":{"type":"Point","coordinates":[1.67886,46.81815]},"properties":{"nom":"TOURS","ag":["Réseau urbain Horizon","Agrégat des réseaux urbains et interurbains du Centre-Val-de-Loire"],"lt":0,"dept":"36"}},{"type":"Feature","geometry":{"type":"Point","coordinates":[1.68266,46.82826]},"properties":{"nom":"VAUGIRARD","ag":["Réseau urbain Horizon","Agrégat des réseaux urbains et interurbains du Centre-Val-de-Loire"],"lt":0,"dept":"36"}},{"type":"Feature","geometry":{"type":"Point","coordinates":[1.68959,46.79029]},"properties":{"nom":"TOUVENT","ag":["Réseau urbain Horizon","Agrégat des réseaux urbains et interurbains du Centre-Val-de-Loire"],"lt":0,"dept":"36"}},{"type":"Feature","geometry":{"type":"Point","coordinates":[1.69008,46.78991]},"properties":{"nom":"TOUVENT","ag":["Réseau urbain Horizon","Agrégat des réseaux urbains et interurbains du Centre-Val-de-Loire"],"lt":0,"dept":"36"}},{"type":"Feature","geometry":{"type":"Point","coordinates":[1.68485,46.8015]},"properties":{"nom":"VERNUSSE","ag":["Réseau urbain Horizon","Agrégat des réseaux urbains et interurbains du Centre-Val-de-Loire"],"lt":0,"dept":"36"}},{"type":"Feature","geometry":{"type":"Point","coordinates":[1.68378,46.8015]},"properties":{"nom":"VERNUSSE","ag":["Réseau urbain Horizon","Agrégat des réseaux urbains et interurbains du Centre-Val-de-Loire"],"lt":0,"dept":"36"}},{"type":"Feature","geometry":{"type":"Point","coordinates":[1.67691,46.80237]},"properties":{"nom":"VICTOR HUGO","ag":["Réseau urbain Horizon","Agrégat des réseaux urbains et interurbains du Centre-Val-de-Loire"],"lt":0,"dept":"36"}},{"type":"Feature","geometry":{"type":"Point","coordinates":[1.67733,46.80216]},"properties":{"nom":"VICTOR HUGO","ag":["Réseau urbain Horizon","Agrégat des réseaux urbains et interurbains du Centre-Val-de-Loire"],"lt":0,"dept":"36"}},{"type":"Feature","geometry":{"type":"Point","coordinates":[1.70514,46.7937]},"properties":{"nom":"VICTOR LALOUX","ag":["Réseau urbain Horizon","Agrégat des réseaux urbains et interurbains du Centre-Val-de-Loire"],"lt":0,"dept":"36"}},{"type":"Feature","geometry":{"type":"Point","coordinates":[1.7051,46.79411]},"properties":{"nom":"VICTOR LALOUX","ag":["Réseau urbain Horizon","Agrégat des réseaux urbains et interurbains du Centre-Val-de-Loire"],"lt":0,"dept":"36"}},{"type":"Feature","geometry":{"type":"Point","coordinates":[1.71601,46.79184]},"properties":{"nom":"GENEVOIX","ag":["Réseau urbain Horizon","Agrégat des réseaux urbains et interurbains du Centre-Val-de-Loire"],"lt":0,"dept":"36"}},{"type":"Feature","geometry":{"type":"Point","coordinates":[1.71592,46.79176]},"properties":{"nom":"GENEVOIX","ag":["Réseau urbain Horizon","Agrégat des réseaux urbains et interurbains du Centre-Val-de-Loire"],"lt":0,"dept":"36"}},{"type":"Feature","geometry":{"type":"Point","coordinates":[1.69986,46.81087]},"properties":{"nom":"VOLTAIRE","ag":["Réseau urbain Horizon","Agrégat des réseaux urbains et interurbains du Centre-Val-de-Loire"],"lt":0,"dept":"36"}},{"type":"Feature","geometry":{"type":"Point","coordinates":[1.70001,46.81094]},"properties":{"nom":"VOLTAIRE","ag":["Réseau urbain Horizon","Agrégat des réseaux urbains et interurbains du Centre-Val-de-Loire"],"lt":0,"dept":"36"}},{"type":"Feature","geometry":{"type":"Point","coordinates":[1.70012,46.811]},"properties":{"nom":"VOLTAIRE","ag":["Réseau urbain Horizon","Agrégat des réseaux urbains et interurbains du Centre-Val-de-Loire"],"lt":0,"dept":"36"}},{"type":"Feature","geometry":{"type":"Point","coordinates":[1.68777,46.79364]},"properties":{"nom":"WINSTON CHURCHILL","ag":["Réseau urbain Horizon","Agrégat des réseaux urbains et interurbains du Centre-Val-de-Loire"],"lt":0,"dept":"36"}},{"type":"Feature","geometry":{"type":"Point","coordinates":[1.68787,46.79335]},"properties":{"nom":"WINSTON CHURCHILL","ag":["Réseau urbain Horizon","Agrégat des réseaux urbains et interurbains du Centre-Val-de-Loire"],"lt":0,"dept":"36"}},{"type":"Feature","geometry":{"type":"Point","coordinates":[1.7196,46.87004]},"properties":{"nom":"CÉRÉ","ag":["Réseau urbain Horizon","Agrégat des réseaux urbains et interurbains du Centre-Val-de-Loire"],"lt":0,"dept":"36"}},{"type":"Feature","geometry":{"type":"Point","coordinates":[1.7199,46.87096]},"properties":{"nom":"CÉRÉ","ag":["Réseau urbain Horizon","Agrégat des réseaux urbains et interurbains du Centre-Val-de-Loire"],"lt":0,"dept":"36"}},{"type":"Feature","geometry":{"type":"Point","coordinates":[1.71209,46.88393]},"properties":{"nom":"COINGS","ag":["Réseau urbain Horizon","Agrégat des réseaux urbains et interurbains du Centre-Val-de-Loire"],"lt":0,"dept":"36"}},{"type":"Feature","geometry":{"type":"Point","coordinates":[1.73634,46.88903]},"properties":{"nom":"MOULIN DE NOTZ","ag":["Réseau urbain Horizon","Agrégat des réseaux urbains et interurbains du Centre-Val-de-Loire"],"lt":0,"dept":"36"}},{"type":"Feature","geometry":{"type":"Point","coordinates":[1.73908,46.8819]},"properties":{"nom":"SAINT-PIERRE DE NOTZ","ag":["Réseau urbain Horizon","Agrégat des réseaux urbains et interurbains du Centre-Val-de-Loire"],"lt":0,"dept":"36"}},{"type":"Feature","geometry":{"type":"Point","coordinates":[1.72382,46.87371]},"properties":{"nom":"TOURNESOLS","ag":["Réseau urbain Horizon","Agrégat des réseaux urbains et interurbains du Centre-Val-de-Loire"],"lt":0,"dept":"36"}},{"type":"Feature","geometry":{"type":"Point","coordinates":[1.74422,46.89481]},"properties":{"nom":"LES TURNES","ag":["Réseau urbain Horizon","Agrégat des réseaux urbains et interurbains du Centre-Val-de-Loire"],"lt":0,"dept":"36"}},{"type":"Feature","geometry":{"type":"Point","coordinates":[1.70061,46.82974]},"properties":{"nom":"ARISTIDE BRIAND","ag":["Réseau urbain Horizon","Agrégat des réseaux urbains et interurbains du Centre-Val-de-Loire"],"lt":0,"dept":"36"}},{"type":"Feature","geometry":{"type":"Point","coordinates":[1.70068,46.83126]},"properties":{"nom":"ARISTIDE BRIAND","ag":["Réseau urbain Horizon","Agrégat des réseaux urbains et interurbains du Centre-Val-de-Loire"],"lt":0,"dept":"36"}},{"type":"Feature","geometry":{"type":"Point","coordinates":[1.71722,46.86074]},"properties":{"nom":"AÉROPORT","ag":["Réseau urbain Horizon","Agrégat des réseaux urbains et interurbains du Centre-Val-de-Loire"],"lt":0,"dept":"36"}},{"type":"Feature","geometry":{"type":"Point","coordinates":[1.71732,46.86113]},"properties":{"nom":"AÉROPORT","ag":["Réseau urbain Horizon","Agrégat des réseaux urbains et interurbains du Centre-Val-de-Loire"],"lt":0,"dept":"36"}},{"type":"Feature","geometry":{"type":"Point","coordinates":[1.67537,46.85991]},"properties":{"nom":"AMANDIERS","ag":["Réseau urbain Horizon","Agrégat des réseaux urbains et interurbains du Centre-Val-de-Loire"],"lt":0,"dept":"36"}},{"type":"Feature","geometry":{"type":"Point","coordinates":[1.6762,46.8599]},"properties":{"nom":"AMANDIERS","ag":["Réseau urbain Horizon","Agrégat des réseaux urbains et interurbains du Centre-Val-de-Loire"],"lt":0,"dept":"36"}},{"type":"Feature","geometry":{"type":"Point","coordinates":[1.67862,46.85823]},"properties":{"nom":"ANÉMONES","ag":["Réseau urbain Horizon","Agrégat des réseaux urbains et interurbains du Centre-Val-de-Loire"],"lt":0,"dept":"36"}},{"type":"Feature","geometry":{"type":"Point","coordinates":[1.67823,46.85888]},"properties":{"nom":"ANÉMONES","ag":["Réseau urbain Horizon","Agrégat des réseaux urbains et interurbains du Centre-Val-de-Loire"],"lt":0,"dept":"36"}},{"type":"Feature","geometry":{"type":"Point","coordinates":[1.70301,46.83222]},"properties":{"nom":"BOIS LARGE","ag":["Réseau urbain Horizon","Agrégat des réseaux urbains et interurbains du Centre-Val-de-Loire"],"lt":0,"dept":"36"}},{"type":"Feature","geometry":{"type":"Point","coordinates":[1.70294,46.83234]},"properties":{"nom":"BOIS LARGE","ag":["Réseau urbain Horizon","Agrégat des réseaux urbains et interurbains du Centre-Val-de-Loire"],"lt":0,"dept":"36"}},{"type":"Feature","geometry":{"type":"Point","coordinates":[1.67706,46.85335]},"properties":{"nom":"BRASSIOUX","ag":["Réseau urbain Horizon","Agrégat des réseaux urbains et interurbains du Centre-Val-de-Loire"],"lt":0,"dept":"36"}},{"type":"Feature","geometry":{"type":"Point","coordinates":[1.67686,46.8532]},"properties":{"nom":"BRASSIOUX","ag":["Réseau urbain Horizon","Agrégat des réseaux urbains et interurbains du Centre-Val-de-Loire"],"lt":0,"dept":"36"}},{"type":"Feature","geometry":{"type":"Point","coordinates":[1.7106,46.84951]},"properties":{"nom":"CLÉMENT ADER","ag":["Réseau urbain Horizon","Agrégat des réseaux urbains et interurbains du Centre-Val-de-Loire"],"lt":0,"dept":"36"}},{"type":"Feature","geometry":{"type":"Point","coordinates":[1.71032,46.8491]},"properties":{"nom":"CLÉMENT ADER","ag":["Réseau urbain Horizon","Agrégat des réseaux urbains et interurbains du Centre-Val-de-Loire"],"lt":0,"dept":"36"}},{"type":"Feature","geometry":{"type":"Point","coordinates":[1.67302,46.85833]},"properties":{"nom":"CAMPANULES","ag":["Réseau urbain Horizon","Agrégat des réseaux urbains et interurbains du Centre-Val-de-Loire"],"lt":0,"dept":"36"}},{"type":"Feature","geometry":{"type":"Point","coordinates":[1.67339,46.85842]},"properties":{"nom":"CAMPANULES","ag":["Réseau urbain Horizon","Agrégat des réseaux urbains et interurbains du Centre-Val-de-Loire"],"lt":0,"dept":"36"}},{"type":"Feature","geometry":{"type":"Point","coordinates":[1.6702,46.85552]},"properties":{"nom":"CAPUCINES","ag":["Réseau urbain Horizon","Agrégat des réseaux urbains et interurbains du Centre-Val-de-Loire"],"lt":0,"dept":"36"}},{"type":"Feature","geometry":{"type":"Point","coordinates":[1.67099,46.85619]},"properties":{"nom":"CAPUCINES","ag":["Réseau urbain Horizon","Agrégat des réseaux urbains et interurbains du Centre-Val-de-Loire"],"lt":0,"dept":"36"}},{"type":"Feature","geometry":{"type":"Point","coordinates":[1.68777,46.83525]},"properties":{"nom":"CHÂTEAU GAILLARD","ag":["Réseau urbain Horizon","Agrégat des réseaux urbains et interurbains du Centre-Val-de-Loire"],"lt":0,"dept":"36"}},{"type":"Feature","geometry":{"type":"Point","coordinates":[1.6876,46.8355]},"properties":{"nom":"CHÂTEAU GAILLARD","ag":["Réseau urbain Horizon","Agrégat des réseaux urbains et interurbains du Centre-Val-de-Loire"],"lt":0,"dept":"36"}},{"type":"Feature","geometry":{"type":"Point","coordinates":[1.75544,46.82381]},"properties":{"nom":"CITÉ DES JARDINS","ag":["Réseau urbain Horizon","Agrégat des réseaux urbains et interurbains du Centre-Val-de-Loire"],"lt":0,"dept":"36"}},{"type":"Feature","geometry":{"type":"Point","coordinates":[1.75483,46.82364]},"properties":{"nom":"CITÉ DES JARDINS","ag":["Réseau urbain Horizon","Agrégat des réseaux urbains et interurbains du Centre-Val-de-Loire"],"lt":0,"dept":"36"}},{"type":"Feature","geometry":{"type":"Point","coordinates":[1.71076,46.82866]},"properties":{"nom":"DÉOLS","ag":["Réseau urbain Horizon","Agrégat des réseaux urbains et interurbains du Centre-Val-de-Loire"],"lt":0,"dept":"36"}},{"type":"Feature","geometry":{"type":"Point","coordinates":[1.71102,46.82852]},"properties":{"nom":"DÉOLS","ag":["Réseau urbain Horizon","Agrégat des réseaux urbains et interurbains du Centre-Val-de-Loire"],"lt":0,"dept":"36"}},{"type":"Feature","geometry":{"type":"Point","coordinates":[1.69736,46.83191]},"properties":{"nom":"ÉCOPARC","ag":["Réseau urbain Horizon","Agrégat des réseaux urbains et interurbains du Centre-Val-de-Loire"],"lt":0,"dept":"36"}},{"type":"Feature","geometry":{"type":"Point","coordinates":[1.69589,46.8324]},"properties":{"nom":"ÉCOPARC","ag":["Réseau urbain Horizon","Agrégat des réseaux urbains et interurbains du Centre-Val-de-Loire"],"lt":0,"dept":"36"}},{"type":"Feature","geometry":{"type":"Point","coordinates":[1.70759,46.83016]},"properties":{"nom":"ÉGALITE","ag":["Réseau urbain Horizon","Agrégat des réseaux urbains et interurbains du Centre-Val-de-Loire"],"lt":0,"dept":"36"}},{"type":"Feature","geometry":{"type":"Point","coordinates":[1.70761,46.83059]},"properties":{"nom":"ÉGALITE","ag":["Réseau urbain Horizon","Agrégat des réseaux urbains et interurbains du Centre-Val-de-Loire"],"lt":0,"dept":"36"}},{"type":"Feature","geometry":{"type":"Point","coordinates":[1.70415,46.82672]},"properties":{"nom":"ÉGLISE DE DÉOLS","ag":["Réseau urbain Horizon","Agrégat des réseaux urbains et interurbains du Centre-Val-de-Loire"],"lt":0,"dept":"36"}},{"type":"Feature","geometry":{"type":"Point","coordinates":[1.70435,46.82673]},"properties":{"nom":"ÉGLISE DE DÉOLS","ag":["Réseau urbain Horizon","Agrégat des réseaux urbains et interurbains du Centre-Val-de-Loire"],"lt":0,"dept":"36"}},{"type":"Feature","geometry":{"type":"Point","coordinates":[1.70411,46.83206]},"properties":{"nom":"ENTES","ag":["Réseau urbain Horizon","Agrégat des réseaux urbains et interurbains du Centre-Val-de-Loire"],"lt":0,"dept":"36"}},{"type":"Feature","geometry":{"type":"Point","coordinates":[1.70411,46.8321]},"properties":{"nom":"ENTES","ag":["Réseau urbain Horizon","Agrégat des réseaux urbains et interurbains du Centre-Val-de-Loire"],"lt":0,"dept":"36"}},{"type":"Feature","geometry":{"type":"Point","coordinates":[1.70954,46.83363]},"properties":{"nom":"FLEURANDERIE","ag":["Réseau urbain Horizon","Agrégat des réseaux urbains et interurbains du Centre-Val-de-Loire"],"lt":0,"dept":"36"}},{"type":"Feature","geometry":{"type":"Point","coordinates":[1.70988,46.8339]},"properties":{"nom":"FLEURANDERIE","ag":["Réseau urbain Horizon","Agrégat des réseaux urbains et interurbains du Centre-Val-de-Loire"],"lt":0,"dept":"36"}},{"type":"Feature","geometry":{"type":"Point","coordinates":[1.70959,46.82713]},"properties":{"nom":"GAGARINE","ag":["Réseau urbain Horizon","Agrégat des réseaux urbains et interurbains du Centre-Val-de-Loire"],"lt":0,"dept":"36"}},{"type":"Feature","geometry":{"type":"Point","coordinates":[1.71014,46.8274]},"properties":{"nom":"GAGARINE","ag":["Réseau urbain Horizon","Agrégat des réseaux urbains et interurbains du Centre-Val-de-Loire"],"lt":0,"dept":"36"}},{"type":"Feature","geometry":{"type":"Point","coordinates":[1.70269,46.84892]},"properties":{"nom":"GUSTAVE EIFFEL","ag":["Réseau urbain Horizon","Agrégat des réseaux urbains et interurbains du Centre-Val-de-Loire"],"lt":0,"dept":"36"}},{"type":"Feature","geometry":{"type":"Point","coordinates":[1.7023,46.84875]},"properties":{"nom":"GUSTAVE EIFFEL","ag":["Réseau urbain Horizon","Agrégat des réseaux urbains et interurbains du Centre-Val-de-Loire"],"lt":0,"dept":"36"}},{"type":"Feature","geometry":{"type":"Point","coordinates":[1.74381,46.81788]},"properties":{"nom":"GRANGEROUX","ag":["Réseau urbain Horizon","Agrégat des réseaux urbains et interurbains du Centre-Val-de-Loire"],"lt":0,"dept":"36"}},{"type":"Feature","geometry":{"type":"Point","coordinates":[1.74495,46.81859]},"properties":{"nom":"GRANGEROUX","ag":["Réseau urbain Horizon","Agrégat des réseaux urbains et interurbains du Centre-Val-de-Loire"],"lt":0,"dept":"36"}},{"type":"Feature","geometry":{"type":"Point","coordinates":[1.70598,46.85135]},"properties":{"nom":"GEORGES HENNEQUIN","ag":["Réseau urbain Horizon","Agrégat des réseaux urbains et interurbains du Centre-Val-de-Loire"],"lt":0,"dept":"36"}},{"type":"Feature","geometry":{"type":"Point","coordinates":[1.70589,46.85125]},"properties":{"nom":"GEORGES HENNEQUIN","ag":["Réseau urbain Horizon","Agrégat des réseaux urbains et interurbains du Centre-Val-de-Loire"],"lt":0,"dept":"36"}},{"type":"Feature","geometry":{"type":"Point","coordinates":[1.71195,46.85261]},"properties":{"nom":"GRANDÉOLS","ag":["Réseau urbain Horizon","Agrégat des réseaux urbains et interurbains du Centre-Val-de-Loire"],"lt":0,"dept":"36"}},{"type":"Feature","geometry":{"type":"Point","coordinates":[1.71181,46.85255]},"properties":{"nom":"GRANDÉOLS","ag":["Réseau urbain Horizon","Agrégat des réseaux urbains et interurbains du Centre-Val-de-Loire"],"lt":0,"dept":"36"}},{"type":"Feature","geometry":{"type":"Point","coordinates":[1.70468,46.83604]},"properties":{"nom":"JEAN BIZET","ag":["Réseau urbain Horizon","Agrégat des réseaux urbains et interurbains du Centre-Val-de-Loire"],"lt":0,"dept":"36"}},{"type":"Feature","geometry":{"type":"Point","coordinates":[1.70453,46.83594]},"properties":{"nom":"JEAN BIZET","ag":["Réseau urbain Horizon","Agrégat des réseaux urbains et interurbains du Centre-Val-de-Loire"],"lt":0,"dept":"36"}},{"type":"Feature","geometry":{"type":"Point","coordinates":[1.71651,46.83378]},"properties":{"nom":"JEAN MOULIN","ag":["Réseau urbain Horizon","Agrégat des réseaux urbains et interurbains du Centre-Val-de-Loire"],"lt":0,"dept":"36"}},{"type":"Feature","geometry":{"type":"Point","coordinates":[1.71668,46.83353]},"properties":{"nom":"JEAN MOULIN","ag":["Réseau urbain Horizon","Agrégat des réseaux urbains et interurbains du Centre-Val-de-Loire"],"lt":0,"dept":"36"}},{"type":"Feature","geometry":{"type":"Point","coordinates":[1.70523,46.84234]},"properties":{"nom":"LOUIS MALBÈTE","ag":["Réseau urbain Horizon","Agrégat des réseaux urbains et interurbains du Centre-Val-de-Loire"],"lt":0,"dept":"36"}},{"type":"Feature","geometry":{"type":"Point","coordinates":[1.70534,46.84219]},"properties":{"nom":"LOUIS MALBÈTE","ag":["Réseau urbain Horizon","Agrégat des réseaux urbains et interurbains du Centre-Val-de-Loire"],"lt":0,"dept":"36"}},{"type":"Feature","geometry":{"type":"Point","coordinates":[1.7091,46.84909]},"properties":{"nom":"MACH36","ag":["Réseau urbain Horizon","Agrégat des réseaux urbains et interurbains du Centre-Val-de-Loire"],"lt":0,"dept":"36"}},{"type":"Feature","geometry":{"type":"Point","coordinates":[1.70881,46.84953]},"properties":{"nom":"MACH36","ag":["Réseau urbain Horizon","Agrégat des réseaux urbains et interurbains du Centre-Val-de-Loire"],"lt":0,"dept":"36"}},{"type":"Feature","geometry":{"type":"Point","coordinates":[1.70028,46.82567]},"properties":{"nom":"MAIRIE DE DÉOLS","ag":["Réseau urbain Horizon","Agrégat des réseaux urbains et interurbains du Centre-Val-de-Loire"],"lt":0,"dept":"36"}},{"type":"Feature","geometry":{"type":"Point","coordinates":[1.69981,46.82527]},"properties":{"nom":"MAIRIE DE DÉOLS","ag":["Réseau urbain Horizon","Agrégat des réseaux urbains et interurbains du Centre-Val-de-Loire"],"lt":0,"dept":"36"}},{"type":"Feature","geometry":{"type":"Point","coordinates":[1.76963,46.8262]},"properties":{"nom":"MARTINERIE","ag":["Réseau urbain Horizon","Agrégat des réseaux urbains et interurbains du Centre-Val-de-Loire"],"lt":0,"dept":"36"}},{"type":"Feature","geometry":{"type":"Point","coordinates":[1.77019,46.82624]},"properties":{"nom":"MARTINERIE","ag":["Réseau urbain Horizon","Agrégat des réseaux urbains et interurbains du Centre-Val-de-Loire"],"lt":0,"dept":"36"}},{"type":"Feature","geometry":{"type":"Point","coordinates":[1.71237,46.83692]},"properties":{"nom":"MAUSSANTS","ag":["Réseau urbain Horizon","Agrégat des réseaux urbains et interurbains du Centre-Val-de-Loire"],"lt":0,"dept":"36"}},{"type":"Feature","geometry":{"type":"Point","coordinates":[1.71284,46.83679]},"properties":{"nom":"MAUSSANTS","ag":["Réseau urbain Horizon","Agrégat des réseaux urbains et interurbains du Centre-Val-de-Loire"],"lt":0,"dept":"36"}},{"type":"Feature","geometry":{"type":"Point","coordinates":[1.69273,46.83341]},"properties":{"nom":"PIEDS BREGOINS","ag":["Réseau urbain Horizon","Agrégat des réseaux urbains et interurbains du Centre-Val-de-Loire"],"lt":0,"dept":"36"}},{"type":"Feature","geometry":{"type":"Point","coordinates":[1.69292,46.83345]},"properties":{"nom":"PIEDS BREGOINS","ag":["Réseau urbain Horizon","Agrégat des réseaux urbains et interurbains du Centre-Val-de-Loire"],"lt":0,"dept":"36"}},{"type":"Feature","geometry":{"type":"Point","coordinates":[1.7055,46.83055]},"properties":{"nom":"PAUL ELUARD","ag":["Réseau urbain Horizon","Agrégat des réseaux urbains et interurbains du Centre-Val-de-Loire"],"lt":0,"dept":"36"}},{"type":"Feature","geometry":{"type":"Point","coordinates":[1.70532,46.83081]},"properties":{"nom":"PAUL ELUARD","ag":["Réseau urbain Horizon","Agrégat des réseaux urbains et interurbains du Centre-Val-de-Loire"],"lt":0,"dept":"36"}},{"type":"Feature","geometry":{"type":"Point","coordinates":[1.70903,46.82881]},"properties":{"nom":"PLANTES","ag":["Réseau urbain Horizon","Agrégat des réseaux urbains et interurbains du Centre-Val-de-Loire"],"lt":0,"dept":"36"}},{"type":"Feature","geometry":{"type":"Point","coordinates":[1.70938,46.82888]},"properties":{"nom":"PLANTES","ag":["Réseau urbain Horizon","Agrégat des réseaux urbains et interurbains du Centre-Val-de-Loire"],"lt":0,"dept":"36"}},{"type":"Feature","geometry":{"type":"Point","coordinates":[1.70631,46.83981]},"properties":{"nom":"PAUL PLUVIAUD","ag":["Réseau urbain Horizon","Agrégat des réseaux urbains et interurbains du Centre-Val-de-Loire"],"lt":0,"dept":"36"}},{"type":"Feature","geometry":{"type":"Point","coordinates":[1.70616,46.83958]},"properties":{"nom":"PAUL PLUVIAUD","ag":["Réseau urbain Horizon","Agrégat des réseaux urbains et interurbains du Centre-Val-de-Loire"],"lt":0,"dept":"36"}},{"type":"Feature","geometry":{"type":"Point","coordinates":[1.70693,46.82663]},"properties":{"nom":"ROMAIN ROLLAND","ag":["Réseau urbain Horizon","Agrégat des réseaux urbains et interurbains du Centre-Val-de-Loire"],"lt":0,"dept":"36"}},{"type":"Feature","geometry":{"type":"Point","coordinates":[1.70708,46.82643]},"properties":{"nom":"ROMAIN ROLLAND","ag":["Réseau urbain Horizon","Agrégat des réseaux urbains et interurbains du Centre-Val-de-Loire"],"lt":0,"dept":"36"}},{"type":"Feature","geometry":{"type":"Point","coordinates":[1.77783,46.81317]},"properties":{"nom":"BASE US","ag":["Réseau urbain Horizon","Agrégat des réseaux urbains et interurbains du Centre-Val-de-Loire"],"lt":0,"dept":"36"}},{"type":"Feature","geometry":{"type":"Point","coordinates":[1.7806,46.82183]},"properties":{"nom":"CHAMPOLLION","ag":["Réseau urbain Horizon","Agrégat des réseaux urbains et interurbains du Centre-Val-de-Loire"],"lt":0,"dept":"36"}},{"type":"Feature","geometry":{"type":"Point","coordinates":[1.77401,46.82308]},"properties":{"nom":"LA FAYETTE","ag":["Réseau urbain Horizon","Agrégat des réseaux urbains et interurbains du Centre-Val-de-Loire"],"lt":0,"dept":"36"}},{"type":"Feature","geometry":{"type":"Point","coordinates":[1.81509,46.82576]},"properties":{"nom":"FOURCHES","ag":["Réseau urbain Horizon","Agrégat des réseaux urbains et interurbains du Centre-Val-de-Loire"],"lt":0,"dept":"36"}},{"type":"Feature","geometry":{"type":"Point","coordinates":[1.81504,46.82543]},"properties":{"nom":"FOURCHES","ag":["Réseau urbain Horizon","Agrégat des réseaux urbains et interurbains du Centre-Val-de-Loire"],"lt":0,"dept":"36"}},{"type":"Feature","geometry":{"type":"Point","coordinates":[1.77668,46.81562]},"properties":{"nom":"JOSEPH ROUSSEAU","ag":["Réseau urbain Horizon","Agrégat des réseaux urbains et interurbains du Centre-Val-de-Loire"],"lt":0,"dept":"36"}},{"type":"Feature","geometry":{"type":"Point","coordinates":[1.82756,46.82702]},"properties":{"nom":"DIORS MUSÉE","ag":["Réseau urbain Horizon","Agrégat des réseaux urbains et interurbains du Centre-Val-de-Loire"],"lt":0,"dept":"36"}},{"type":"Feature","geometry":{"type":"Point","coordinates":[1.82749,46.82681]},"properties":{"nom":"DIORS MUSÉE","ag":["Réseau urbain Horizon","Agrégat des réseaux urbains et interurbains du Centre-Val-de-Loire"],"lt":0,"dept":"36"}},{"type":"Feature","geometry":{"type":"Point","coordinates":[1.78319,46.77666]},"properties":{"nom":"ÉTRECHET","ag":["Réseau urbain Horizon","Agrégat des réseaux urbains et interurbains du Centre-Val-de-Loire"],"lt":0,"dept":"36"}},{"type":"Feature","geometry":{"type":"Point","coordinates":[1.78315,46.77656]},"properties":{"nom":"ÉTRECHET","ag":["Réseau urbain Horizon","Agrégat des réseaux urbains et interurbains du Centre-Val-de-Loire"],"lt":0,"dept":"36"}},{"type":"Feature","geometry":{"type":"Point","coordinates":[1.58794,46.70186]},"properties":{"nom":"LOTHIERS","ag":["Réseau urbain Horizon","Agrégat des réseaux urbains et interurbains du Centre-Val-de-Loire"],"lt":0,"dept":"36"}},{"type":"Feature","geometry":{"type":"Point","coordinates":[1.56011,46.73334]},"properties":{"nom":"LUANT","ag":["Réseau urbain Horizon","Agrégat des réseaux urbains et interurbains du Centre-Val-de-Loire"],"lt":0,"dept":"36"}},{"type":"Feature","geometry":{"type":"Point","coordinates":[1.55936,46.73326]},"properties":{"nom":"LUANT","ag":["Réseau urbain Horizon","Agrégat des réseaux urbains et interurbains du Centre-Val-de-Loire"],"lt":0,"dept":"36"}},{"type":"Feature","geometry":{"type":"Point","coordinates":[1.61296,46.74164]},"properties":{"nom":"PENTHIÈRE","ag":["Réseau urbain Horizon","Agrégat des réseaux urbains et interurbains du Centre-Val-de-Loire"],"lt":0,"dept":"36"}},{"type":"Feature","geometry":{"type":"Point","coordinates":[1.61268,46.7416]},"properties":{"nom":"PENTHIÈRE","ag":["Réseau urbain Horizon","Agrégat des réseaux urbains et interurbains du Centre-Val-de-Loire"],"lt":0,"dept":"36"}},{"type":"Feature","geometry":{"type":"Point","coordinates":[1.59489,46.73711]},"properties":{"nom":"PLISSONS","ag":["Réseau urbain Horizon","Agrégat des réseaux urbains et interurbains du Centre-Val-de-Loire"],"lt":0,"dept":"36"}},{"type":"Feature","geometry":{"type":"Point","coordinates":[1.59411,46.73699]},"properties":{"nom":"PLISSONS","ag":["Réseau urbain Horizon"],"lt":0,"dept":"36"}},