{"type":"FeatureCollection","features":[{"type":"Feature","geometry":{"type":"Point","coordinates":[4.76946,45.4506]},"properties":{"nom":"Gare de Saint-Clair - Les Roches","ag":["Réseau urbain Le 37","Agrégat des réseaux urbains et interurbains d'Auvergne-Rhône-Alpes"],"lt":0,"dept":"38"}},{"type":"Feature","geometry":{"type":"Point","coordinates":[4.76735,45.44563]},"properties":{"nom":"Carrefour Berthelot","ag":["Réseau urbain Le 37","Agrégat des réseaux urbains et interurbains d'Auvergne-Rhône-Alpes"],"lt":0,"dept":"38"}},{"type":"Feature","geometry":{"type":"Point","coordinates":[4.77005,45.43928]},"properties":{"nom":"Mairie de Saint-Clair","ag":["Réseau urbain Le 37","Agrégat des réseaux urbains et interurbains d'Auvergne-Rhône-Alpes"],"lt":0,"dept":"38"}},{"type":"Feature","geometry":{"type":"Point","coordinates":[4.77129,45.42861]},"properties":{"nom":"Varambon","ag":["Réseau urbain Le 37","Agrégat des réseaux urbains et interurbains d'Auvergne-Rhône-Alpes"],"lt":0,"dept":"38"}},{"type":"Feature","geometry":{"type":"Point","coordinates":[4.77794,45.41581]},"properties":{"nom":"Chuzy","ag":["Réseau urbain Le 37","Agrégat des réseaux urbains et interurbains d'Auvergne-Rhône-Alpes"],"lt":0,"dept":"38"}},{"type":"Feature","geometry":{"type":"Point","coordinates":[4.782,45.40206]},"properties":{"nom":"Rhône-Varèze","ag":["Réseau urbain Le 37","Agrégat des réseaux urbains et interurbains d'Auvergne-Rhône-Alpes"],"lt":0,"dept":"38"}},{"type":"Feature","geometry":{"type":"Point","coordinates":[4.77831,45.39762]},"properties":{"nom":"Collège Frédéric-Mistral","ag":["Réseau urbain Le 37","Agrégat des réseaux urbains et interurbains d'Auvergne-Rhône-Alpes"],"lt":0,"dept":"38"}},{"type":"Feature","geometry":{"type":"Point","coordinates":[4.77519,45.39425]},"properties":{"nom":"Médiathèque","ag":["Réseau urbain Le 37","Agrégat des réseaux urbains et interurbains d'Auvergne-Rhône-Alpes"],"lt":0,"dept":"38"}},{"type":"Feature","geometry":{"type":"Point","coordinates":[4.78043,45.3874]},"properties":{"nom":"Rue François-Truffaut","ag":["Réseau urbain Le 37","Agrégat des réseaux urbains et interurbains d'Auvergne-Rhône-Alpes"],"lt":0,"dept":"38"}},{"type":"Feature","geometry":{"type":"Point","coordinates":[4.78987,45.38095]},"properties":{"nom":"Rue Sacco-et-Vanzetti","ag":["Réseau urbain Le 37","Agrégat des réseaux urbains et interurbains d'Auvergne-Rhône-Alpes"],"lt":0,"dept":"38"}},{"type":"Feature","geometry":{"type":"Point","coordinates":[4.79526,45.37744]},"properties":{"nom":"Bellefontaine","ag":["Réseau urbain Le 37","Agrégat des réseaux urbains et interurbains d'Auvergne-Rhône-Alpes"],"lt":0,"dept":"38"}},{"type":"Feature","geometry":{"type":"Point","coordinates":[4.79814,45.37594]},"properties":{"nom":"Bayard NS","ag":["Réseau urbain Le 37","Agrégat des réseaux urbains et interurbains d'Auvergne-Rhône-Alpes"],"lt":0,"dept":"38"}},{"type":"Feature","geometry":{"type":"Point","coordinates":[4.79743,45.37497]},"properties":{"nom":"Bayard SN","ag":["Réseau urbain Le 37","Agrégat des réseaux urbains et interurbains d'Auvergne-Rhône-Alpes"],"lt":0,"dept":"38"}},{"type":"Feature","geometry":{"type":"Point","coordinates":[4.79866,45.36646]},"properties":{"nom":"Route de Sablons","ag":["Réseau urbain Le 37","Agrégat des réseaux urbains et interurbains d'Auvergne-Rhône-Alpes"],"lt":0,"dept":"38"}},{"type":"Feature","geometry":{"type":"Point","coordinates":[4.79843,45.36139]},"properties":{"nom":"Rue Barbusse","ag":["Réseau urbain Le 37","Agrégat des réseaux urbains et interurbains d'Auvergne-Rhône-Alpes"],"lt":0,"dept":"38"}},{"type":"Feature","geometry":{"type":"Point","coordinates":[4.80314,45.36051]},"properties":{"nom":"Vercruysse - Cités","ag":["Réseau urbain Le 37","Agrégat des réseaux urbains et interurbains d'Auvergne-Rhône-Alpes"],"lt":0,"dept":"38"}},{"type":"Feature","geometry":{"type":"Point","coordinates":[4.8072,45.35629]},"properties":{"nom":"Les Sables","ag":["Réseau urbain Le 37","Agrégat des réseaux urbains et interurbains d'Auvergne-Rhône-Alpes"],"lt":0,"dept":"38"}},{"type":"Feature","geometry":{"type":"Point","coordinates":[4.80419,45.34905]},"properties":{"nom":"Renivet","ag":["Réseau urbain Le 37","Agrégat des réseaux urbains et interurbains d'Auvergne-Rhône-Alpes"],"lt":0,"dept":"38"}},{"type":"Feature","geometry":{"type":"Point","coordinates":[4.8138,45.34601]},"properties":{"nom":"Foyer Laurent Bouvier","ag":["Réseau urbain Le 37","Agrégat des réseaux urbains et interurbains d'Auvergne-Rhône-Alpes"],"lt":0,"dept":"38"}},{"type":"Feature","geometry":{"type":"Point","coordinates":[4.80606,45.33993]},"properties":{"nom":"Rond-Point de la Paix","ag":["Réseau urbain Le 37","Agrégat des réseaux urbains et interurbains d'Auvergne-Rhône-Alpes"],"lt":0,"dept":"38"}},{"type":"Feature","geometry":{"type":"Point","coordinates":[4.80662,45.32767]},"properties":{"nom":"Plein Sud","ag":["Réseau urbain Le 37","Agrégat des réseaux urbains et interurbains d'Auvergne-Rhône-Alpes"],"lt":0,"dept":"38"}},{"type":"Feature","geometry":{"type":"Point","coordinates":[4.81009,45.31638]},"properties":{"nom":"Les Bourgeons","ag":["Réseau urbain Le 37","Agrégat des réseaux urbains et interurbains d'Auvergne-Rhône-Alpes"],"lt":0,"dept":"38"}},{"type":"Feature","geometry":{"type":"Point","coordinates":[4.82082,45.31734]},"properties":{"nom":"Village","ag":["Réseau urbain Le 37","Agrégat des réseaux urbains et interurbains d'Auvergne-Rhône-Alpes"],"lt":0,"dept":"38"}},{"type":"Feature","geometry":{"type":"Point","coordinates":[4.77401,45.31826]},"properties":{"nom":"Mairie de Sablons","ag":["Réseau urbain Le 37","Agrégat des réseaux urbains et interurbains d'Auvergne-Rhône-Alpes"],"lt":0,"dept":"38"}},{"type":"Feature","geometry":{"type":"Point","coordinates":[4.79542,45.3719]},"properties":{"nom":"Le Péage - Gare","ag":["Réseau urbain Le 37","Agrégat des réseaux urbains et interurbains d'Auvergne-Rhône-Alpes"],"lt":0,"dept":"38"}},{"type":"Feature","geometry":{"type":"Point","coordinates":[4.79782,45.36951]},"properties":{"nom":"Jules-Ferry","ag":["Réseau urbain Le 37","Agrégat des réseaux urbains et interurbains d'Auvergne-Rhône-Alpes"],"lt":0,"dept":"38"}},{"type":"Feature","geometry":{"type":"Point","coordinates":[4.81124,45.3693]},"properties":{"nom":"Clinique","ag":["Réseau urbain Le 37","Agrégat des réseaux urbains et interurbains d'Auvergne-Rhône-Alpes"],"lt":0,"dept":"38"}},{"type":"Feature","geometry":{"type":"Point","coordinates":[4.8097,45.35553]},"properties":{"nom":"Salvador-Allende","ag":["Réseau urbain Le 37","Agrégat des réseaux urbains et interurbains d'Auvergne-Rhône-Alpes"],"lt":0,"dept":"38"}},{"type":"Feature","geometry":{"type":"Point","coordinates":[4.81733,45.33722]},"properties":{"nom":"Collège Jean-Ferrat","ag":["Réseau urbain Le 37","Agrégat des réseaux urbains et interurbains d'Auvergne-Rhône-Alpes"],"lt":0,"dept":"38"}},{"type":"Feature","geometry":{"type":"Point","coordinates":[4.85669,45.33932]},"properties":{"nom":"Village","ag":["Réseau urbain Le 37","Agrégat des réseaux urbains et interurbains d'Auvergne-Rhône-Alpes"],"lt":0,"dept":"38"}},{"type":"Feature","geometry":{"type":"Point","coordinates":[4.88336,45.34654]},"properties":{"nom":"Mairie d'Anjou","ag":["Réseau urbain Le 37","Agrégat des réseaux urbains et interurbains d'Auvergne-Rhône-Alpes"],"lt":0,"dept":"38"}},{"type":"Feature","geometry":{"type":"Point","coordinates":[4.906,45.35471]},"properties":{"nom":"Eglise de Sonnay","ag":["Réseau urbain Le 37","Agrégat des réseaux urbains et interurbains d'Auvergne-Rhône-Alpes"],"lt":0,"dept":"38"}},{"type":"Feature","geometry":{"type":"Point","coordinates":[4.90748,45.33251]},"properties":{"nom":"Bougé Rond-point Est","ag":["Réseau urbain Le 37","Agrégat des réseaux urbains et interurbains d'Auvergne-Rhône-Alpes"],"lt":0,"dept":"38"}},{"type":"Feature","geometry":{"type":"Point","coordinates":[4.94697,45.33354]},"properties":{"nom":"Centre","ag":["Réseau urbain Le 37","Agrégat des réseaux urbains et interurbains d'Auvergne-Rhône-Alpes"],"lt":0,"dept":"38"}},{"type":"Feature","geometry":{"type":"Point","coordinates":[5.045,45.33799]},"properties":{"nom":"Route de Jarcieu","ag":["Réseau urbain Le 37","Agrégat des réseaux urbains et interurbains d'Auvergne-Rhône-Alpes"],"lt":0,"dept":"38"}},{"type":"Feature","geometry":{"type":"Point","coordinates":[5.05593,45.33628]},"properties":{"nom":"Gare routière de Beaurepaire","ag":["Réseau urbain Le 37","Agrégat des réseaux urbains et interurbains d'Auvergne-Rhône-Alpes"],"lt":0,"dept":"38"}},{"type":"Feature","geometry":{"type":"Point","coordinates":[4.80157,45.36707]},"properties":{"nom":"Cité scolaire de l'Edit","ag":["Réseau urbain Le 37","Agrégat des réseaux urbains et interurbains d'Auvergne-Rhône-Alpes"],"lt":0,"dept":"38"}},{"type":"Feature","geometry":{"type":"Point","coordinates":[4.80507,45.36544]},"properties":{"nom":"Jaurès - Centre social","ag":["Réseau urbain Le 37","Agrégat des réseaux urbains et interurbains d'Auvergne-Rhône-Alpes"],"lt":0,"dept":"38"}},{"type":"Feature","geometry":{"type":"Point","coordinates":[4.80375,45.37577]},"properties":{"nom":"Ayencins","ag":["Réseau urbain Le 37","Agrégat des réseaux urbains et interurbains d'Auvergne-Rhône-Alpes"],"lt":0,"dept":"38"}},{"type":"Feature","geometry":{"type":"Point","coordinates":[4.80875,45.37525]},"properties":{"nom":"Bel Air","ag":["Réseau urbain Le 37","Agrégat des réseaux urbains et interurbains d'Auvergne-Rhône-Alpes"],"lt":0,"dept":"38"}},{"type":"Feature","geometry":{"type":"Point","coordinates":[4.81225,45.37333]},"properties":{"nom":"Mairie de Roussillon","ag":["Réseau urbain Le 37","Agrégat des réseaux urbains et interurbains d'Auvergne-Rhône-Alpes"],"lt":0,"dept":"38"}},{"type":"Feature","geometry":{"type":"Point","coordinates":[4.7888,45.34495]},"properties":{"nom":"Inspira 1","ag":["Réseau urbain Le 37","Agrégat des réseaux urbains et interurbains d'Auvergne-Rhône-Alpes"],"lt":0,"dept":"38"}},{"type":"Feature","geometry":{"type":"Point","coordinates":[4.79003,45.33971]},"properties":{"nom":"Inspira 2","ag":["Réseau urbain Le 37","Agrégat des réseaux urbains et interurbains d'Auvergne-Rhône-Alpes"],"lt":0,"dept":"38"}},{"type":"Feature","geometry":{"type":"Point","coordinates":[4.79517,45.3359]},"properties":{"nom":"Inspira 3","ag":["Réseau urbain Le 37","Agrégat des réseaux urbains et interurbains d'Auvergne-Rhône-Alpes"],"lt":0,"dept":"38"}},{"type":"Feature","geometry":{"type":"Point","coordinates":[4.80194,45.3367]},"properties":{"nom":"Inspira 4","ag":["Réseau urbain Le 37","Agrégat des réseaux urbains et interurbains d'Auvergne-Rhône-Alpes"],"lt":0,"dept":"38"}},{"type":"Feature","geometry":{"type":"Point","coordinates":[4.79933,45.34259]},"properties":{"nom":"Inspira 5","ag":["Réseau urbain Le 37","Agrégat des réseaux urbains et interurbains d'Auvergne-Rhône-Alpes"],"lt":0,"dept":"38"}},{"type":"Feature","geometry":{"type":"Point","coordinates":[4.79497,45.34255]},"properties":{"nom":"Inspira 6","ag":["Réseau urbain Le 37","Agrégat des réseaux urbains et interurbains d'Auvergne-Rhône-Alpes"],"lt":0,"dept":"38"}},{"type":"Feature","geometry":{"type":"Point","coordinates":[5.47073,45.67195]},"properties":{"nom":"La Gare","ag":["Réseau interurbain - Ain (01)","Agrégat des réseaux urbains et interurbains d'Auvergne-Rhône-Alpes"],"lt":0,"dept":"38"}},{"type":"Feature","geometry":{"type":"Point","coordinates":[5.52852,45.6946]},"properties":{"nom":"Mairie","ag":["Réseau interurbain - Ain (01)","Agrégat des réseaux urbains et interurbains d'Auvergne-Rhône-Alpes"],"lt":0,"dept":"38"}},{"type":"Feature","geometry":{"type":"Point","coordinates":[5.50305,45.69716]},"properties":{"nom":"Place","ag":["Réseau interurbain - Ain (01)","Agrégat des réseaux urbains et interurbains d'Auvergne-Rhône-Alpes"],"lt":0,"dept":"38"}},{"type":"Feature","geometry":{"type":"Point","coordinates":[5.95517,45.35792]},"properties":{"nom":"Le Touvet, Le Touvet - Grandes Terres","ag":["Lignes de covoiturage M covoit' Lignes+"],"lt":1,"dept":"38"}},{"type":"Feature","geometry":{"type":"Point","coordinates":[5.89926,45.2986]},"properties":{"nom":"Lumbin, Crolles - Montfort","ag":["Lignes de covoiturage M covoit' Lignes+"],"lt":0,"dept":"38"}},{"type":"Feature","geometry":{"type":"Point","coordinates":[5.82955,45.14389]},"properties":{"nom":"Saint-Martin-d'Uriage, St-Martin-d'Uriage - Gare","ag":["Lignes de covoiturage M covoit' Lignes+"],"lt":1,"dept":"38"}},{"type":"Feature","geometry":{"type":"Point","coordinates":[5.77592,45.19177]},"properties":{"nom":"Gières, Domaine Universitaire - Grand Sud","ag":["Lignes de covoiturage M covoit' Lignes+"],"lt":1,"dept":"38"}},{"type":"Feature","geometry":{"type":"Point","coordinates":[5.937,45.32678]},"properties":{"nom":"La Terrasse, La Terrasse - Église","ag":["Lignes de covoiturage M covoit' Lignes+"],"lt":1,"dept":"38"}},{"type":"Feature","geometry":{"type":"Point","coordinates":[5.81941,45.22396]},"properties":{"nom":"Montbonnot-Saint-Martin, Montbonnot - Pré de l'Eau","ag":["Lignes de covoiturage M covoit' Lignes+"],"lt":1,"dept":"38"}},{"type":"Feature","geometry":{"type":"Point","coordinates":[5.88103,45.28298]},"properties":{"nom":"Crolles, Crolles - PTT Gare","ag":["Lignes de covoiturage M covoit' Lignes+"],"lt":0,"dept":"38"}},{"type":"Feature","geometry":{"type":"Point","coordinates":[5.56751,45.35013]},"properties":{"nom":"Voiron, Voiron - Champfeuillet","ag":["Lignes de covoiturage M covoit' Lignes+"],"lt":1,"dept":"38"}},{"type":"Feature","geometry":{"type":"Point","coordinates":[5.70466,45.18016]},"properties":{"nom":"Grenoble, Grenoble - Catane (dir. Voironnais)","ag":["Lignes de covoiturage M covoit' Lignes+"],"lt":0,"dept":"38"}},{"type":"Feature","geometry":{"type":"Point","coordinates":[5.77249,45.13488]},"properties":{"nom":"Brié-et-Angonnes, Brié - Tavernolles","ag":["Lignes de covoiturage M covoit' Lignes+"],"lt":1,"dept":"38"}},{"type":"Feature","geometry":{"type":"Point","coordinates":[5.79168,45.21085]},"properties":{"nom":"Meylan, Inovallée - Vieux Chêne (dir. Grési/Grenoble)","ag":["Lignes de covoiturage M covoit' Lignes+"],"lt":0,"dept":"38"}},{"type":"Feature","geometry":{"type":"Point","coordinates":[5.78292,45.11777]},"properties":{"nom":"Brié-et-Angonnes, Brié - L'Olympe","ag":["Lignes de covoiturage M covoit' Lignes+"],"lt":0,"dept":"38"}},{"type":"Feature","geometry":{"type":"Point","coordinates":[5.93123,45.27996]},"properties":{"nom":"Le Champ-près-Froges, Le Champ-prés-Froges - Le Bas","ag":["Lignes de covoiturage M covoit' Lignes+"],"lt":0,"dept":"38"}},{"type":"Feature","geometry":{"type":"Point","coordinates":[5.69465,45.18042]},"properties":{"nom":"Seyssinet-Pariset, Seyssinet-Pariset - Hôtel de ville","ag":["Lignes de covoiturage M covoit' Lignes+"],"lt":0,"dept":"38"}},{"type":"Feature","geometry":{"type":"Point","coordinates":[5.74863,45.15318]},"properties":{"nom":"Eybens, Eybens - Odyssée (dir. Grésivaudan)","ag":["Lignes de covoiturage M covoit' Lignes+"],"lt":0,"dept":"38"}},{"type":"Feature","geometry":{"type":"Point","coordinates":[5.84686,45.24114]},"properties":{"nom":"Saint-Ismier, St-Ismier - La Batie","ag":["Lignes de covoiturage M covoit' Lignes+"],"lt":1,"dept":"38"}},{"type":"Feature","geometry":{"type":"Point","coordinates":[5.55414,45.07365]},"properties":{"nom":"Villard-de-Lans, Villard-de-Lans - Gare Routière","ag":["Lignes de covoiturage M covoit' Lignes+"],"lt":0,"dept":"38"}},{"type":"Feature","geometry":{"type":"Point","coordinates":[5.64111,45.17449]},"properties":{"nom":"Saint-Nizier-du-Moucherotte, St-Nizier-du-Moucherotte - Les Guillets","ag":["Lignes de covoiturage M covoit' Lignes+"],"lt":1,"dept":"38"}},{"type":"Feature","geometry":{"type":"Point","coordinates":[5.71862,45.19425]},"properties":{"nom":"Grenoble, Grenoble - Porte de France","ag":["Lignes de covoiturage M covoit' Lignes+"],"lt":0,"dept":"38"}},{"type":"Feature","geometry":{"type":"Point","coordinates":[5.5978,45.35378]},"properties":{"nom":"Coublevie, Coublevie - Plan Menu","ag":["Lignes de covoiturage M covoit' Lignes+"],"lt":0,"dept":"38"}},{"type":"Feature","geometry":{"type":"Point","coordinates":[5.74834,45.15342]},"properties":{"nom":"Eybens, Eybens - Odyssée (dir. Vizille)","ag":["Lignes de covoiturage M covoit' Lignes+"],"lt":0,"dept":"38"}},{"type":"Feature","geometry":{"type":"Point","coordinates":[5.79168,45.21082]},"properties":{"nom":"Meylan, Inovallée - Vieux Chêne (dir. Vizille)","ag":["Lignes de covoiturage M covoit' Lignes+"],"lt":0,"dept":"38"}},{"type":"Feature","geometry":{"type":"Point","coordinates":[5.78707,45.18131]},"properties":{"nom":"Gières, Gières - Edelweiss","ag":["Lignes de covoiturage M covoit' Lignes+"],"lt":0,"dept":"38"}},{"type":"Feature","geometry":{"type":"Point","coordinates":[5.79168,45.21081]},"properties":{"nom":"Meylan, Inovallée - Vieux Chêne (dir. Vizille)","ag":["Lignes de covoiturage M covoit' Lignes+"],"lt":1,"dept":"38"}},{"type":"Feature","geometry":{"type":"Point","coordinates":[5.80995,45.21884]},"properties":{"nom":"Montbonnot-Saint-Martin, Montbonnot - Croix Verte","ag":["Lignes de covoiturage M covoit' Lignes+"],"lt":0,"dept":"38"}},{"type":"Feature","geometry":{"type":"Point","coordinates":[5.95361,45.30404]},"properties":{"nom":"Tencin, Tencin - Pré Sec","ag":["Lignes de covoiturage M covoit' Lignes+"],"lt":1,"dept":"38"}},{"type":"Feature","geometry":{"type":"Point","coordinates":[5.75544,45.14713]},"properties":{"nom":"Eybens, Eybens - Le Verderet (dir. Vizille)","ag":["Lignes de covoiturage M covoit' Lignes+"],"lt":0,"dept":"38"}},{"type":"Feature","geometry":{"type":"Point","coordinates":[5.59145,45.12725]},"properties":{"nom":"Lans-en-Vercors, Lans-en-Vercors - Rue des écoles","ag":["Lignes de covoiturage M covoit' Lignes+"],"lt":1,"dept":"38"}},{"type":"Feature","geometry":{"type":"Point","coordinates":[5.91457,45.30848]},"properties":{"nom":"Lumbin, Lumbin - Gare","ag":["Lignes de covoiturage M covoit' Lignes+"],"lt":1,"dept":"38"}},{"type":"Feature","geometry":{"type":"Point","coordinates":[5.94505,45.29506]},"properties":{"nom":"La Pierre, La Pierre - Carr. RD 523","ag":["Lignes de covoiturage M covoit' Lignes+"],"lt":1,"dept":"38"}},{"type":"Feature","geometry":{"type":"Point","coordinates":[5.48977,45.30078]},"properties":{"nom":"Tullins, Tullins - Av. de la Gare","ag":["Lignes de covoiturage M covoit' Lignes+"],"lt":0,"dept":"38"}},{"type":"Feature","geometry":{"type":"Point","coordinates":[5.77459,45.08114]},"properties":{"nom":"Vizille, Vizille - Chantefeuille","ag":["Lignes de covoiturage M covoit' Lignes+"],"lt":0,"dept":"38"}},{"type":"Feature","geometry":{"type":"Point","coordinates":[5.73714,45.18731]},"properties":{"nom":"Grenoble, Grenoble - Hôtel de Ville","ag":["Lignes de covoiturage M covoit' Lignes+"],"lt":1,"dept":"38"}},{"type":"Feature","geometry":{"type":"Point","coordinates":[5.77591,45.19177]},"properties":{"nom":"Gières, Domaine Universitaire - Grésivaudan","ag":["Lignes de covoiturage M covoit' Lignes+"],"lt":0,"dept":"38"}},{"type":"Feature","geometry":{"type":"Point","coordinates":[5.68631,45.17574]},"properties":{"nom":"Seyssinet-Pariset, Seyssinet-Pariset - Belvédère","ag":["Lignes de covoiturage M covoit' Lignes+"],"lt":1,"dept":"38"}},{"type":"Feature","geometry":{"type":"Point","coordinates":[5.75535,45.1473]},"properties":{"nom":"Eybens, Eybens - Le Verderet (dir. Grésivaudan)","ag":["Lignes de covoiturage M covoit' Lignes+"],"lt":1,"dept":"38"}},{"type":"Feature","geometry":{"type":"Point","coordinates":[5.88465,45.26695]},"properties":{"nom":"Crolles, Crolles - ST Microelectronics","ag":["Lignes de covoiturage M covoit' Lignes+"],"lt":0,"dept":"38"}},{"type":"Feature","geometry":{"type":"Point","coordinates":[5.88903,45.27139]},"properties":{"nom":"Crolles, Crolles - Av. Ambroise Croizat","ag":["Lignes de covoiturage M covoit' Lignes+"],"lt":0,"dept":"38"}},{"type":"Feature","geometry":{"type":"Point","coordinates":[5.70126,45.20545]},"properties":{"nom":"Grenoble, Grenoble - Pont d'Oxford","ag":["Lignes de covoiturage M covoit' Lignes+"],"lt":1,"dept":"38"}},{"type":"Feature","geometry":{"type":"Point","coordinates":[5.70466,45.18016]},"properties":{"nom":"Grenoble, Grenoble - Catane (dir. Vercors)","ag":["Lignes de covoiturage M covoit' Lignes+"],"lt":0,"dept":"38"}},{"type":"Feature","geometry":{"type":"Point","coordinates":[5.52213,45.28857]},"properties":{"nom":"Tullins, Tullins - Échangeur 11","ag":["Lignes de covoiturage M covoit' Lignes+"],"lt":1,"dept":"38"}},{"type":"Feature","geometry":{"type":"Point","coordinates":[5.63004,45.17069]},"properties":{"nom":"Saint-Nizier-du-Moucherotte, St-Nizier-du-Moucherotte - Le Village","ag":["Lignes de covoiturage M covoit' Lignes+"],"lt":1,"dept":"38"}},{"type":"Feature","geometry":{"type":"Point","coordinates":[5.47738,45.3818]},"properties":{"nom":"Rives, Rives - Bièvre-Dauphine","ag":["Lignes de covoiturage M covoit' Lignes+"],"lt":1,"dept":"38"}},{"type":"Feature","geometry":{"type":"Point","coordinates":[5.97443,45.33788]},"properties":{"nom":"Goncelin, Goncelin - Collège","ag":["Lignes de covoiturage M covoit' Lignes+"],"lt":0,"dept":"38"}},{"type":"Feature","geometry":{"type":"Point","coordinates":[5.87848,45.26441]},"properties":{"nom":"Bernin, Bernin - Les Cloyères","ag":["Lignes de covoiturage M covoit' Lignes+"],"lt":0,"dept":"38"}},{"type":"Feature","geometry":{"type":"Point","coordinates":[5.59146,45.12725]},"properties":{"nom":"Lans-en-Vercors, Lans-en-Vercors - Rue des écoles","ag":["Lignes de covoiturage M covoit' Lignes+"],"lt":0,"dept":"38"}},{"type":"Feature","geometry":{"type":"Point","coordinates":[4.90319,45.31065]},"properties":{"nom":"Château Lachal","ag":["Agrégat des réseaux urbains et interurbains d'Auvergne-Rhône-Alpes","Réseau interurbain et scolaire - Drôme (26)"],"lt":0,"dept":"38"}},{"type":"Feature","geometry":{"type":"Point","coordinates":[5.60931,45.49637]},"properties":{"nom":"La Charrière","ag":["Agrégat des réseaux urbains et interurbains d'Auvergne-Rhône-Alpes","Réseau interurbain - Isère (38)"],"lt":0,"dept":"38"}},{"type":"Feature","geometry":{"type":"Point","coordinates":[5.60952,45.49628]},"properties":{"nom":"La Charrière","ag":["Agrégat des réseaux urbains et interurbains d'Auvergne-Rhône-Alpes","Réseau interurbain - Isère (38)"],"lt":0,"dept":"38"}},{"type":"Feature","geometry":{"type":"Point","coordinates":[5.5933,45.50221]},"properties":{"nom":"Les Etraits","ag":["Agrégat des réseaux urbains et interurbains d'Auvergne-Rhône-Alpes","Réseau interurbain - Isère (38)"],"lt":0,"dept":"38"}},{"type":"Feature","geometry":{"type":"Point","coordinates":[5.59321,45.50233]},"properties":{"nom":"Les Etraits","ag":["Agrégat des réseaux urbains et interurbains d'Auvergne-Rhône-Alpes","Réseau interurbain - Isère (38)"],"lt":0,"dept":"38"}},{"type":"Feature","geometry":{"type":"Point","coordinates":[5.60602,45.50081]},"properties":{"nom":"Begensière","ag":["Agrégat des réseaux urbains et interurbains d'Auvergne-Rhône-Alpes","Réseau interurbain - Isère (38)"],"lt":0,"dept":"38"}},{"type":"Feature","geometry":{"type":"Point","coordinates":[5.60601,45.50123]},"properties":{"nom":"Begensière","ag":["Agrégat des réseaux urbains et interurbains d'Auvergne-Rhône-Alpes","Réseau interurbain - Isère (38)"],"lt":0,"dept":"38"}},{"type":"Feature","geometry":{"type":"Point","coordinates":[5.58452,45.53737]},"properties":{"nom":"La Poste","ag":["Agrégat des réseaux urbains et interurbains d'Auvergne-Rhône-Alpes","Réseau interurbain - Isère (38)"],"lt":0,"dept":"38"}},{"type":"Feature","geometry":{"type":"Point","coordinates":[5.58427,45.53726]},"properties":{"nom":"La Poste","ag":["Agrégat des réseaux urbains et interurbains d'Auvergne-Rhône-Alpes","Réseau interurbain - Isère (38)"],"lt":0,"dept":"38"}},{"type":"Feature","geometry":{"type":"Point","coordinates":[5.59141,45.5362]},"properties":{"nom":"Collège Marcel Bouvier","ag":["Agrégat des réseaux urbains et interurbains d'Auvergne-Rhône-Alpes","Réseau interurbain - Isère (38)"],"lt":0,"dept":"38"}},{"type":"Feature","geometry":{"type":"Point","coordinates":[5.59125,45.53606]},"properties":{"nom":"Collège Marcel Bouvier","ag":["Agrégat des réseaux urbains et interurbains d'Auvergne-Rhône-Alpes","Réseau interurbain - Isère (38)"],"lt":0,"dept":"38"}},{"type":"Feature","geometry":{"type":"Point","coordinates":[5.59687,45.5096]},"properties":{"nom":"La Bâtie Mairie","ag":["Agrégat des réseaux urbains et interurbains d'Auvergne-Rhône-Alpes","Réseau interurbain - Isère (38)"],"lt":0,"dept":"38"}},{"type":"Feature","geometry":{"type":"Point","coordinates":[5.59665,45.50933]},"properties":{"nom":"La Bâtie Mairie","ag":["Agrégat des réseaux urbains et interurbains d'Auvergne-Rhône-Alpes","Réseau interurbain - Isère (38)"],"lt":0,"dept":"38"}},{"type":"Feature","geometry":{"type":"Point","coordinates":[5.61101,45.50952]},"properties":{"nom":"Les Roches","ag":["Agrégat des réseaux urbains et interurbains d'Auvergne-Rhône-Alpes","Réseau interurbain - Isère (38)"],"lt":0,"dept":"38"}},{"type":"Feature","geometry":{"type":"Point","coordinates":[5.61058,45.50966]},"properties":{"nom":"Les Roches","ag":["Agrégat des réseaux urbains et interurbains d'Auvergne-Rhône-Alpes","Réseau interurbain - Isère (38)"],"lt":0,"dept":"38"}},{"type":"Feature","geometry":{"type":"Point","coordinates":[5.56228,45.55319]},"properties":{"nom":"Beauregard","ag":["Agrégat des réseaux urbains et interurbains d'Auvergne-Rhône-Alpes","Réseau interurbain - Isère (38)"],"lt":0,"dept":"38"}},{"type":"Feature","geometry":{"type":"Point","coordinates":[5.56228,45.55328]},"properties":{"nom":"Beauregard","ag":["Agrégat des réseaux urbains et interurbains d'Auvergne-Rhône-Alpes","Réseau interurbain - Isère (38)"],"lt":0,"dept":"38"}},{"type":"Feature","geometry":{"type":"Point","coordinates":[5.57208,45.54815]},"properties":{"nom":"Fitilieu Stade","ag":["Agrégat des réseaux urbains et interurbains d'Auvergne-Rhône-Alpes","Réseau interurbain - Isère (38)"],"lt":0,"dept":"38"}},{"type":"Feature","geometry":{"type":"Point","coordinates":[5.57213,45.54809]},"properties":{"nom":"Fitilieu Stade","ag":["Agrégat des réseaux urbains et interurbains d'Auvergne-Rhône-Alpes","Réseau interurbain - Isère (38)"],"lt":0,"dept":"38"}},{"type":"Feature","geometry":{"type":"Point","coordinates":[5.59747,45.51253]},"properties":{"nom":"Lotissement le Cuaz","ag":["Agrégat des réseaux urbains et interurbains d'Auvergne-Rhône-Alpes","Réseau interurbain - Isère (38)"],"lt":0,"dept":"38"}},{"type":"Feature","geometry":{"type":"Point","coordinates":[5.5976,45.5122]},"properties":{"nom":"Lotissement le Cuaz","ag":["Agrégat des réseaux urbains et interurbains d'Auvergne-Rhône-Alpes","Réseau interurbain - Isère (38)"],"lt":0,"dept":"38"}},{"type":"Feature","geometry":{"type":"Point","coordinates":[5.60782,45.51158]},"properties":{"nom":"Le Temple 2","ag":["Agrégat des réseaux urbains et interurbains d'Auvergne-Rhône-Alpes","Réseau interurbain - Isère (38)"],"lt":0,"dept":"38"}},{"type":"Feature","geometry":{"type":"Point","coordinates":[5.60766,45.51156]},"properties":{"nom":"Le Temple 2","ag":["Agrégat des réseaux urbains et interurbains d'Auvergne-Rhône-Alpes","Réseau interurbain - Isère (38)"],"lt":0,"dept":"38"}},{"type":"Feature","geometry":{"type":"Point","coordinates":[5.61757,45.50977]},"properties":{"nom":"Brenard","ag":["Agrégat des réseaux urbains et interurbains d'Auvergne-Rhône-Alpes","Réseau interurbain - Isère (38)"],"lt":0,"dept":"38"}},{"type":"Feature","geometry":{"type":"Point","coordinates":[5.6173,45.50979]},"properties":{"nom":"Brenard","ag":["Agrégat des réseaux urbains et interurbains d'Auvergne-Rhône-Alpes","Réseau interurbain - Isère (38)"],"lt":0,"dept":"38"}},{"type":"Feature","geometry":{"type":"Point","coordinates":[5.60596,45.52662]},"properties":{"nom":"La Chapelle Hameau","ag":["Agrégat des réseaux urbains et interurbains d'Auvergne-Rhône-Alpes","Réseau interurbain - Isère (38)"],"lt":0,"dept":"38"}},{"type":"Feature","geometry":{"type":"Point","coordinates":[5.60576,45.52677]},"properties":{"nom":"La Chapelle Hameau","ag":["Agrégat des réseaux urbains et interurbains d'Auvergne-Rhône-Alpes","Réseau interurbain - Isère (38)"],"lt":0,"dept":"38"}},{"type":"Feature","geometry":{"type":"Point","coordinates":[5.56419,45.54621]},"properties":{"nom":"Fitilieu Village","ag":["Agrégat des réseaux urbains et interurbains d'Auvergne-Rhône-Alpes","Réseau interurbain - Isère (38)"],"lt":0,"dept":"38"}},{"type":"Feature","geometry":{"type":"Point","coordinates":[5.56412,45.54625]},"properties":{"nom":"Fitilieu Village","ag":["Agrégat des réseaux urbains et interurbains d'Auvergne-Rhône-Alpes","Réseau interurbain - Isère (38)"],"lt":0,"dept":"38"}},{"type":"Feature","geometry":{"type":"Point","coordinates":[5.60902,45.51992]},"properties":{"nom":"Ferme Peyrin","ag":["Agrégat des réseaux urbains et interurbains d'Auvergne-Rhône-Alpes","Réseau interurbain - Isère (38)"],"lt":0,"dept":"38"}},{"type":"Feature","geometry":{"type":"Point","coordinates":[5.60893,45.51995]},"properties":{"nom":"Ferme Peyrin","ag":["Agrégat des réseaux urbains et interurbains d'Auvergne-Rhône-Alpes","Réseau interurbain - Isère (38)"],"lt":0,"dept":"38"}},{"type":"Feature","geometry":{"type":"Point","coordinates":[5.60884,45.5471]},"properties":{"nom":"La Bruyère","ag":["Agrégat des réseaux urbains et interurbains d'Auvergne-Rhône-Alpes","Réseau interurbain - Isère (38)"],"lt":0,"dept":"38"}},{"type":"Feature","geometry":{"type":"Point","coordinates":[5.60851,45.54709]},"properties":{"nom":"La Bruyère","ag":["Agrégat des réseaux urbains et interurbains d'Auvergne-Rhône-Alpes","Réseau interurbain - Isère (38)"],"lt":0,"dept":"38"}},{"type":"Feature","geometry":{"type":"Point","coordinates":[5.58387,45.54598]},"properties":{"nom":"Nétrin","ag":["Agrégat des réseaux urbains et interurbains d'Auvergne-Rhône-Alpes","Réseau interurbain - Isère (38)"],"lt":0,"dept":"38"}},{"type":"Feature","geometry":{"type":"Point","coordinates":[5.58378,45.54589]},"properties":{"nom":"Nétrin","ag":["Agrégat des réseaux urbains et interurbains d'Auvergne-Rhône-Alpes","Réseau interurbain - Isère (38)"],"lt":0,"dept":"38"}},{"type":"Feature","geometry":{"type":"Point","coordinates":[5.60635,45.51484]},"properties":{"nom":"Le Temple","ag":["Agrégat des réseaux urbains et interurbains d'Auvergne-Rhône-Alpes","Réseau interurbain - Isère (38)"],"lt":0,"dept":"38"}},{"type":"Feature","geometry":{"type":"Point","coordinates":[5.60656,45.51405]},"properties":{"nom":"Le Temple","ag":["Agrégat des réseaux urbains et interurbains d'Auvergne-Rhône-Alpes","Réseau interurbain - Isère (38)"],"lt":0,"dept":"38"}},{"type":"Feature","geometry":{"type":"Point","coordinates":[5.56807,45.53589]},"properties":{"nom":"Garage Gadou","ag":["Agrégat des réseaux urbains et interurbains d'Auvergne-Rhône-Alpes","Réseau interurbain - Isère (38)"],"lt":0,"dept":"38"}},{"type":"Feature","geometry":{"type":"Point","coordinates":[5.5679,45.53598]},"properties":{"nom":"Garage Gadou","ag":["Agrégat des réseaux urbains et interurbains d'Auvergne-Rhône-Alpes","Réseau interurbain - Isère (38)"],"lt":0,"dept":"38"}},{"type":"Feature","geometry":{"type":"Point","coordinates":[5.57926,45.53697]},"properties":{"nom":"Le Bailly","ag":["Agrégat des réseaux urbains et interurbains d'Auvergne-Rhône-Alpes","Réseau interurbain - Isère (38)"],"lt":0,"dept":"38"}},{"type":"Feature","geometry":{"type":"Point","coordinates":[5.57972,45.53712]},"properties":{"nom":"Le Bailly","ag":["Agrégat des réseaux urbains et interurbains d'Auvergne-Rhône-Alpes","Réseau interurbain - Isère (38)"],"lt":0,"dept":"38"}},{"type":"Feature","geometry":{"type":"Point","coordinates":[5.59589,45.51406]},"properties":{"nom":"Bouchet-Bonnelet","ag":["Agrégat des réseaux urbains et interurbains d'Auvergne-Rhône-Alpes","Réseau interurbain - Isère (38)"],"lt":0,"dept":"38"}},{"type":"Feature","geometry":{"type":"Point","coordinates":[5.596,45.514]},"properties":{"nom":"Bouchet-Bonnelet","ag":["Agrégat des réseaux urbains et interurbains d'Auvergne-Rhône-Alpes","Réseau interurbain - Isère (38)"],"lt":0,"dept":"38"}},{"type":"Feature","geometry":{"type":"Point","coordinates":[5.59646,45.50888]},"properties":{"nom":"Ecoles","ag":["Agrégat des réseaux urbains et interurbains d'Auvergne-Rhône-Alpes","Réseau interurbain - Isère (38)"],"lt":0,"dept":"38"}},{"type":"Feature","geometry":{"type":"Point","coordinates":[5.56076,45.53967]},"properties":{"nom":"La Luissert","ag":["Agrégat des réseaux urbains et interurbains d'Auvergne-Rhône-Alpes","Réseau interurbain - Isère (38)"],"lt":0,"dept":"38"}},{"type":"Feature","geometry":{"type":"Point","coordinates":[5.56086,45.53969]},"properties":{"nom":"La Luissert","ag":["Agrégat des réseaux urbains et interurbains d'Auvergne-Rhône-Alpes","Réseau interurbain - Isère (38)"],"lt":0,"dept":"38"}},{"type":"Feature","geometry":{"type":"Point","coordinates":[5.5944,45.53471]},"properties":{"nom":"Le Perret","ag":["Agrégat des réseaux urbains et interurbains d'Auvergne-Rhône-Alpes","Réseau interurbain - Isère (38)"],"lt":0,"dept":"38"}},{"type":"Feature","geometry":{"type":"Point","coordinates":[5.58787,45.53728]},"properties":{"nom":"Rue d'Italie","ag":["Agrégat des réseaux urbains et interurbains d'Auvergne-Rhône-Alpes","Réseau interurbain - Isère (38)"],"lt":0,"dept":"38"}},{"type":"Feature","geometry":{"type":"Point","coordinates":[5.58787,45.53719]},"properties":{"nom":"Rue d'Italie","ag":["Agrégat des réseaux urbains et interurbains d'Auvergne-Rhône-Alpes","Réseau interurbain - Isère (38)"],"lt":0,"dept":"38"}},{"type":"Feature","geometry":{"type":"Point","coordinates":[5.59821,45.54443]},"properties":{"nom":"La Déchetterie","ag":["Agrégat des réseaux urbains et interurbains d'Auvergne-Rhône-Alpes","Réseau interurbain - Isère (38)"],"lt":0,"dept":"38"}},{"type":"Feature","geometry":{"type":"Point","coordinates":[5.59837,45.54449]},"properties":{"nom":"La Déchetterie","ag":["Agrégat des réseaux urbains et interurbains d'Auvergne-Rhône-Alpes","Réseau interurbain - Isère (38)"],"lt":0,"dept":"38"}},{"type":"Feature","geometry":{"type":"Point","coordinates":[5.54944,45.5554]},"properties":{"nom":"Le Crêt","ag":["Agrégat des réseaux urbains et interurbains d'Auvergne-Rhône-Alpes","Réseau interurbain - Isère (38)"],"lt":0,"dept":"38"}},{"type":"Feature","geometry":{"type":"Point","coordinates":[5.54947,45.55544]},"properties":{"nom":"Le Crêt","ag":["Agrégat des réseaux urbains et interurbains d'Auvergne-Rhône-Alpes","Réseau interurbain - Isère (38)"],"lt":0,"dept":"38"}},{"type":"Feature","geometry":{"type":"Point","coordinates":[5.56416,45.56359]},"properties":{"nom":"Maroc","ag":["Agrégat des réseaux urbains et interurbains d'Auvergne-Rhône-Alpes","Réseau interurbain - Isère (38)"],"lt":0,"dept":"38"}},{"type":"Feature","geometry":{"type":"Point","coordinates":[5.5642,45.56361]},"properties":{"nom":"Maroc","ag":["Agrégat des réseaux urbains et interurbains d'Auvergne-Rhône-Alpes","Réseau interurbain - Isère (38)"],"lt":0,"dept":"38"}},{"type":"Feature","geometry":{"type":"Point","coordinates":[5.60384,45.50815]},"properties":{"nom":"Tarentey","ag":["Agrégat des réseaux urbains et interurbains d'Auvergne-Rhône-Alpes","Réseau interurbain - Isère (38)"],"lt":0,"dept":"38"}},{"type":"Feature","geometry":{"type":"Point","coordinates":[5.60476,45.50813]},"properties":{"nom":"Tarentey","ag":["Agrégat des réseaux urbains et interurbains d'Auvergne-Rhône-Alpes","Réseau interurbain - Isère (38)"],"lt":0,"dept":"38"}},{"type":"Feature","geometry":{"type":"Point","coordinates":[5.622,45.50654]},"properties":{"nom":"Le Sougey","ag":["Agrégat des réseaux urbains et interurbains d'Auvergne-Rhône-Alpes","Réseau interurbain - Isère (38)"],"lt":0,"dept":"38"}},{"type":"Feature","geometry":{"type":"Point","coordinates":[5.62191,45.50657]},"properties":{"nom":"Le Sougey","ag":["Agrégat des réseaux urbains et interurbains d'Auvergne-Rhône-Alpes","Réseau interurbain - Isère (38)"],"lt":0,"dept":"38"}},{"type":"Feature","geometry":{"type":"Point","coordinates":[5.57488,45.54292]},"properties":{"nom":"La Laiterie","ag":["Agrégat des réseaux urbains et interurbains d'Auvergne-Rhône-Alpes","Réseau interurbain - Isère (38)"],"lt":0,"dept":"38"}},{"type":"Feature","geometry":{"type":"Point","coordinates":[5.57486,45.543]},"properties":{"nom":"La Laiterie","ag":["Agrégat des réseaux urbains et interurbains d'Auvergne-Rhône-Alpes","Réseau interurbain - Isère (38)"],"lt":0,"dept":"38"}},{"type":"Feature","geometry":{"type":"Point","coordinates":[5.60553,45.53556]},"properties":{"nom":"Antheys","ag":["Agrégat des réseaux urbains et interurbains d'Auvergne-Rhône-Alpes","Réseau interurbain - Isère (38)"],"lt":0,"dept":"38"}},{"type":"Feature","geometry":{"type":"Point","coordinates":[5.60523,45.53584]},"properties":{"nom":"Antheys","ag":["Agrégat des réseaux urbains et interurbains d'Auvergne-Rhône-Alpes","Réseau interurbain - Isère (38)"],"lt":0,"dept":"38"}},{"type":"Feature","geometry":{"type":"Point","coordinates":[4.85905,45.32426]},"properties":{"nom":"Les Falques","ag":["Agrégat des réseaux urbains et interurbains d'Auvergne-Rhône-Alpes","Réseau interurbain - Isère (38)"],"lt":0,"dept":"38"}},{"type":"Feature","geometry":{"type":"Point","coordinates":[4.8591,45.3242]},"properties":{"nom":"Les Falques","ag":["Agrégat des réseaux urbains et interurbains d'Auvergne-Rhône-Alpes","Réseau interurbain - Isère (38)"],"lt":0,"dept":"38"}},{"type":"Feature","geometry":{"type":"Point","coordinates":[4.87509,45.32716]},"properties":{"nom":"Grange Neuve D519","ag":["Agrégat des réseaux urbains et interurbains d'Auvergne-Rhône-Alpes","Réseau interurbain - Isère (38)"],"lt":0,"dept":"38"}},{"type":"Feature","geometry":{"type":"Point","coordinates":[4.87515,45.3271]},"properties":{"nom":"Grange Neuve D519","ag":["Agrégat des réseaux urbains et interurbains d'Auvergne-Rhône-Alpes","Réseau interurbain - Isère (38)"],"lt":0,"dept":"38"}},{"type":"Feature","geometry":{"type":"Point","coordinates":[4.85077,45.34247]},"properties":{"nom":"Route du Stade","ag":["Agrégat des réseaux urbains et interurbains d'Auvergne-Rhône-Alpes","Réseau interurbain - Isère (38)"],"lt":0,"dept":"38"}},{"type":"Feature","geometry":{"type":"Point","coordinates":[4.85085,45.34306]},"properties":{"nom":"Route du Stade","ag":["Agrégat des réseaux urbains et interurbains d'Auvergne-Rhône-Alpes","Réseau interurbain - Isère (38)"],"lt":0,"dept":"38"}},{"type":"Feature","geometry":{"type":"Point","coordinates":[4.85094,45.33895]},"properties":{"nom":"Carrefour D51 La Forêt","ag":["Agrégat des réseaux urbains et interurbains d'Auvergne-Rhône-Alpes","Réseau interurbain - Isère (38)"],"lt":0,"dept":"38"}},{"type":"Feature","geometry":{"type":"Point","coordinates":[4.85086,45.33887]},"properties":{"nom":"Carrefour D51 La Forêt","ag":["Agrégat des réseaux urbains et interurbains d'Auvergne-Rhône-Alpes","Réseau interurbain - Isère (38)"],"lt":0,"dept":"38"}},{"type":"Feature","geometry":{"type":"Point","coordinates":[4.85672,45.3393]},"properties":{"nom":"Village","ag":["Agrégat des réseaux urbains et interurbains d'Auvergne-Rhône-Alpes","Réseau interurbain - Isère (38)"],"lt":0,"dept":"38"}},{"type":"Feature","geometry":{"type":"Point","coordinates":[4.85683,45.33926]},"properties":{"nom":"Village","ag":["Agrégat des réseaux urbains et interurbains d'Auvergne-Rhône-Alpes","Réseau interurbain - Isère (38)"],"lt":0,"dept":"38"}},{"type":"Feature","geometry":{"type":"Point","coordinates":[4.87649,45.34169]},"properties":{"nom":"Les Oches","ag":["Agrégat des réseaux urbains et interurbains d'Auvergne-Rhône-Alpes","Réseau interurbain - Isère (38)"],"lt":0,"dept":"38"}},{"type":"Feature","geometry":{"type":"Point","coordinates":[4.8477,45.33839]},"properties":{"nom":"Le Vieux Pont","ag":["Agrégat des réseaux urbains et interurbains d'Auvergne-Rhône-Alpes","Réseau interurbain - Isère (38)"],"lt":0,"dept":"38"}},{"type":"Feature","geometry":{"type":"Point","coordinates":[4.84745,45.33822]},"properties":{"nom":"Le Vieux Pont","ag":["Agrégat des réseaux urbains et interurbains d'Auvergne-Rhône-Alpes","Réseau interurbain - Isère (38)"],"lt":0,"dept":"38"}},{"type":"Feature","geometry":{"type":"Point","coordinates":[5.45544,45.2048]},"properties":{"nom":"Riquetière","ag":["Agrégat des réseaux urbains et interurbains d'Auvergne-Rhône-Alpes","Réseau interurbain - Isère (38)"],"lt":0,"dept":"38"}},{"type":"Feature","geometry":{"type":"Point","coordinates":[5.45531,45.20482]},"properties":{"nom":"Riquetière","ag":["Agrégat des réseaux urbains et interurbains d'Auvergne-Rhône-Alpes","Réseau interurbain - Isère (38)"],"lt":0,"dept":"38"}},{"type":"Feature","geometry":{"type":"Point","coordinates":[5.43949,45.22329]},"properties":{"nom":"Le Village","ag":["Agrégat des réseaux urbains et interurbains d'Auvergne-Rhône-Alpes","Réseau interurbain - Isère (38)"],"lt":0,"dept":"38"}},{"type":"Feature","geometry":{"type":"Point","coordinates":[5.43949,45.22346]},"properties":{"nom":"Le Village","ag":["Agrégat des réseaux urbains et interurbains d'Auvergne-Rhône-Alpes","Réseau interurbain - Isère (38)"],"lt":0,"dept":"38"}},{"type":"Feature","geometry":{"type":"Point","coordinates":[5.46178,45.21191]},"properties":{"nom":"Carrefour Bivan","ag":["Agrégat des réseaux urbains et interurbains d'Auvergne-Rhône-Alpes","Réseau interurbain - Isère (38)"],"lt":0,"dept":"38"}},{"type":"Feature","geometry":{"type":"Point","coordinates":[5.46184,45.21189]},"properties":{"nom":"Carrefour Bivan","ag":["Agrégat des réseaux urbains et interurbains d'Auvergne-Rhône-Alpes","Réseau interurbain - Isère (38)"],"lt":0,"dept":"38"}},{"type":"Feature","geometry":{"type":"Point","coordinates":[5.46425,45.21598]},"properties":{"nom":"Pacalière","ag":["Agrégat des réseaux urbains et interurbains d'Auvergne-Rhône-Alpes","Réseau interurbain - Isère (38)"],"lt":0,"dept":"38"}},{"type":"Feature","geometry":{"type":"Point","coordinates":[5.44747,45.22122]},"properties":{"nom":"La Gare","ag":["Agrégat des réseaux urbains et interurbains d'Auvergne-Rhône-Alpes","Réseau interurbain - Isère (38)"],"lt":0,"dept":"38"}},{"type":"Feature","geometry":{"type":"Point","coordinates":[5.46029,45.20882]},"properties":{"nom":"Caminière","ag":["Agrégat des réseaux urbains et interurbains d'Auvergne-Rhône-Alpes","Réseau interurbain - Isère (38)"],"lt":0,"dept":"38"}},{"type":"Feature","geometry":{"type":"Point","coordinates":[5.46036,45.20887]},"properties":{"nom":"Caminière","ag":["Agrégat des réseaux urbains et interurbains d'Auvergne-Rhône-Alpes","Réseau interurbain - Isère (38)"],"lt":0,"dept":"38"}},{"type":"Feature","geometry":{"type":"Point","coordinates":[5.45582,45.21637]},"properties":{"nom":"La Croix Rouge","ag":["Agrégat des réseaux urbains et interurbains d'Auvergne-Rhône-Alpes","Réseau interurbain - Isère (38)"],"lt":0,"dept":"38"}},{"type":"Feature","geometry":{"type":"Point","coordinates":[5.45575,45.21643]},"properties":{"nom":"La Croix Rouge","ag":["Agrégat des réseaux urbains et interurbains d'Auvergne-Rhône-Alpes","Réseau interurbain - Isère (38)"],"lt":0,"dept":"38"}},{"type":"Feature","geometry":{"type":"Point","coordinates":[5.44197,45.2297]},"properties":{"nom":"Les Rivoires du Nan","ag":["Agrégat des réseaux urbains et interurbains d'Auvergne-Rhône-Alpes","Réseau interurbain - Isère (38)"],"lt":0,"dept":"38"}},{"type":"Feature","geometry":{"type":"Point","coordinates":[6.02705,45.12372]},"properties":{"nom":"Pharmacie","ag":["Agrégat des réseaux urbains et interurbains d'Auvergne-Rhône-Alpes","Réseau interurbain - Isère (38)"],"lt":0,"dept":"38"}},{"type":"Feature","geometry":{"type":"Point","coordinates":[6.02711,45.12369]},"properties":{"nom":"Pharmacie","ag":["Agrégat des réseaux urbains et interurbains d'Auvergne-Rhône-Alpes","Réseau interurbain - Isère (38)"],"lt":0,"dept":"38"}},{"type":"Feature","geometry":{"type":"Point","coordinates":[6.02018,45.12055]},"properties":{"nom":"La Passerelle","ag":["Agrégat des réseaux urbains et interurbains d'Auvergne-Rhône-Alpes","Réseau interurbain - Isère (38)"],"lt":0,"dept":"38"}},{"type":"Feature","geometry":{"type":"Point","coordinates":[6.02029,45.12052]},"properties":{"nom":"La Passerelle","ag":["Agrégat des réseaux urbains et interurbains d'Auvergne-Rhône-Alpes","Réseau interurbain - Isère (38)"],"lt":0,"dept":"38"}},{"type":"Feature","geometry":{"type":"Point","coordinates":[6.04079,45.1288]},"properties":{"nom":"Plan Barbier","ag":["Agrégat des réseaux urbains et interurbains d'Auvergne-Rhône-Alpes","Réseau interurbain - Isère (38)"],"lt":0,"dept":"38"}},{"type":"Feature","geometry":{"type":"Point","coordinates":[6.04266,45.13363]},"properties":{"nom":"Les Grands Champs","ag":["Agrégat des réseaux urbains et interurbains d'Auvergne-Rhône-Alpes","Réseau interurbain - Isère (38)"],"lt":0,"dept":"38"}},{"type":"Feature","geometry":{"type":"Point","coordinates":[6.03457,45.12677]},"properties":{"nom":"La Fonderie","ag":["Agrégat des réseaux urbains et interurbains d'Auvergne-Rhône-Alpes","Réseau interurbain - Isère (38)"],"lt":0,"dept":"38"}},{"type":"Feature","geometry":{"type":"Point","coordinates":[6.03446,45.12668]},"properties":{"nom":"La Fonderie","ag":["Agrégat des réseaux urbains et interurbains d'Auvergne-Rhône-Alpes","Réseau interurbain - Isère (38)"],"lt":0,"dept":"38"}},{"type":"Feature","geometry":{"type":"Point","coordinates":[6.03847,45.12717]},"properties":{"nom":"Groupe Scol. les Ardoisières","ag":["Agrégat des réseaux urbains et interurbains d'Auvergne-Rhône-Alpes","Réseau interurbain - Isère (38)"],"lt":0,"dept":"38"}},{"type":"Feature","geometry":{"type":"Point","coordinates":[6.03844,45.12722]},"properties":{"nom":"Groupe Scol. les Ardoisières","ag":["Agrégat des réseaux urbains et interurbains d'Auvergne-Rhône-Alpes","Réseau interurbain - Isère (38)"],"lt":0,"dept":"38"}},{"type":"Feature","geometry":{"type":"Point","coordinates":[6.01097,45.12096]},"properties":{"nom":"Lotissement Farmier","ag":["Agrégat des réseaux urbains et interurbains d'Auvergne-Rhône-Alpes","Réseau interurbain - Isère (38)"],"lt":0,"dept":"38"}},{"type":"Feature","geometry":{"type":"Point","coordinates":[6.01107,45.1209]},"properties":{"nom":"Lotissement Farmier","ag":["Agrégat des réseaux urbains et interurbains d'Auvergne-Rhône-Alpes","Réseau interurbain - Isère (38)"],"lt":0,"dept":"38"}},{"type":"Feature","geometry":{"type":"Point","coordinates":[6.01754,45.12158]},"properties":{"nom":"Pernière Basse (Abri)","ag":["Agrégat des réseaux urbains et interurbains d'Auvergne-Rhône-Alpes","Réseau interurbain - Isère (38)"],"lt":0,"dept":"38"}},{"type":"Feature","geometry":{"type":"Point","coordinates":[6.0174,45.12158]},"properties":{"nom":"Pernière Basse (Abri)","ag":["Agrégat des réseaux urbains et interurbains d'Auvergne-Rhône-Alpes","Réseau interurbain - Isère (38)"],"lt":0,"dept":"38"}},{"type":"Feature","geometry":{"type":"Point","coordinates":[6.01357,45.12225]},"properties":{"nom":"Pernière Basse (Fond)","ag":["Agrégat des réseaux urbains et interurbains d'Auvergne-Rhône-Alpes","Réseau interurbain - Isère (38)"],"lt":0,"dept":"38"}},{"type":"Feature","geometry":{"type":"Point","coordinates":[6.0138,45.12215]},"properties":{"nom":"Pernière Basse (Fond)","ag":["Agrégat des réseaux urbains et interurbains d'Auvergne-Rhône-Alpes","Réseau interurbain - Isère (38)"],"lt":0,"dept":"38"}},{"type":"Feature","geometry":{"type":"Point","coordinates":[6.04129,45.13164]},"properties":{"nom":"La Ville","ag":["Agrégat des réseaux urbains et interurbains d'Auvergne-Rhône-Alpes","Réseau interurbain - Isère (38)"],"lt":0,"dept":"38"}},{"type":"Feature","geometry":{"type":"Point","coordinates":[6.04151,45.13166]},"properties":{"nom":"La Ville","ag":["Agrégat des réseaux urbains et interurbains d'Auvergne-Rhône-Alpes","Réseau interurbain - Isère (38)"],"lt":0,"dept":"38"}},{"type":"Feature","geometry":{"type":"Point","coordinates":[5.93074,44.80545]},"properties":{"nom":"Le Village","ag":["Agrégat des réseaux urbains et interurbains d'Auvergne-Rhône-Alpes","Réseau interurbain - Isère (38)"],"lt":0,"dept":"38"}},{"type":"Feature","geometry":{"type":"Point","coordinates":[5.93077,44.80548]},"properties":{"nom":"Le Village","ag":["Agrégat des réseaux urbains et interurbains d'Auvergne-Rhône-Alpes","Réseau interurbain - Isère (38)"],"lt":0,"dept":"38"}},{"type":"Feature","geometry":{"type":"Point","coordinates":[4.87757,45.34169]},"properties":{"nom":"Les Oches","ag":["Agrégat des réseaux urbains et interurbains d'Auvergne-Rhône-Alpes","Réseau interurbain - Isère (38)"],"lt":0,"dept":"38"}},{"type":"Feature","geometry":{"type":"Point","coordinates":[4.88243,45.3464]},"properties":{"nom":"La Place","ag":["Agrégat des réseaux urbains et interurbains d'Auvergne-Rhône-Alpes","Réseau interurbain - Isère (38)"],"lt":0,"dept":"38"}},{"type":"Feature","geometry":{"type":"Point","coordinates":[4.88233,45.34632]},"properties":{"nom":"La Place","ag":["Agrégat des réseaux urbains et interurbains d'Auvergne-Rhône-Alpes","Réseau interurbain - Isère (38)"],"lt":0,"dept":"38"}},{"type":"Feature","geometry":{"type":"Point","coordinates":[5.29306,45.75706]},"properties":{"nom":"Le Rocher","ag":["Agrégat des réseaux urbains et interurbains d'Auvergne-Rhône-Alpes","Réseau interurbain - Isère (38)"],"lt":0,"dept":"38"}},{"type":"Feature","geometry":{"type":"Point","coordinates":[5.29315,45.75702]},"properties":{"nom":"Le Rocher","ag":["Agrégat des réseaux urbains et interurbains d'Auvergne-Rhône-Alpes","Réseau interurbain - Isère (38)"],"lt":0,"dept":"38"}},{"type":"Feature","geometry":{"type":"Point","coordinates":[5.27726,45.75206]},"properties":{"nom":"Michalieu","ag":["Agrégat des réseaux urbains et interurbains d'Auvergne-Rhône-Alpes","Réseau interurbain - Isère (38)"],"lt":0,"dept":"38"}},{"type":"Feature","geometry":{"type":"Point","coordinates":[5.27721,45.75212]},"properties":{"nom":"Michalieu","ag":["Agrégat des réseaux urbains et interurbains d'Auvergne-Rhône-Alpes","Réseau interurbain - Isère (38)"],"lt":0,"dept":"38"}},{"type":"Feature","geometry":{"type":"Point","coordinates":[5.29012,45.75245]},"properties":{"nom":"L'Eglise","ag":["Agrégat des réseaux urbains et interurbains d'Auvergne-Rhône-Alpes","Réseau interurbain - Isère (38)"],"lt":0,"dept":"38"}},{"type":"Feature","geometry":{"type":"Point","coordinates":[5.29006,45.75251]},"properties":{"nom":"L'Eglise","ag":["Agrégat des réseaux urbains et interurbains d'Auvergne-Rhône-Alpes","Réseau interurbain - Isère (38)"],"lt":0,"dept":"38"}},{"type":"Feature","geometry":{"type":"Point","coordinates":[5.30849,45.77422]},"properties":{"nom":"Chatelans Place","ag":["Agrégat des réseaux urbains et interurbains d'Auvergne-Rhône-Alpes","Réseau interurbain - Isère (38)"],"lt":0,"dept":"38"}},{"type":"Feature","geometry":{"type":"Point","coordinates":[5.30857,45.77426]},"properties":{"nom":"Chatelans Place","ag":["Agrégat des réseaux urbains et interurbains d'Auvergne-Rhône-Alpes","Réseau interurbain - Isère (38)"],"lt":0,"dept":"38"}},{"type":"Feature","geometry":{"type":"Point","coordinates":[5.30211,45.77217]},"properties":{"nom":"Chatelans Lot.","ag":["Agrégat des réseaux urbains et interurbains d'Auvergne-Rhône-Alpes","Réseau interurbain - Isère (38)"],"lt":0,"dept":"38"}},{"type":"Feature","geometry":{"type":"Point","coordinates":[5.30214,45.7721]},"properties":{"nom":"Chatelans Lot.","ag":["Agrégat des réseaux urbains et interurbains d'Auvergne-Rhône-Alpes","Réseau interurbain - Isère (38)"],"lt":0,"dept":"38"}},{"type":"Feature","geometry":{"type":"Point","coordinates":[5.31951,45.76599]},"properties":{"nom":"Ferme d'Amby","ag":["Agrégat des réseaux urbains et interurbains d'Auvergne-Rhône-Alpes","Réseau interurbain - Isère (38)"],"lt":0,"dept":"38"}},{"type":"Feature","geometry":{"type":"Point","coordinates":[5.31939,45.76599]},"properties":{"nom":"Ferme d'Amby","ag":["Agrégat des réseaux urbains et interurbains d'Auvergne-Rhône-Alpes","Réseau interurbain - Isère (38)"],"lt":0,"dept":"38"}},{"type":"Feature","geometry":{"type":"Point","coordinates":[5.16977,45.79002]},"properties":{"nom":"La Mairie","ag":["Agrégat des réseaux urbains et interurbains d'Auvergne-Rhône-Alpes","Réseau interurbain - Isère (38)"],"lt":0,"dept":"38"}},{"type":"Feature","geometry":{"type":"Point","coordinates":[5.1697,45.78985]},"properties":{"nom":"La Mairie","ag":["Agrégat des réseaux urbains et interurbains d'Auvergne-Rhône-Alpes","Réseau interurbain - Isère (38)"],"lt":0,"dept":"38"}},{"type":"Feature","geometry":{"type":"Point","coordinates":[5.16599,45.78963]},"properties":{"nom":"Le Dépôt","ag":["Agrégat des réseaux urbains et interurbains d'Auvergne-Rhône-Alpes","Réseau interurbain - Isère (38)"],"lt":0,"dept":"38"}},{"type":"Feature","geometry":{"type":"Point","coordinates":[5.16605,45.78971]},"properties":{"nom":"Le Dépôt","ag":["Agrégat des réseaux urbains et interurbains d'Auvergne-Rhône-Alpes","Réseau interurbain - Isère (38)"],"lt":0,"dept":"38"}},{"type":"Feature","geometry":{"type":"Point","coordinates":[5.60452,45.58965]},"properties":{"nom":"Les Ecoles","ag":["Agrégat des réseaux urbains et interurbains d'Auvergne-Rhône-Alpes","Réseau interurbain - Isère (38)"],"lt":0,"dept":"38"}},{"type":"Feature","geometry":{"type":"Point","coordinates":[5.60463,45.58962]},"properties":{"nom":"Les Ecoles","ag":["Agrégat des réseaux urbains et interurbains d'Auvergne-Rhône-Alpes","Réseau interurbain - Isère (38)"],"lt":0,"dept":"38"}},{"type":"Feature","geometry":{"type":"Point","coordinates":[5.60792,45.58751]},"properties":{"nom":"Le Village","ag":["Agrégat des réseaux urbains et interurbains d'Auvergne-Rhône-Alpes","Réseau interurbain - Isère (38)"],"lt":0,"dept":"38"}},{"type":"Feature","geometry":{"type":"Point","coordinates":[5.60782,45.58744]},"properties":{"nom":"Le Village","ag":["Agrégat des réseaux urbains et interurbains d'Auvergne-Rhône-Alpes","Réseau interurbain - Isère (38)"],"lt":0,"dept":"38"}},{"type":"Feature","geometry":{"type":"Point","coordinates":[5.62119,45.59409]},"properties":{"nom":"Les Charmilles","ag":["Agrégat des réseaux urbains et interurbains d'Auvergne-Rhône-Alpes","Réseau interurbain - Isère (38)"],"lt":0,"dept":"38"}},{"type":"Feature","geometry":{"type":"Point","coordinates":[5.62182,45.59391]},"properties":{"nom":"Les Charmilles","ag":["Agrégat des réseaux urbains et interurbains d'Auvergne-Rhône-Alpes","Réseau interurbain - Isère (38)"],"lt":0,"dept":"38"}},{"type":"Feature","geometry":{"type":"Point","coordinates":[5.61782,45.59222]},"properties":{"nom":"Les Planches","ag":["Agrégat des réseaux urbains et interurbains d'Auvergne-Rhône-Alpes","Réseau interurbain - Isère (38)"],"lt":0,"dept":"38"}},{"type":"Feature","geometry":{"type":"Point","coordinates":[5.61801,45.59229]},"properties":{"nom":"Les Planches","ag":["Agrégat des réseaux urbains et interurbains d'Auvergne-Rhône-Alpes","Réseau interurbain - Isère (38)"],"lt":0,"dept":"38"}},{"type":"Feature","geometry":{"type":"Point","coordinates":[5.60041,45.58729]},"properties":{"nom":"Normandoz","ag":["Agrégat des réseaux urbains et interurbains d'Auvergne-Rhône-Alpes","Réseau interurbain - Isère (38)"],"lt":0,"dept":"38"}},{"type":"Feature","geometry":{"type":"Point","coordinates":[5.60007,45.58724]},"properties":{"nom":"Normandoz","ag":["Agrégat des réseaux urbains et interurbains d'Auvergne-Rhône-Alpes","Réseau interurbain - Isère (38)"],"lt":0,"dept":"38"}},{"type":"Feature","geometry":{"type":"Point","coordinates":[5.62342,45.58977]},"properties":{"nom":"Charmilles Après la Croix","ag":["Agrégat des réseaux urbains et interurbains d'Auvergne-Rhône-Alpes","Réseau interurbain - Isère (38)"],"lt":0,"dept":"38"}},{"type":"Feature","geometry":{"type":"Point","coordinates":[5.62348,45.58915]},"properties":{"nom":"Charmilles Après la Croix","ag":["Agrégat des réseaux urbains et interurbains d'Auvergne-Rhône-Alpes","Réseau interurbain - Isère (38)"],"lt":0,"dept":"38"}},{"type":"Feature","geometry":{"type":"Point","coordinates":[5.6288,45.59697]},"properties":{"nom":"La Chapelière","ag":["Agrégat des réseaux urbains et interurbains d'Auvergne-Rhône-Alpes","Réseau interurbain - Isère (38)"],"lt":0,"dept":"38"}},{"type":"Feature","geometry":{"type":"Point","coordinates":[5.60884,45.60168]},"properties":{"nom":"Usine Jambon d'Aoste","ag":["Agrégat des réseaux urbains et interurbains d'Auvergne-Rhône-Alpes","Réseau interurbain - Isère (38)"],"lt":0,"dept":"38"}},{"type":"Feature","geometry":{"type":"Point","coordinates":[5.60867,45.60156]},"properties":{"nom":"Usine Jambon d'Aoste","ag":["Agrégat des réseaux urbains et interurbains d'Auvergne-Rhône-Alpes","Réseau interurbain - Isère (38)"],"lt":0,"dept":"38"}},{"type":"Feature","geometry":{"type":"Point","coordinates":[5.6274,45.59865]},"properties":{"nom":"Ecole les Champagnes","ag":["Agrégat des réseaux urbains et interurbains d'Auvergne-Rhône-Alpes","Réseau interurbain - Isère (38)"],"lt":0,"dept":"38"}},{"type":"Feature","geometry":{"type":"Point","coordinates":[5.62105,45.60313]},"properties":{"nom":"Les Champagnes","ag":["Agrégat des réseaux urbains et interurbains d'Auvergne-Rhône-Alpes","Réseau interurbain - Isère (38)"],"lt":0,"dept":"38"}},{"type":"Feature","geometry":{"type":"Point","coordinates":[5.62101,45.60304]},"properties":{"nom":"Les Champagnes","ag":["Agrégat des réseaux urbains et interurbains d'Auvergne-Rhône-Alpes","Réseau interurbain - Isère (38)"],"lt":0,"dept":"38"}},{"type":"Feature","geometry":{"type":"Point","coordinates":[5.61052,45.61804]},"properties":{"nom":"Saint-Didier-le Pont","ag":["Agrégat des réseaux urbains et interurbains d'Auvergne-Rhône-Alpes","Réseau interurbain - Isère (38)"],"lt":0,"dept":"38"}},{"type":"Feature","geometry":{"type":"Point","coordinates":[5.61076,45.61803]},"properties":{"nom":"Saint-Didier-le Pont","ag":["Agrégat des réseaux urbains et interurbains d'Auvergne-Rhône-Alpes","Réseau interurbain - Isère (38)"],"lt":0,"dept":"38"}},{"type":"Feature","geometry":{"type":"Point","coordinates":[5.60803,45.58746]},"properties":{"nom":"Le Village","ag":["Agrégat des réseaux urbains et interurbains d'Auvergne-Rhône-Alpes","Réseau interurbain - Savoie (73)"],"lt":0,"dept":"38"}},{"type":"Feature","geometry":{"type":"Point","coordinates":[5.60783,45.58752]},"properties":{"nom":"Le Village","ag":["Agrégat des réseaux urbains et interurbains d'Auvergne-Rhône-Alpes","Réseau interurbain - Savoie (73)"],"lt":0,"dept":"38"}},{"type":"Feature","geometry":{"type":"Point","coordinates":[5.61781,45.59224]},"properties":{"nom":"Les Planches","ag":["Agrégat des réseaux urbains et interurbains d'Auvergne-Rhône-Alpes","Réseau interurbain - Savoie (73)"],"lt":0,"dept":"38"}},{"type":"Feature","geometry":{"type":"Point","coordinates":[5.61805,45.5923]},"properties":{"nom":"Les Planches","ag":["Agrégat des réseaux urbains et interurbains d'Auvergne-Rhône-Alpes","Réseau interurbain - Savoie (73)"],"lt":0,"dept":"38"}},{"type":"Feature","geometry":{"type":"Point","coordinates":[5.60751,45.59049]},"properties":{"nom":"Salle des Fêtes","ag":["Agrégat des réseaux urbains et interurbains d'Auvergne-Rhône-Alpes","Réseau interurbain - Isère (38)"],"lt":0,"dept":"38"}},{"type":"Feature","geometry":{"type":"Point","coordinates":[5.60743,45.59033]},"properties":{"nom":"Salle des Fêtes","ag":["Agrégat des réseaux urbains et interurbains d'Auvergne-Rhône-Alpes","Réseau interurbain - Isère (38)"],"lt":0,"dept":"38"}},{"type":"Feature","geometry":{"type":"Point","coordinates":[5.62916,45.58967]},"properties":{"nom":"Les Flandres","ag":["Agrégat des réseaux urbains et interurbains d'Auvergne-Rhône-Alpes","Réseau interurbain - Isère (38)"],"lt":0,"dept":"38"}},{"type":"Feature","geometry":{"type":"Point","coordinates":[5.62937,45.58949]},"properties":{"nom":"Les Flandres","ag":["Agrégat des réseaux urbains et interurbains d'Auvergne-Rhône-Alpes","Réseau interurbain - Isère (38)"],"lt":0,"dept":"38"}},{"type":"Feature","geometry":{"type":"Point","coordinates":[5.47532,45.39995]},"properties":{"nom":"La Contamine","ag":["Agrégat des réseaux urbains et interurbains d'Auvergne-Rhône-Alpes","Réseau interurbain - Isère (38)"],"lt":0,"dept":"38"}},{"type":"Feature","geometry":{"type":"Point","coordinates":[5.47542,45.3999]},"properties":{"nom":"La Contamine","ag":["Agrégat des réseaux urbains et interurbains d'Auvergne-Rhône-Alpes","Réseau interurbain - Isère (38)"],"lt":0,"dept":"38"}},{"type":"Feature","geometry":{"type":"Point","coordinates":[5.50155,45.39829]},"properties":{"nom":"Ecole Maternelle","ag":["Agrégat des réseaux urbains et interurbains d'Auvergne-Rhône-Alpes","Réseau interurbain - Isère (38)"],"lt":0,"dept":"38"}},{"type":"Feature","geometry":{"type":"Point","coordinates":[5.49232,45.39988]},"properties":{"nom":"La Robertière","ag":["Agrégat des réseaux urbains et interurbains d'Auvergne-Rhône-Alpes","Réseau interurbain - Isère (38)"],"lt":0,"dept":"38"}},{"type":"Feature","geometry":{"type":"Point","coordinates":[5.49256,45.39982]},"properties":{"nom":"La Robertière","ag":["Agrégat des réseaux urbains et interurbains d'Auvergne-Rhône-Alpes","Réseau interurbain - Isère (38)"],"lt":0,"dept":"38"}},{"type":"Feature","geometry":{"type":"Point","coordinates":[5.50317,45.39897]},"properties":{"nom":"Ecole Primaire Saint-Exupéry","ag":["Agrégat des réseaux urbains et interurbains d'Auvergne-Rhône-Alpes","Réseau interurbain - Isère (38)"],"lt":0,"dept":"38"}},{"type":"Feature","geometry":{"type":"Point","coordinates":[5.50486,45.3986]},"properties":{"nom":"Le Village","ag":["Agrégat des réseaux urbains et interurbains d'Auvergne-Rhône-Alpes","Réseau interurbain - Isère (38)"],"lt":0,"dept":"38"}},{"type":"Feature","geometry":{"type":"Point","coordinates":[5.50481,45.39852]},"properties":{"nom":"Le Village","ag":["Agrégat des réseaux urbains et interurbains d'Auvergne-Rhône-Alpes","Réseau interurbain - Isère (38)"],"lt":0,"dept":"38"}},{"type":"Feature","geometry":{"type":"Point","coordinates":[5.49463,45.38074]},"properties":{"nom":"Le Rivier-Ecole","ag":["Agrégat des réseaux urbains et interurbains d'Auvergne-Rhône-Alpes","Réseau interurbain - Isère (38)"],"lt":0,"dept":"38"}},{"type":"Feature","geometry":{"type":"Point","coordinates":[5.49458,45.38073]},"properties":{"nom":"Le Rivier-Ecole","ag":["Agrégat des réseaux urbains et interurbains d'Auvergne-Rhône-Alpes","Réseau interurbain - Isère (38)"],"lt":0,"dept":"38"}},{"type":"Feature","geometry":{"type":"Point","coordinates":[5.52339,45.40421]},"properties":{"nom":"Plambois","ag":["Agrégat des réseaux urbains et interurbains d'Auvergne-Rhône-Alpes","Réseau interurbain - Isère (38)"],"lt":0,"dept":"38"}},{"type":"Feature","geometry":{"type":"Point","coordinates":[5.52349,45.40419]},"properties":{"nom":"Plambois","ag":["Agrégat des réseaux urbains et interurbains d'Auvergne-Rhône-Alpes","Réseau interurbain - Isère (38)"],"lt":0,"dept":"38"}},{"type":"Feature","geometry":{"type":"Point","coordinates":[5.51533,45.39824]},"properties":{"nom":"Champ Guichard","ag":["Agrégat des réseaux urbains et interurbains d'Auvergne-Rhône-Alpes","Réseau interurbain - Isère (38)"],"lt":0,"dept":"38"}},{"type":"Feature","geometry":{"type":"Point","coordinates":[5.51524,45.39817]},"properties":{"nom":"Champ Guichard","ag":["Agrégat des réseaux urbains et interurbains d'Auvergne-Rhône-Alpes","Réseau interurbain - Isère (38)"],"lt":0,"dept":"38"}},{"type":"Feature","geometry":{"type":"Point","coordinates":[5.48505,45.40014]},"properties":{"nom":"La Couchonnière","ag":["Agrégat des réseaux urbains et interurbains d'Auvergne-Rhône-Alpes","Réseau interurbain - Isère (38)"],"lt":0,"dept":"38"}},{"type":"Feature","geometry":{"type":"Point","coordinates":[5.48487,45.4002]},"properties":{"nom":"La Couchonnière","ag":["Agrégat des réseaux urbains et interurbains d'Auvergne-Rhône-Alpes","Réseau interurbain - Isère (38)"],"lt":0,"dept":"38"}},{"type":"Feature","geometry":{"type":"Point","coordinates":[5.49987,45.39938]},"properties":{"nom":"Le Jacquin","ag":["Agrégat des réseaux urbains et interurbains d'Auvergne-Rhône-Alpes","Réseau interurbain - Isère (38)"],"lt":0,"dept":"38"}},{"type":"Feature","geometry":{"type":"Point","coordinates":[5.49982,45.39935]},"properties":{"nom":"Le Jacquin","ag":["Agrégat des réseaux urbains et interurbains d'Auvergne-Rhône-Alpes","Réseau interurbain - Isère (38)"],"lt":0,"dept":"38"}},{"type":"Feature","geometry":{"type":"Point","coordinates":[5.47082,45.39983]},"properties":{"nom":"Route des Plaines","ag":["Agrégat des réseaux urbains et interurbains d'Auvergne-Rhône-Alpes","Réseau interurbain - Isère (38)"],"lt":0,"dept":"38"}},{"type":"Feature","geometry":{"type":"Point","coordinates":[5.47079,45.39978]},"properties":{"nom":"Route des Plaines","ag":["Agrégat des réseaux urbains et interurbains d'Auvergne-Rhône-Alpes","Réseau interurbain - Isère (38)"],"lt":0,"dept":"38"}},{"type":"Feature","geometry":{"type":"Point","coordinates":[5.49213,45.37961]},"properties":{"nom":"Le Rivier","ag":["Agrégat des réseaux urbains et interurbains d'Auvergne-Rhône-Alpes","Réseau interurbain - Isère (38)"],"lt":0,"dept":"38"}},{"type":"Feature","geometry":{"type":"Point","coordinates":[5.4927,45.38006]},"properties":{"nom":"Le Rivier","ag":["Agrégat des réseaux urbains et interurbains d'Auvergne-Rhône-Alpes","Réseau interurbain - Isère (38)"],"lt":0,"dept":"38"}},{"type":"Feature","geometry":{"type":"Point","coordinates":[5.4671,45.39921]},"properties":{"nom":"Espace Comm. Bièvre Dauphine","ag":["Agrégat des réseaux urbains et interurbains d'Auvergne-Rhône-Alpes","Réseau interurbain - Isère (38)"],"lt":0,"dept":"38"}},{"type":"Feature","geometry":{"type":"Point","coordinates":[5.46724,45.39864]},"properties":{"nom":"Espace Comm. Bièvre Dauphine","ag":["Agrégat des réseaux urbains et interurbains d'Auvergne-Rhône-Alpes","Réseau interurbain - Isère (38)"],"lt":0,"dept":"38"}},{"type":"Feature","geometry":{"type":"Point","coordinates":[5.15385,45.54906]},"properties":{"nom":"Pierre Grand","ag":["Agrégat des réseaux urbains et interurbains d'Auvergne-Rhône-Alpes","Réseau interurbain - Isère (38)"],"lt":0,"dept":"38"}},{"type":"Feature","geometry":{"type":"Point","coordinates":[5.15392,45.54911]},"properties":{"nom":"Pierre Grand","ag":["Agrégat des réseaux urbains et interurbains d'Auvergne-Rhône-Alpes","Réseau interurbain - Isère (38)"],"lt":0,"dept":"38"}},{"type":"Feature","geometry":{"type":"Point","coordinates":[5.12941,45.53547]},"properties":{"nom":"Maison Turille","ag":["Agrégat des réseaux urbains et interurbains d'Auvergne-Rhône-Alpes","Réseau interurbain - Isère (38)"],"lt":0,"dept":"38"}},{"type":"Feature","geometry":{"type":"Point","coordinates":[5.14335,45.53755]},"properties":{"nom":"La Farfatière","ag":["Agrégat des réseaux urbains et interurbains d'Auvergne-Rhône-Alpes","Réseau interurbain - Isère (38)"],"lt":0,"dept":"38"}},{"type":"Feature","geometry":{"type":"Point","coordinates":[5.14343,45.53759]},"properties":{"nom":"La Farfatière","ag":["Agrégat des réseaux urbains et interurbains d'Auvergne-Rhône-Alpes","Réseau interurbain - Isère (38)"],"lt":0,"dept":"38"}},{"type":"Feature","geometry":{"type":"Point","coordinates":[5.16556,45.53611]},"properties":{"nom":"Place du 8 Mai","ag":["Agrégat des réseaux urbains et interurbains d'Auvergne-Rhône-Alpes","Réseau interurbain - Isère (38)"],"lt":0,"dept":"38"}},{"type":"Feature","geometry":{"type":"Point","coordinates":[5.16639,45.53633]},"properties":{"nom":"Place du 8 Mai","ag":["Agrégat des réseaux urbains et interurbains d'Auvergne-Rhône-Alpes","Réseau interurbain - Isère (38)"],"lt":0,"dept":"38"}},{"type":"Feature","geometry":{"type":"Point","coordinates":[5.20116,45.54291]},"properties":{"nom":"Tarnezieu","ag":["Agrégat des réseaux urbains et interurbains d'Auvergne-Rhône-Alpes","Réseau interurbain - Isère (38)"],"lt":0,"dept":"38"}},{"type":"Feature","geometry":{"type":"Point","coordinates":[5.20121,45.54295]},"properties":{"nom":"Tarnezieu","ag":["Agrégat des réseaux urbains et interurbains d'Auvergne-Rhône-Alpes","Réseau interurbain - Isère (38)"],"lt":0,"dept":"38"}},{"type":"Feature","geometry":{"type":"Point","coordinates":[5.15595,45.5316]},"properties":{"nom":"L'Aberay","ag":["Agrégat des réseaux urbains et interurbains d'Auvergne-Rhône-Alpes","Réseau interurbain - Isère (38)"],"lt":0,"dept":"38"}},{"type":"Feature","geometry":{"type":"Point","coordinates":[5.15607,45.5322]},"properties":{"nom":"L'Aberay","ag":["Agrégat des réseaux urbains et interurbains d'Auvergne-Rhône-Alpes","Réseau interurbain - Isère (38)"],"lt":0,"dept":"38"}},{"type":"Feature","geometry":{"type":"Point","coordinates":[5.19051,45.54191]},"properties":{"nom":"La Verne","ag":["Agrégat des réseaux urbains et interurbains d'Auvergne-Rhône-Alpes","Réseau interurbain - Isère (38)"],"lt":0,"dept":"38"}},{"type":"Feature","geometry":{"type":"Point","coordinates":[5.19067,45.5419]},"properties":{"nom":"La Verne","ag":["Agrégat des réseaux urbains et interurbains d'Auvergne-Rhône-Alpes","Réseau interurbain - Isère (38)"],"lt":0,"dept":"38"}},{"type":"Feature","geometry":{"type":"Point","coordinates":[5.14792,45.53915]},"properties":{"nom":"Le Revollet","ag":["Agrégat des réseaux urbains et interurbains d'Auvergne-Rhône-Alpes","Réseau interurbain - Isère (38)"],"lt":0,"dept":"38"}},{"type":"Feature","geometry":{"type":"Point","coordinates":[5.14829,45.53931]},"properties":{"nom":"Le Revollet","ag":["Agrégat des réseaux urbains et interurbains d'Auvergne-Rhône-Alpes","Réseau interurbain - Isère (38)"],"lt":0,"dept":"38"}},{"type":"Feature","geometry":{"type":"Point","coordinates":[5.18419,45.53376]},"properties":{"nom":"La Petite Forêt","ag":["Agrégat des réseaux urbains et interurbains d'Auvergne-Rhône-Alpes","Réseau interurbain - Isère (38)"],"lt":0,"dept":"38"}},{"type":"Feature","geometry":{"type":"Point","coordinates":[5.15419,45.54009]},"properties":{"nom":"Stade","ag":["Agrégat des réseaux urbains et interurbains d'Auvergne-Rhône-Alpes","Réseau interurbain - Isère (38)"],"lt":0,"dept":"38"}},{"type":"Feature","geometry":{"type":"Point","coordinates":[5.1551,45.54013]},"properties":{"nom":"Stade","ag":["Agrégat des réseaux urbains et interurbains d'Auvergne-Rhône-Alpes","Réseau interurbain - Isère (38)"],"lt":0,"dept":"38"}},{"type":"Feature","geometry":{"type":"Point","coordinates":[5.18664,45.5484]},"properties":{"nom":"La Grande Forêt","ag":["Agrégat des réseaux urbains et interurbains d'Auvergne-Rhône-Alpes","Réseau interurbain - Isère (38)"],"lt":0,"dept":"38"}},{"type":"Feature","geometry":{"type":"Point","coordinates":[5.17876,45.548]},"properties":{"nom":"La Grande Forêt 2","ag":["Agrégat des réseaux urbains et interurbains d'Auvergne-Rhône-Alpes","Réseau interurbain - Isère (38)"],"lt":0,"dept":"38"}},{"type":"Feature","geometry":{"type":"Point","coordinates":[5.14524,45.55041]},"properties":{"nom":"Le Barroz 2","ag":["Agrégat des réseaux urbains et interurbains d'Auvergne-Rhône-Alpes","Réseau interurbain - Isère (38)"],"lt":0,"dept":"38"}},{"type":"Feature","geometry":{"type":"Point","coordinates":[5.14548,45.55044]},"properties":{"nom":"Le Barroz 2","ag":["Agrégat des réseaux urbains et interurbains d'Auvergne-Rhône-Alpes","Réseau interurbain - Isère (38)"],"lt":0,"dept":"38"}},{"type":"Feature","geometry":{"type":"Point","coordinates":[4.86732,45.40679]},"properties":{"nom":"Ecole d'Assieu","ag":["Agrégat des réseaux urbains et interurbains d'Auvergne-Rhône-Alpes","Réseau interurbain - Isère (38)"],"lt":0,"dept":"38"}},{"type":"Feature","geometry":{"type":"Point","coordinates":[4.86735,45.40672]},"properties":{"nom":"Ecole d'Assieu","ag":["Agrégat des réseaux urbains et interurbains d'Auvergne-Rhône-Alpes","Réseau interurbain - Isère (38)"],"lt":0,"dept":"38"}},{"type":"Feature","geometry":{"type":"Point","coordinates":[4.85719,45.40636]},"properties":{"nom":"Les Bruyères","ag":["Agrégat des réseaux urbains et interurbains d'Auvergne-Rhône-Alpes","Réseau interurbain - Isère (38)"],"lt":0,"dept":"38"}},{"type":"Feature","geometry":{"type":"Point","coordinates":[4.85721,45.40632]},"properties":{"nom":"Les Bruyères","ag":["Agrégat des réseaux urbains et interurbains d'Auvergne-Rhône-Alpes","Réseau interurbain - Isère (38)"],"lt":0,"dept":"38"}},{"type":"Feature","geometry":{"type":"Point","coordinates":[4.86253,45.40633]},"properties":{"nom":"Bascule","ag":["Agrégat des réseaux urbains et interurbains d'Auvergne-Rhône-Alpes","Réseau interurbain - Isère (38)"],"lt":0,"dept":"38"}},{"type":"Feature","geometry":{"type":"Point","coordinates":[4.86245,45.40637]},"properties":{"nom":"Bascule","ag":["Agrégat des réseaux urbains et interurbains d'Auvergne-Rhône-Alpes","Réseau interurbain - Isère (38)"],"lt":0,"dept":"38"}},{"type":"Feature","geometry":{"type":"Point","coordinates":[4.86245,45.40618]},"properties":{"nom":"Bascule","ag":["Agrégat des réseaux urbains et interurbains d'Auvergne-Rhône-Alpes","Réseau urbain L'va"],"lt":0,"dept":"38"}},{"type":"Feature","geometry":{"type":"Point","coordinates":[4.85672,45.40653]},"properties":{"nom":"Les Meuilles","ag":["Agrégat des réseaux urbains et interurbains d'Auvergne-Rhône-Alpes","Réseau urbain L'va"],"lt":0,"dept":"38"}},{"type":"Feature","geometry":{"type":"Point","coordinates":[4.86776,45.40671]},"properties":{"nom":"Place","ag":["Agrégat des réseaux urbains et interurbains d'Auvergne-Rhône-Alpes"],"lt":0,"dept":"38"}},{"type":"Feature","geometry":{"type":"Point","coordinates":[5.32152,45.06936]},"properties":{"nom":"La Remise","ag":["Agrégat des réseaux urbains et interurbains d'Auvergne-Rhône-Alpes","Réseau interurbain - Isère (38)"],"lt":0,"dept":"38"}},{"type":"Feature","geometry":{"type":"Point","coordinates":[5.32151,45.06932]},"properties":{"nom":"La Remise","ag":["Agrégat des réseaux urbains et interurbains d'Auvergne-Rhône-Alpes","Réseau interurbain - Isère (38)"],"lt":0,"dept":"38"}},{"type":"Feature","geometry":{"type":"Point","coordinates":[5.31545,45.07201]},"properties":{"nom":"Le Mas du Birollet","ag":["Agrégat des réseaux urbains et interurbains d'Auvergne-Rhône-Alpes","Réseau interurbain - Isère (38)"],"lt":0,"dept":"38"}},{"type":"Feature","geometry":{"type":"Point","coordinates":[5.31557,45.07204]},"properties":{"nom":"Le Mas du Birollet","ag":["Agrégat des réseaux urbains et interurbains d'Auvergne-Rhône-Alpes","Réseau interurbain - Isère (38)"],"lt":0,"dept":"38"}},{"type":"Feature","geometry":{"type":"Point","coordinates":[5.30089,45.06352]},"properties":{"nom":"Le Village","ag":["Agrégat des réseaux urbains et interurbains d'Auvergne-Rhône-Alpes","Réseau interurbain - Isère (38)"],"lt":0,"dept":"38"}},{"type":"Feature","geometry":{"type":"Point","coordinates":[5.30084,45.06346]},"properties":{"nom":"Le Village","ag":["Agrégat des réseaux urbains et interurbains d'Auvergne-Rhône-Alpes","Réseau interurbain - Isère (38)"],"lt":0,"dept":"38"}},{"type":"Feature","geometry":{"type":"Point","coordinates":[5.30454,45.07757]},"properties":{"nom":"Carrefour Rte de la Blachette","ag":["Agrégat des réseaux urbains et interurbains d'Auvergne-Rhône-Alpes","Réseau interurbain - Isère (38)"],"lt":0,"dept":"38"}},{"type":"Feature","geometry":{"type":"Point","coordinates":[5.30448,45.07752]},"properties":{"nom":"Carrefour Rte de la Blachette","ag":["Agrégat des réseaux urbains et interurbains d'Auvergne-Rhône-Alpes","Réseau interurbain - Isère (38)"],"lt":0,"dept":"38"}},{"type":"Feature","geometry":{"type":"Point","coordinates":[5.30893,45.07243]},"properties":{"nom":"Hameau de Veyrand","ag":["Agrégat des réseaux urbains et interurbains d'Auvergne-Rhône-Alpes","Réseau interurbain - Isère (38)"],"lt":0,"dept":"38"}},{"type":"Feature","geometry":{"type":"Point","coordinates":[5.30892,45.07241]},"properties":{"nom":"Hameau de Veyrand","ag":["Agrégat des réseaux urbains et interurbains d'Auvergne-Rhône-Alpes","Réseau interurbain - Isère (38)"],"lt":0,"dept":"38"}},{"type":"Feature","geometry":{"type":"Point","coordinates":[5.30081,45.06338]},"properties":{"nom":"Ecoles","ag":["Agrégat des réseaux urbains et interurbains d'Auvergne-Rhône-Alpes","Réseau interurbain - Isère (38)"],"lt":0,"dept":"38"}},{"type":"Feature","geometry":{"type":"Point","coordinates":[5.30082,45.0634]},"properties":{"nom":"Ecoles","ag":["Agrégat des réseaux urbains et interurbains d'Auvergne-Rhône-Alpes","Réseau interurbain - Isère (38)"],"lt":0,"dept":"38"}},{"type":"Feature","geometry":{"type":"Point","coordinates":[5.3061,45.07594]},"properties":{"nom":"Voie Charbonnel","ag":["Agrégat des réseaux urbains et interurbains d'Auvergne-Rhône-Alpes","Réseau interurbain - Isère (38)"],"lt":0,"dept":"38"}},{"type":"Feature","geometry":{"type":"Point","coordinates":[5.31503,45.07124]},"properties":{"nom":"Le Birollet","ag":["Agrégat des réseaux urbains et interurbains d'Auvergne-Rhône-Alpes","Réseau interurbain - Isère (38)"],"lt":0,"dept":"38"}},{"type":"Feature","geometry":{"type":"Point","coordinates":[5.31611,45.07103]},"properties":{"nom":"Le Birollet","ag":["Agrégat des réseaux urbains et interurbains d'Auvergne-Rhône-Alpes","Réseau interurbain - Isère (38)"],"lt":0,"dept":"38"}},{"type":"Feature","geometry":{"type":"Point","coordinates":[5.30974,45.07855]},"properties":{"nom":"Tunnel de Bluvinaye","ag":["Agrégat des réseaux urbains et interurbains d'Auvergne-Rhône-Alpes","Réseau interurbain - Isère (38)"],"lt":0,"dept":"38"}},{"type":"Feature","geometry":{"type":"Point","coordinates":[4.81579,45.41762]},"properties":{"nom":"Troquino","ag":["Agrégat des réseaux urbains et interurbains d'Auvergne-Rhône-Alpes","Réseau interurbain - Isère (38)"],"lt":0,"dept":"38"}},{"type":"Feature","geometry":{"type":"Point","coordinates":[4.81572,45.41776]},"properties":{"nom":"Troquino","ag":["Agrégat des réseaux urbains et interurbains d'Auvergne-Rhône-Alpes","Réseau interurbain - Isère (38)"],"lt":0,"dept":"38"}},{"type":"Feature","geometry":{"type":"Point","coordinates":[4.81693,45.42068]},"properties":{"nom":"Garage Renault","ag":["Agrégat des réseaux urbains et interurbains d'Auvergne-Rhône-Alpes","Réseau interurbain - Isère (38)"],"lt":0,"dept":"38"}},{"type":"Feature","geometry":{"type":"Point","coordinates":[4.817,45.42047]},"properties":{"nom":"Garage Renault","ag":["Agrégat des réseaux urbains et interurbains d'Auvergne-Rhône-Alpes","Réseau interurbain - Isère (38)"],"lt":0,"dept":"38"}},{"type":"Feature","geometry":{"type":"Point","coordinates":[4.81982,45.43115]},"properties":{"nom":"Le Clos (Route Cheyssieu)","ag":["Agrégat des réseaux urbains et interurbains d'Auvergne-Rhône-Alpes","Réseau interurbain - Isère (38)"],"lt":0,"dept":"38"}},{"type":"Feature","geometry":{"type":"Point","coordinates":[4.82025,45.43098]},"properties":{"nom":"Le Clos (Route Cheyssieu)","ag":["Agrégat des réseaux urbains et interurbains d'Auvergne-Rhône-Alpes","Réseau interurbain - Isère (38)"],"lt":0,"dept":"38"}},{"type":"Feature","geometry":{"type":"Point","coordinates":[4.81383,45.41272]},"properties":{"nom":"Hôtel des Nations","ag":["Agrégat des réseaux urbains et interurbains d'Auvergne-Rhône-Alpes","Réseau interurbain - Isère (38)"],"lt":0,"dept":"38"}},{"type":"Feature","geometry":{"type":"Point","coordinates":[4.81777,45.4314]},"properties":{"nom":"Le Clos-le-Bas N7","ag":["Agrégat des réseaux urbains et interurbains d'Auvergne-Rhône-Alpes","Réseau interurbain - Isère (38)"],"lt":0,"dept":"38"}},{"type":"Feature","geometry":{"type":"Point","coordinates":[4.81785,45.43136]},"properties":{"nom":"Le Clos-le-Bas N7","ag":["Agrégat des réseaux urbains et interurbains d'Auvergne-Rhône-Alpes","Réseau interurbain - Isère (38)"],"lt":0,"dept":"38"}},{"type":"Feature","geometry":{"type":"Point","coordinates":[4.81878,45.43577]},"properties":{"nom":"Les Roses","ag":["Agrégat des réseaux urbains et interurbains d'Auvergne-Rhône-Alpes","Réseau interurbain - Isère (38)"],"lt":0,"dept":"38"}},{"type":"Feature","geometry":{"type":"Point","coordinates":[6.0865,45.0459]},"properties":{"nom":"Ecole","ag":["Agrégat des réseaux urbains et interurbains d'Auvergne-Rhône-Alpes","Réseau interurbain - Isère (38)"],"lt":0,"dept":"38"}},{"type":"Feature","geometry":{"type":"Point","coordinates":[6.08417,45.05155]},"properties":{"nom":"Les Courts-Le Haut","ag":["Agrégat des réseaux urbains et interurbains d'Auvergne-Rhône-Alpes","Réseau interurbain - Isère (38)"],"lt":0,"dept":"38"}},{"type":"Feature","geometry":{"type":"Point","coordinates":[6.09056,45.04481]},"properties":{"nom":"La Ville","ag":["Agrégat des réseaux urbains et interurbains d'Auvergne-Rhône-Alpes","Réseau interurbain - Isère (38)"],"lt":0,"dept":"38"}},{"type":"Feature","geometry":{"type":"Point","coordinates":[6.09063,45.04479]},"properties":{"nom":"La Ville","ag":["Agrégat des réseaux urbains et interurbains d'Auvergne-Rhône-Alpes","Réseau interurbain - Isère (38)"],"lt":0,"dept":"38"}},{"type":"Feature","geometry":{"type":"Point","coordinates":[6.0711,45.029]},"properties":{"nom":"Le Clapier","ag":["Agrégat des réseaux urbains et interurbains d'Auvergne-Rhône-Alpes","Réseau interurbain - Isère (38)"],"lt":0,"dept":"38"}},{"type":"Feature","geometry":{"type":"Point","coordinates":[6.07095,45.02902]},"properties":{"nom":"Le Clapier","ag":["Agrégat des réseaux urbains et interurbains d'Auvergne-Rhône-Alpes","Réseau interurbain - Isère (38)"],"lt":0,"dept":"38"}},{"type":"Feature","geometry":{"type":"Point","coordinates":[6.08336,45.05062]},"properties":{"nom":"Les Cours","ag":["Agrégat des réseaux urbains et interurbains d'Auvergne-Rhône-Alpes","Réseau interurbain - Isère (38)"],"lt":0,"dept":"38"}},{"type":"Feature","geometry":{"type":"Point","coordinates":[6.07924,45.05565]},"properties":{"nom":"Office de Tourisme","ag":["Agrégat des réseaux urbains et interurbains d'Auvergne-Rhône-Alpes","Réseau interurbain - Isère (38)","Navettes saisonnières Transaltitude - Isère"],"lt":0,"dept":"38"}},{"type":"Feature","geometry":{"type":"Point","coordinates":[6.09232,45.04671]},"properties":{"nom":"Les Chatains","ag":["Agrégat des réseaux urbains et interurbains d'Auvergne-Rhône-Alpes","Réseau interurbain - Isère (38)"],"lt":0,"dept":"38"}},{"type":"Feature","geometry":{"type":"Point","coordinates":[6.09221,45.04656]},"properties":{"nom":"Les Chatains","ag":["Agrégat des réseaux urbains et interurbains d'Auvergne-Rhône-Alpes","Réseau interurbain - Isère (38)"],"lt":0,"dept":"38"}},{"type":"Feature","geometry":{"type":"Point","coordinates":[6.0799,45.04059]},"properties":{"nom":"Le Cert","ag":["Agrégat des réseaux urbains et interurbains d'Auvergne-Rhône-Alpes","Réseau interurbain - Isère (38)"],"lt":0,"dept":"38"}},{"type":"Feature","geometry":{"type":"Point","coordinates":[6.08423,45.0403]},"properties":{"nom":"La Balme","ag":["Agrégat des réseaux urbains et interurbains d'Auvergne-Rhône-Alpes","Réseau interurbain - Isère (38)"],"lt":0,"dept":"38"}},{"type":"Feature","geometry":{"type":"Point","coordinates":[5.55465,45.63921]},"properties":{"nom":"Le Perticoz-La Longeraie","ag":["Agrégat des réseaux urbains et interurbains d'Auvergne-Rhône-Alpes","Réseau interurbain - Isère (38)"],"lt":0,"dept":"38"}},{"type":"Feature","geometry":{"type":"Point","coordinates":[5.55456,45.63924]},"properties":{"nom":"Le Perticoz-La Longeraie","ag":["Agrégat des réseaux urbains et interurbains d'Auvergne-Rhône-Alpes","Réseau interurbain - Isère (38)"],"lt":0,"dept":"38"}},{"type":"Feature","geometry":{"type":"Point","coordinates":[5.54512,45.64386]},"properties":{"nom":"Le Villard-Maison Mergoud","ag":["Agrégat des réseaux urbains et interurbains d'Auvergne-Rhône-Alpes","Réseau interurbain - Isère (38)"],"lt":0,"dept":"38"}},{"type":"Feature","geometry":{"type":"Point","coordinates":[5.54511,45.64379]},"properties":{"nom":"Le Villard-Maison Mergoud","ag":["Agrégat des réseaux urbains et interurbains d'Auvergne-Rhône-Alpes","Réseau interurbain - Isère (38)"],"lt":0,"dept":"38"}},{"type":"Feature","geometry":{"type":"Point","coordinates":[5.53909,45.64558]},"properties":{"nom":"Le Clos","ag":["Agrégat des réseaux urbains et interurbains d'Auvergne-Rhône-Alpes","Réseau interurbain - Isère (38)"],"lt":0,"dept":"38"}},{"type":"Feature","geometry":{"type":"Point","coordinates":[5.5333,45.6302]},"properties":{"nom":"Le Petit Veyrins","ag":["Agrégat des réseaux urbains et interurbains d'Auvergne-Rhône-Alpes","Réseau interurbain - Isère (38)"],"lt":0,"dept":"38"}},{"type":"Feature","geometry":{"type":"Point","coordinates":[5.53385,45.62978]},"properties":{"nom":"Le Petit Veyrins","ag":["Agrégat des réseaux urbains et interurbains d'Auvergne-Rhône-Alpes","Réseau interurbain - Isère (38)"],"lt":0,"dept":"38"}},{"type":"Feature","geometry":{"type":"Point","coordinates":[5.55348,45.63409]},"properties":{"nom":"Les Avenières Gare","ag":["Agrégat des réseaux urbains et interurbains d'Auvergne-Rhône-Alpes","Réseau interurbain - Isère (38)"],"lt":0,"dept":"38"}},{"type":"Feature","geometry":{"type":"Point","coordinates":[5.55306,45.63423]},"properties":{"nom":"Les Avenières Gare","ag":["Agrégat des réseaux urbains et interurbains d'Auvergne-Rhône-Alpes","Réseau interurbain - Isère (38)"],"lt":0,"dept":"38"}},{"type":"Feature","geometry":{"type":"Point","coordinates":[5.53998,45.62594]},"properties":{"nom":"Veyrins Gare","ag":["Agrégat des réseaux urbains et interurbains d'Auvergne-Rhône-Alpes","Réseau interurbain - Isère (38)"],"lt":0,"dept":"38"}},{"type":"Feature","geometry":{"type":"Point","coordinates":[5.5404,45.62604]},"properties":{"nom":"Veyrins Gare","ag":["Agrégat des réseaux urbains et interurbains d'Auvergne-Rhône-Alpes","Réseau interurbain - Isère (38)"],"lt":0,"dept":"38"}},{"type":"Feature","geometry":{"type":"Point","coordinates":[5.51793,45.63669]},"properties":{"nom":"Le Perier","ag":["Agrégat des réseaux urbains et interurbains d'Auvergne-Rhône-Alpes","Réseau interurbain - Isère (38)"],"lt":0,"dept":"38"}},{"type":"Feature","geometry":{"type":"Point","coordinates":[5.51846,45.63646]},"properties":{"nom":"Le Perier","ag":["Agrégat des réseaux urbains et interurbains d'Auvergne-Rhône-Alpes","Réseau interurbain - Isère (38)"],"lt":0,"dept":"38"}},{"type":"Feature","geometry":{"type":"Point","coordinates":[5.50816,45.639]},"properties":{"nom":"Thuellin - Eglise","ag":["Agrégat des réseaux urbains et interurbains d'Auvergne-Rhône-Alpes","Réseau interurbain - Isère (38)"],"lt":0,"dept":"38"}},{"type":"Feature","geometry":{"type":"Point","coordinates":[5.50801,45.63972]},"properties":{"nom":"Ecole de Musique","ag":["Agrégat des réseaux urbains et interurbains d'Auvergne-Rhône-Alpes","Réseau interurbain - Isère (38)"],"lt":0,"dept":"38"}},{"type":"Feature","geometry":{"type":"Point","coordinates":[5.5079,45.63969]},"properties":{"nom":"Ecole de Musique","ag":["Agrégat des réseaux urbains et interurbains d'Auvergne-Rhône-Alpes","Réseau interurbain - Isère (38)"],"lt":0,"dept":"38"}},{"type":"Feature","geometry":{"type":"Point","coordinates":[5.52252,45.6216]},"properties":{"nom":"Le Bois-Mont Maurin","ag":["Agrégat des réseaux urbains et interurbains d'Auvergne-Rhône-Alpes","Réseau interurbain - Isère (38)"],"lt":0,"dept":"38"}},{"type":"Feature","geometry":{"type":"Point","coordinates":[5.52248,45.62166]},"properties":{"nom":"Le Bois-Mont Maurin","ag":["Agrégat des réseaux urbains et interurbains d'Auvergne-Rhône-Alpes","Réseau interurbain - Isère (38)"],"lt":0,"dept":"38"}},{"type":"Feature","geometry":{"type":"Point","coordinates":[5.50642,45.63311]},"properties":{"nom":"Bois de Thuellin","ag":["Agrégat des réseaux urbains et interurbains d'Auvergne-Rhône-Alpes","Réseau interurbain - Isère (38)"],"lt":0,"dept":"38"}},{"type":"Feature","geometry":{"type":"Point","coordinates":[5.50645,45.63341]},"properties":{"nom":"Bois de Thuellin","ag":["Agrégat des réseaux urbains et interurbains d'Auvergne-Rhône-Alpes","Réseau interurbain - Isère (38)"],"lt":0,"dept":"38"}},{"type":"Feature","geometry":{"type":"Point","coordinates":[5.53045,45.62652]},"properties":{"nom":"Hameau le Molard","ag":["Agrégat des réseaux urbains et interurbains d'Auvergne-Rhône-Alpes","Réseau interurbain - Isère (38)"],"lt":0,"dept":"38"}},{"type":"Feature","geometry":{"type":"Point","coordinates":[5.53024,45.62642]},"properties":{"nom":"Hameau le Molard","ag":["Agrégat des réseaux urbains et interurbains d'Auvergne-Rhône-Alpes","Réseau interurbain - Isère (38)"],"lt":0,"dept":"38"}},{"type":"Feature","geometry":{"type":"Point","coordinates":[5.57468,45.63321]},"properties":{"nom":"Collège Arc en Ciers","ag":["Agrégat des réseaux urbains et interurbains d'Auvergne-Rhône-Alpes","Réseau interurbain - Isère (38)"],"lt":0,"dept":"38"}},{"type":"Feature","geometry":{"type":"Point","coordinates":[5.57249,45.6315]},"properties":{"nom":"Les Avenières Stade","ag":["Agrégat des réseaux urbains et interurbains d'Auvergne-Rhône-Alpes","Réseau interurbain - Isère (38)"],"lt":0,"dept":"38"}},{"type":"Feature","geometry":{"type":"Point","coordinates":[5.57227,45.63148]},"properties":{"nom":"Les Avenières Stade","ag":["Agrégat des réseaux urbains et interurbains d'Auvergne-Rhône-Alpes","Réseau interurbain - Isère (38)"],"lt":0,"dept":"38"}},{"type":"Feature","geometry":{"type":"Point","coordinates":[5.58278,45.62682]},"properties":{"nom":"Z.A. du Bert","ag":["Agrégat des réseaux urbains et interurbains d'Auvergne-Rhône-Alpes","Réseau interurbain - Isère (38)"],"lt":0,"dept":"38"}},{"type":"Feature","geometry":{"type":"Point","coordinates":[5.58267,45.62674]},"properties":{"nom":"Z.A. du Bert","ag":["Agrégat des réseaux urbains et interurbains d'Auvergne-Rhône-Alpes","Réseau interurbain - Isère (38)"],"lt":0,"dept":"38"}},{"type":"Feature","geometry":{"type":"Point","coordinates":[5.56193,45.63364]},"properties":{"nom":"Le Champ de Mars","ag":["Agrégat des réseaux urbains et interurbains d'Auvergne-Rhône-Alpes","Réseau interurbain - Isère (38)"],"lt":0,"dept":"38"}},{"type":"Feature","geometry":{"type":"Point","coordinates":[5.54462,45.65212]},"properties":{"nom":"Buvin Ecole","ag":["Agrégat des réseaux urbains et interurbains d'Auvergne-Rhône-Alpes","Réseau interurbain - Isère (38)"],"lt":0,"dept":"38"}},{"type":"Feature","geometry":{"type":"Point","coordinates":[5.54452,45.65224]},"properties":{"nom":"Buvin Ecole","ag":["Agrégat des réseaux urbains et interurbains d'Auvergne-Rhône-Alpes","Réseau interurbain - Isère (38)"],"lt":0,"dept":"38"}},{"type":"Feature","geometry":{"type":"Point","coordinates":[5.55649,45.65316]},"properties":{"nom":"Le Sablonnet","ag":["Agrégat des réseaux urbains et interurbains d'Auvergne-Rhône-Alpes","Réseau interurbain - Isère (38)"],"lt":0,"dept":"38"}},{"type":"Feature","geometry":{"type":"Point","coordinates":[5.55639,45.65318]},"properties":{"nom":"Le Sablonnet","ag":["Agrégat des réseaux urbains et interurbains d'Auvergne-Rhône-Alpes","Réseau interurbain - Isère (38)"],"lt":0,"dept":"38"}},{"type":"Feature","geometry":{"type":"Point","coordinates":[5.53337,45.65718]},"properties":{"nom":"Le Polossat","ag":["Agrégat des réseaux urbains et interurbains d'Auvergne-Rhône-Alpes","Réseau interurbain - Isère (38)"],"lt":0,"dept":"38"}},{"type":"Feature","geometry":{"type":"Point","coordinates":[5.53339,45.65725]},"properties":{"nom":"Le Polossat","ag":["Agrégat des réseaux urbains et interurbains d'Auvergne-Rhône-Alpes","Réseau interurbain - Isère (38)"],"lt":0,"dept":"38"}},{"type":"Feature","geometry":{"type":"Point","coordinates":[5.52583,45.65174]},"properties":{"nom":"Collonge Maison Boisson","ag":["Agrégat des réseaux urbains et interurbains d'Auvergne-Rhône-Alpes","Réseau interurbain - Isère (38)"],"lt":0,"dept":"38"}},{"type":"Feature","geometry":{"type":"Point","coordinates":[5.52592,45.65171]},"properties":{"nom":"Collonge Maison Boisson","ag":["Agrégat des réseaux urbains et interurbains d'Auvergne-Rhône-Alpes","Réseau interurbain - Isère (38)"],"lt":0,"dept":"38"}},{"type":"Feature","geometry":{"type":"Point","coordinates":[5.57137,45.64882]},"properties":{"nom":"Route du Luquet","ag":["Agrégat des réseaux urbains et interurbains d'Auvergne-Rhône-Alpes","Réseau interurbain - Isère (38)"],"lt":0,"dept":"38"}},{"type":"Feature","geometry":{"type":"Point","coordinates":[5.57127,45.6487]},"properties":{"nom":"Route du Luquet","ag":["Agrégat des réseaux urbains et interurbains d'Auvergne-Rhône-Alpes","Réseau interurbain - Isère (38)"],"lt":0,"dept":"38"}},{"type":"Feature","geometry":{"type":"Point","coordinates":[5.58859,45.63507]},"properties":{"nom":"Curtille","ag":["Agrégat des réseaux urbains et interurbains d'Auvergne-Rhône-Alpes","Réseau interurbain - Isère (38)"],"lt":0,"dept":"38"}},{"type":"Feature","geometry":{"type":"Point","coordinates":[5.58881,45.63509]},"properties":{"nom":"Curtille","ag":["Agrégat des réseaux urbains et interurbains d'Auvergne-Rhône-Alpes","Réseau interurbain - Isère (38)"],"lt":0,"dept":"38"}},{"type":"Feature","geometry":{"type":"Point","coordinates":[5.58948,45.62369]},"properties":{"nom":"Route de Granieu","ag":["Agrégat des réseaux urbains et interurbains d'Auvergne-Rhône-Alpes","Réseau interurbain - Isère (38)"],"lt":0,"dept":"38"}},{"type":"Feature","geometry":{"type":"Point","coordinates":[5.5901,45.62354]},"properties":{"nom":"Route de Granieu","ag":["Agrégat des réseaux urbains et interurbains d'Auvergne-Rhône-Alpes","Réseau interurbain - Isère (38)"],"lt":0,"dept":"38"}},{"type":"Feature","geometry":{"type":"Point","coordinates":[5.65113,44.96315]},"properties":{"nom":"Les Marceaux","ag":["Agrégat des réseaux urbains et interurbains d'Auvergne-Rhône-Alpes","Réseau interurbain - Isère (38)"],"lt":0,"dept":"38"}},{"type":"Feature","geometry":{"type":"Point","coordinates":[5.65117,44.96322]},"properties":{"nom":"Les Marceaux","ag":["Agrégat des réseaux urbains et interurbains d'Auvergne-Rhône-Alpes","Réseau interurbain - Isère (38)"],"lt":0,"dept":"38"}},{"type":"Feature","geometry":{"type":"Point","coordinates":[5.64777,44.96543]},"properties":{"nom":"Guéripel","ag":["Agrégat des réseaux urbains et interurbains d'Auvergne-Rhône-Alpes","Réseau interurbain - Isère (38)"],"lt":0,"dept":"38"}},{"type":"Feature","geometry":{"type":"Point","coordinates":[5.65677,44.95919]},"properties":{"nom":"Ecole Primaire","ag":["Agrégat des réseaux urbains et interurbains d'Auvergne-Rhône-Alpes","Réseau interurbain - Isère (38)"],"lt":0,"dept":"38"}},{"type":"Feature","geometry":{"type":"Point","coordinates":[5.65666,44.9592]},"properties":{"nom":"Ecole Primaire","ag":["Agrégat des réseaux urbains et interurbains d'Auvergne-Rhône-Alpes","Réseau interurbain - Isère (38)"],"lt":0,"dept":"38"}},{"type":"Feature","geometry":{"type":"Point","coordinates":[5.30068,45.82789]},"properties":{"nom":"La Brosse","ag":["Agrégat des réseaux urbains et interurbains d'Auvergne-Rhône-Alpes","Réseau interurbain - Isère (38)"],"lt":0,"dept":"38"}},{"type":"Feature","geometry":{"type":"Point","coordinates":[5.30066,45.82786]},"properties":{"nom":"La Brosse","ag":["Agrégat des réseaux urbains et interurbains d'Auvergne-Rhône-Alpes","Réseau interurbain - Isère (38)"],"lt":0,"dept":"38"}},{"type":"Feature","geometry":{"type":"Point","coordinates":[5.32589,45.83445]},"properties":{"nom":"Amblérieu","ag":["Agrégat des réseaux urbains et interurbains d'Auvergne-Rhône-Alpes","Réseau interurbain - Isère (38)"],"lt":0,"dept":"38"}},{"type":"Feature","geometry":{"type":"Point","coordinates":[5.32616,45.83463]},"properties":{"nom":"Amblérieu","ag":["Agrégat des réseaux urbains et interurbains d'Auvergne-Rhône-Alpes","Réseau interurbain - Isère (38)"],"lt":0,"dept":"38"}},{"type":"Feature","geometry":{"type":"Point","coordinates":[5.33755,45.85255]},"properties":{"nom":"Mairie","ag":["Agrégat des réseaux urbains et interurbains d'Auvergne-Rhône-Alpes","Réseau interurbain - Isère (38)"],"lt":0,"dept":"38"}},{"type":"Feature","geometry":{"type":"Point","coordinates":[5.33755,45.85267]},"properties":{"nom":"Mairie","ag":["Agrégat des réseaux urbains et interurbains d'Auvergne-Rhône-Alpes","Réseau interurbain - Isère (38)"],"lt":0,"dept":"38"}},{"type":"Feature","geometry":{"type":"Point","coordinates":[5.31036,45.84546]},"properties":{"nom":"Travers-Fontaine","ag":["Agrégat des réseaux urbains et interurbains d'Auvergne-Rhône-Alpes","Réseau interurbain - Isère (38)"],"lt":0,"dept":"38"}},{"type":"Feature","geometry":{"type":"Point","coordinates":[5.31051,45.84548]},"properties":{"nom":"Travers-Fontaine","ag":["Agrégat des réseaux urbains et interurbains d'Auvergne-Rhône-Alpes","Réseau interurbain - Isère (38)"],"lt":0,"dept":"38"}},{"type":"Feature","geometry":{"type":"Point","coordinates":[5.33334,45.85206]},"properties":{"nom":"Ancienne Ecole","ag":["Agrégat des réseaux urbains et interurbains d'Auvergne-Rhône-Alpes","Réseau interurbain - Isère (38)"],"lt":0,"dept":"38"}},{"type":"Feature","geometry":{"type":"Point","coordinates":[5.33337,45.85209]},"properties":{"nom":"Ancienne Ecole","ag":["Agrégat des réseaux urbains et interurbains d'Auvergne-Rhône-Alpes","Réseau interurbain - Isère (38)"],"lt":0,"dept":"38"}},{"type":"Feature","geometry":{"type":"Point","coordinates":[5.30077,45.83204]},"properties":{"nom":"Le Camping","ag":["Agrégat des réseaux urbains et interurbains d'Auvergne-Rhône-Alpes","Réseau interurbain - Isère (38)"],"lt":0,"dept":"38"}},{"type":"Feature","geometry":{"type":"Point","coordinates":[5.30091,45.83205]},"properties":{"nom":"Le Camping","ag":["Agrégat des réseaux urbains et interurbains d'Auvergne-Rhône-Alpes","Réseau interurbain - Isère (38)"],"lt":0,"dept":"38"}},{"type":"Feature","geometry":{"type":"Point","coordinates":[5.33204,45.84866]},"properties":{"nom":"Ecole des Muriers","ag":["Agrégat des réseaux urbains et interurbains d'Auvergne-Rhône-Alpes","Réseau interurbain - Isère (38)"],"lt":0,"dept":"38"}},{"type":"Feature","geometry":{"type":"Point","coordinates":[5.33188,45.84857]},"properties":{"nom":"Ecole des Muriers","ag":["Agrégat des réseaux urbains et interurbains d'Auvergne-Rhône-Alpes","Réseau interurbain - Isère (38)"],"lt":0,"dept":"38"}},{"type":"Feature","geometry":{"type":"Point","coordinates":[5.29909,45.82849]},"properties":{"nom":"Sous le Château","ag":["Agrégat des réseaux urbains et interurbains d'Auvergne-Rhône-Alpes","Réseau interurbain - Isère (38)"],"lt":0,"dept":"38"}},{"type":"Feature","geometry":{"type":"Point","coordinates":[5.29902,45.82821]},"properties":{"nom":"Sous le Château","ag":["Agrégat des réseaux urbains et interurbains d'Auvergne-Rhône-Alpes","Réseau interurbain - Isère (38)"],"lt":0,"dept":"38"}},{"type":"Feature","geometry":{"type":"Point","coordinates":[6.00161,45.43483]},"properties":{"nom":"Pont de la Gâche","ag":["Agrégat des réseaux urbains et interurbains d'Auvergne-Rhône-Alpes","Réseau interurbain - Isère (38)"],"lt":0,"dept":"38"}},{"type":"Feature","geometry":{"type":"Point","coordinates":[6.00142,45.43474]},"properties":{"nom":"Pont de la Gâche","ag":["Agrégat des réseaux urbains et interurbains d'Auvergne-Rhône-Alpes","Réseau interurbain - Isère (38)"],"lt":0,"dept":"38"}},{"type":"Feature","geometry":{"type":"Point","coordinates":[5.53248,45.57581]},"properties":{"nom":"Avolin-Stade","ag":["Agrégat des réseaux urbains et interurbains d'Auvergne-Rhône-Alpes","Réseau interurbain - Isère (38)"],"lt":0,"dept":"38"}},{"type":"Feature","geometry":{"type":"Point","coordinates":[5.53261,45.5757]},"properties":{"nom":"Avolin-Stade","ag":["Agrégat des réseaux urbains et interurbains d'Auvergne-Rhône-Alpes","Réseau interurbain - Isère (38)"],"lt":0,"dept":"38"}},{"type":"Feature","geometry":{"type":"Point","coordinates":[5.55237,45.57055]},"properties":{"nom":"Carrefour la Molette","ag":["Agrégat des réseaux urbains et interurbains d'Auvergne-Rhône-Alpes","Réseau interurbain - Isère (38)"],"lt":0,"dept":"38"}},{"type":"Feature","geometry":{"type":"Point","coordinates":[5.55211,45.57047]},"properties":{"nom":"Carrefour la Molette","ag":["Agrégat des réseaux urbains et interurbains d'Auvergne-Rhône-Alpes","Réseau interurbain - Isère (38)"],"lt":0,"dept":"38"}},{"type":"Feature","geometry":{"type":"Point","coordinates":[5.52873,45.57947]},"properties":{"nom":"Village","ag":["Agrégat des réseaux urbains et interurbains d'Auvergne-Rhône-Alpes","Réseau interurbain - Isère (38)"],"lt":0,"dept":"38"}},{"type":"Feature","geometry":{"type":"Point","coordinates":[5.52875,45.57936]},