{"type":"FeatureCollection","features":[{"type":"Feature","geometry":{"type":"Point","coordinates":[5.4364,46.32959]},"properties":{"nom":"Village","ag":["Réseau interurbain - Ain (01)","Agrégat des réseaux urbains et interurbains d'Auvergne-Rhône-Alpes"],"lt":0,"dept":"39"}},{"type":"Feature","geometry":{"type":"Point","coordinates":[5.45339,46.39435]},"properties":{"nom":"Saint-Julien - Village","ag":["Réseau interurbain - Ain (01)","Agrégat des réseaux urbains et interurbains d'Auvergne-Rhône-Alpes"],"lt":0,"dept":"39"}},{"type":"Feature","geometry":{"type":"Point","coordinates":[5.43054,46.35966]},"properties":{"nom":"Village","ag":["Réseau interurbain - Ain (01)","Agrégat des réseaux urbains et interurbains d'Auvergne-Rhône-Alpes"],"lt":0,"dept":"39"}},{"type":"Feature","geometry":{"type":"Point","coordinates":[5.43947,46.37368]},"properties":{"nom":"Villechantria - Village","ag":["Réseau interurbain - Ain (01)","Agrégat des réseaux urbains et interurbains d'Auvergne-Rhône-Alpes"],"lt":0,"dept":"39"}},{"type":"Feature","geometry":{"type":"Point","coordinates":[5.43689,46.33646]},"properties":{"nom":"Barézia","ag":["Réseau interurbain - Ain (01)","Agrégat des réseaux urbains et interurbains d'Auvergne-Rhône-Alpes"],"lt":0,"dept":"39"}},{"type":"Feature","geometry":{"type":"Point","coordinates":[5.76531,46.35694]},"properties":{"nom":"Molinges Village","ag":["Agrégat des réseaux urbains et interurbains d'Auvergne-Rhône-Alpes","Réseau interurbain Cars Région Express","Réseau SNCF TGV, Intercités et TER"],"lt":0,"dept":"39"}},{"type":"Feature","geometry":{"type":"Point","coordinates":[5.86035,46.38996]},"properties":{"nom":"Saint-Claude","ag":["Agrégat des réseaux urbains et interurbains d'Auvergne-Rhône-Alpes","Réseau interurbain Cars Région Express","Réseau SNCF TGV, Intercités et TER"],"lt":0,"dept":"39"}},{"type":"Feature","geometry":{"type":"Point","coordinates":[5.55417,46.67335]},"properties":{"nom":"LONS - THEATRE","ag":["Réseau urbain ECLA Mobilité"],"lt":0,"dept":"39"}},{"type":"Feature","geometry":{"type":"Point","coordinates":[5.55145,46.67295]},"properties":{"nom":"LONS - POSTE","ag":["Réseau urbain ECLA Mobilité"],"lt":0,"dept":"39"}},{"type":"Feature","geometry":{"type":"Point","coordinates":[5.55307,46.6727]},"properties":{"nom":"LONS - THUREL","ag":["Réseau urbain ECLA Mobilité"],"lt":0,"dept":"39"}},{"type":"Feature","geometry":{"type":"Point","coordinates":[5.55961,46.67376]},"properties":{"nom":"LONS - PLACE DU MARCHE","ag":["Réseau urbain ECLA Mobilité"],"lt":0,"dept":"39"}},{"type":"Feature","geometry":{"type":"Point","coordinates":[5.56242,46.67393]},"properties":{"nom":"LONS - MAISON MEDICALE","ag":["Réseau urbain ECLA Mobilité"],"lt":0,"dept":"39"}},{"type":"Feature","geometry":{"type":"Point","coordinates":[5.56565,46.67449]},"properties":{"nom":"LONS - PERVENCHES","ag":["Réseau urbain ECLA Mobilité"],"lt":0,"dept":"39"}},{"type":"Feature","geometry":{"type":"Point","coordinates":[5.56801,46.67414]},"properties":{"nom":"LONS - ABBE LEMIRE","ag":["Réseau urbain ECLA Mobilité"],"lt":0,"dept":"39"}},{"type":"Feature","geometry":{"type":"Point","coordinates":[5.57176,46.67349]},"properties":{"nom":"LONS - BARONNES","ag":["Réseau urbain ECLA Mobilité"],"lt":0,"dept":"39"}},{"type":"Feature","geometry":{"type":"Point","coordinates":[5.57354,46.67286]},"properties":{"nom":"LONS - EGLISE ST LUC","ag":["Réseau urbain ECLA Mobilité"],"lt":0,"dept":"39"}},{"type":"Feature","geometry":{"type":"Point","coordinates":[5.57448,46.67342]},"properties":{"nom":"LONS - BAR DES GENTIANES","ag":["Réseau urbain ECLA Mobilité"],"lt":0,"dept":"39"}},{"type":"Feature","geometry":{"type":"Point","coordinates":[5.57573,46.67508]},"properties":{"nom":"LONS - ACACIAS","ag":["Réseau urbain ECLA Mobilité"],"lt":0,"dept":"39"}},{"type":"Feature","geometry":{"type":"Point","coordinates":[5.57432,46.67752]},"properties":{"nom":"LONS - HAUT DES GENTIANES","ag":["Réseau urbain ECLA Mobilité"],"lt":0,"dept":"39"}},{"type":"Feature","geometry":{"type":"Point","coordinates":[5.57117,46.67784]},"properties":{"nom":"LONS - MAISON COMMUNE","ag":["Réseau urbain ECLA Mobilité"],"lt":0,"dept":"39"}},{"type":"Feature","geometry":{"type":"Point","coordinates":[5.57094,46.67951]},"properties":{"nom":"LONS - CENTRE COMMERCIAL MARJO","ag":["Réseau urbain ECLA Mobilité"],"lt":0,"dept":"39"}},{"type":"Feature","geometry":{"type":"Point","coordinates":[5.56943,46.68124]},"properties":{"nom":"LONS - RIPLEY","ag":["Réseau urbain ECLA Mobilité"],"lt":0,"dept":"39"}},{"type":"Feature","geometry":{"type":"Point","coordinates":[5.56491,46.68009]},"properties":{"nom":"LONS - ST EXUPERY","ag":["Réseau urbain ECLA Mobilité"],"lt":0,"dept":"39"}},{"type":"Feature","geometry":{"type":"Point","coordinates":[5.56483,46.67765]},"properties":{"nom":"LONS -DUNANT","ag":["Réseau urbain ECLA Mobilité"],"lt":0,"dept":"39"}},{"type":"Feature","geometry":{"type":"Point","coordinates":[5.5642,46.67681]},"properties":{"nom":"LONS - MENDES FRANCE","ag":["Réseau urbain ECLA Mobilité"],"lt":0,"dept":"39"}},{"type":"Feature","geometry":{"type":"Point","coordinates":[5.56068,46.67644]},"properties":{"nom":"LONS - PLACE DES DEPORTES","ag":["Réseau urbain ECLA Mobilité"],"lt":0,"dept":"39"}},{"type":"Feature","geometry":{"type":"Point","coordinates":[5.55765,46.67311]},"properties":{"nom":"LONS - CINEMAS MEDIATHEQUE","ag":["Réseau urbain ECLA Mobilité"],"lt":0,"dept":"39"}},{"type":"Feature","geometry":{"type":"Point","coordinates":[5.54867,46.6749]},"properties":{"nom":"LONS - LECOURBE","ag":["Réseau urbain ECLA Mobilité"],"lt":0,"dept":"39"}},{"type":"Feature","geometry":{"type":"Point","coordinates":[5.54468,46.67631]},"properties":{"nom":"LONS - CHAMBRE DES METIERS","ag":["Réseau urbain ECLA Mobilité"],"lt":0,"dept":"39"}},{"type":"Feature","geometry":{"type":"Point","coordinates":[5.54021,46.67927]},"properties":{"nom":"LONS - EN BOULAND","ag":["Réseau urbain ECLA Mobilité"],"lt":0,"dept":"39"}},{"type":"Feature","geometry":{"type":"Point","coordinates":[5.53678,46.6836]},"properties":{"nom":"LONS - SAVAGNA","ag":["Réseau urbain ECLA Mobilité"],"lt":0,"dept":"39"}},{"type":"Feature","geometry":{"type":"Point","coordinates":[5.535,46.68119]},"properties":{"nom":"LONS - CHARDONNERETS","ag":["Réseau urbain ECLA Mobilité"],"lt":0,"dept":"39"}},{"type":"Feature","geometry":{"type":"Point","coordinates":[5.5321,46.67917]},"properties":{"nom":"LONS - PASSAQUAY","ag":["Réseau urbain ECLA Mobilité"],"lt":0,"dept":"39"}},{"type":"Feature","geometry":{"type":"Point","coordinates":[5.53052,46.67698]},"properties":{"nom":"LONS - MAIRIE MONTMOROT","ag":["Réseau urbain ECLA Mobilité"],"lt":0,"dept":"39"}},{"type":"Feature","geometry":{"type":"Point","coordinates":[5.53031,46.67515]},"properties":{"nom":"LONS - SQUARE JOURNET","ag":["Réseau urbain ECLA Mobilité"],"lt":0,"dept":"39"}},{"type":"Feature","geometry":{"type":"Point","coordinates":[5.52602,46.67054]},"properties":{"nom":"LONS - ESPACE CHANTRANS","ag":["Réseau urbain ECLA Mobilité"],"lt":0,"dept":"39"}},{"type":"Feature","geometry":{"type":"Point","coordinates":[5.52471,46.66706]},"properties":{"nom":"LONS - HAMEAU CHANTRANS","ag":["Réseau urbain ECLA Mobilité"],"lt":0,"dept":"39"}},{"type":"Feature","geometry":{"type":"Point","coordinates":[5.52471,46.66706]},"properties":{"nom":"LONS - VALLIERE","ag":["Réseau urbain ECLA Mobilité"],"lt":0,"dept":"39"}},{"type":"Feature","geometry":{"type":"Point","coordinates":[5.53851,46.67515]},"properties":{"nom":"LONS - JURAPARC","ag":["Réseau urbain ECLA Mobilité"],"lt":0,"dept":"39"}},{"type":"Feature","geometry":{"type":"Point","coordinates":[5.54585,46.67367]},"properties":{"nom":"LONS - SULLY","ag":["Réseau urbain ECLA Mobilité"],"lt":0,"dept":"39"}},{"type":"Feature","geometry":{"type":"Point","coordinates":[5.55068,46.67336]},"properties":{"nom":"LONS - MARRONNIERS","ag":["Réseau urbain ECLA Mobilité"],"lt":0,"dept":"39"}},{"type":"Feature","geometry":{"type":"Point","coordinates":[5.54749,46.67268]},"properties":{"nom":"LONS - ROUGET DE LISLE","ag":["Réseau urbain ECLA Mobilité"],"lt":0,"dept":"39"}},{"type":"Feature","geometry":{"type":"Point","coordinates":[5.55198,46.66877]},"properties":{"nom":"LONS - GARE SNCF","ag":["Réseau urbain ECLA Mobilité"],"lt":0,"dept":"39"}},{"type":"Feature","geometry":{"type":"Point","coordinates":[5.55142,46.66952]},"properties":{"nom":"LONS - BRIAND","ag":["Réseau urbain ECLA Mobilité"],"lt":0,"dept":"39"}},{"type":"Feature","geometry":{"type":"Point","coordinates":[5.55177,46.67163]},"properties":{"nom":"LONS - PREFECTURE","ag":["Réseau urbain ECLA Mobilité"],"lt":0,"dept":"39"}},{"type":"Feature","geometry":{"type":"Point","coordinates":[5.55395,46.67531]},"properties":{"nom":"LONS - ARCADES","ag":["Réseau urbain ECLA Mobilité"],"lt":0,"dept":"39"}},{"type":"Feature","geometry":{"type":"Point","coordinates":[5.55649,46.67745]},"properties":{"nom":"LONS - MAISON VACHE QUI RIT","ag":["Réseau urbain ECLA Mobilité"],"lt":0,"dept":"39"}},{"type":"Feature","geometry":{"type":"Point","coordinates":[5.55869,46.67919]},"properties":{"nom":"LONS - CIMETIERE","ag":["Réseau urbain ECLA Mobilité"],"lt":0,"dept":"39"}},{"type":"Feature","geometry":{"type":"Point","coordinates":[5.55732,46.68053]},"properties":{"nom":"LONS - ROUTE DE BESANCON","ag":["Réseau urbain ECLA Mobilité"],"lt":0,"dept":"39"}},{"type":"Feature","geometry":{"type":"Point","coordinates":[5.55391,46.67992]},"properties":{"nom":"LONS - ANNE FRANCK","ag":["Réseau urbain ECLA Mobilité"],"lt":0,"dept":"39"}},{"type":"Feature","geometry":{"type":"Point","coordinates":[5.55106,46.67964]},"properties":{"nom":"LONS - JEAN MICHEL","ag":["Réseau urbain ECLA Mobilité"],"lt":0,"dept":"39"}},{"type":"Feature","geometry":{"type":"Point","coordinates":[5.55251,46.67665]},"properties":{"nom":"LONS - HOPITAL","ag":["Réseau urbain ECLA Mobilité"],"lt":0,"dept":"39"}},{"type":"Feature","geometry":{"type":"Point","coordinates":[5.5516,46.67423]},"properties":{"nom":"LONS - LAFAYETTE","ag":["Réseau urbain ECLA Mobilité"],"lt":0,"dept":"39"}},{"type":"Feature","geometry":{"type":"Point","coordinates":[5.55897,46.68309]},"properties":{"nom":"LONS - IMPOTS","ag":["Réseau urbain ECLA Mobilité"],"lt":0,"dept":"39"}},{"type":"Feature","geometry":{"type":"Point","coordinates":[5.55889,46.68581]},"properties":{"nom":"LONS - GOUNOD","ag":["Réseau urbain ECLA Mobilité"],"lt":0,"dept":"39"}},{"type":"Feature","geometry":{"type":"Point","coordinates":[5.55962,46.68858]},"properties":{"nom":"LONS - HAUT DES PENDANTS","ag":["Réseau urbain ECLA Mobilité"],"lt":0,"dept":"39"}},{"type":"Feature","geometry":{"type":"Point","coordinates":[5.55835,46.69265]},"properties":{"nom":"LONS - BERCAILLE","ag":["Réseau urbain ECLA Mobilité"],"lt":0,"dept":"39"}},{"type":"Feature","geometry":{"type":"Point","coordinates":[5.56645,46.68351]},"properties":{"nom":"LONS - AQUA REL CAMPING","ag":["Réseau urbain ECLA Mobilité"],"lt":0,"dept":"39"}},{"type":"Feature","geometry":{"type":"Point","coordinates":[5.56492,46.68018]},"properties":{"nom":"LONS - COLLEGE ST EXUPERY","ag":["Réseau urbain ECLA Mobilité"],"lt":0,"dept":"39"}},{"type":"Feature","geometry":{"type":"Point","coordinates":[5.58212,46.67057]},"properties":{"nom":"PERRIGNY - TRANSFORMATEUR","ag":["Réseau urbain ECLA Mobilité"],"lt":0,"dept":"39"}},{"type":"Feature","geometry":{"type":"Point","coordinates":[5.58319,46.68032]},"properties":{"nom":"PERRIGNY - LIEME","ag":["Réseau urbain ECLA Mobilité"],"lt":0,"dept":"39"}},{"type":"Feature","geometry":{"type":"Point","coordinates":[5.57891,46.68325]},"properties":{"nom":"LONS - RESTAURANT MUNICIPAL","ag":["Réseau urbain ECLA Mobilité"],"lt":0,"dept":"39"}},{"type":"Feature","geometry":{"type":"Point","coordinates":[5.55163,46.66875]},"properties":{"nom":"Gare SNCF","ag":["Réseau interurbain Mobigo"],"lt":0,"dept":"39"}},{"type":"Feature","geometry":{"type":"Point","coordinates":[5.52189,46.6767]},"properties":{"nom":"Pré de la Tour","ag":["Réseau interurbain Mobigo"],"lt":0,"dept":"39"}},{"type":"Feature","geometry":{"type":"Point","coordinates":[5.93259,46.85263]},"properties":{"nom":"Abribus","ag":["Réseau interurbain Mobigo"],"lt":0,"dept":"39"}},{"type":"Feature","geometry":{"type":"Point","coordinates":[5.75766,46.91398]},"properties":{"nom":"Tourisme","ag":["Réseau interurbain Mobigo"],"lt":0,"dept":"39"}},{"type":"Feature","geometry":{"type":"Point","coordinates":[5.77205,46.90458]},"properties":{"nom":"La Foule","ag":["Réseau interurbain Mobigo"],"lt":0,"dept":"39"}},{"type":"Feature","geometry":{"type":"Point","coordinates":[5.41416,46.94666]},"properties":{"nom":"ASNANS Chemin de la Croze","ag":["Réseau interurbain Mobigo"],"lt":0,"dept":"39"}},{"type":"Feature","geometry":{"type":"Point","coordinates":[5.40638,46.55539]},"properties":{"nom":"RD1083","ag":["Réseau interurbain Mobigo"],"lt":0,"dept":"39"}},{"type":"Feature","geometry":{"type":"Point","coordinates":[5.40694,46.5554]},"properties":{"nom":"RD1083","ag":["Réseau interurbain Mobigo"],"lt":0,"dept":"39"}},{"type":"Feature","geometry":{"type":"Point","coordinates":[5.58298,47.01724]},"properties":{"nom":"Place","ag":["Réseau interurbain Mobigo"],"lt":0,"dept":"39"}},{"type":"Feature","geometry":{"type":"Point","coordinates":[5.63223,46.91064]},"properties":{"nom":"RD905","ag":["Réseau interurbain Mobigo"],"lt":0,"dept":"39"}},{"type":"Feature","geometry":{"type":"Point","coordinates":[5.35453,46.45844]},"properties":{"nom":"RD1083","ag":["Réseau interurbain Mobigo"],"lt":0,"dept":"39"}},{"type":"Feature","geometry":{"type":"Point","coordinates":[5.35462,46.45822]},"properties":{"nom":"RD1083","ag":["Réseau interurbain Mobigo"],"lt":0,"dept":"39"}},{"type":"Feature","geometry":{"type":"Point","coordinates":[5.58461,46.98453]},"properties":{"nom":"Rue des Tilleuls","ag":["Réseau interurbain Mobigo"],"lt":0,"dept":"39"}},{"type":"Feature","geometry":{"type":"Point","coordinates":[5.58083,46.98112]},"properties":{"nom":"Mairie","ag":["Réseau interurbain Mobigo"],"lt":0,"dept":"39"}},{"type":"Feature","geometry":{"type":"Point","coordinates":[5.43622,46.57485]},"properties":{"nom":"BEAUFORT Place du Souvenir","ag":["Réseau interurbain Mobigo"],"lt":0,"dept":"39"}},{"type":"Feature","geometry":{"type":"Point","coordinates":[5.43622,46.57465]},"properties":{"nom":"BEAUFORT Place du Souvenir","ag":["Réseau interurbain Mobigo"],"lt":0,"dept":"39"}},{"type":"Feature","geometry":{"type":"Point","coordinates":[5.59416,47.01555]},"properties":{"nom":"Rue du Val d'Amour","ag":["Réseau interurbain Mobigo"],"lt":0,"dept":"39"}},{"type":"Feature","geometry":{"type":"Point","coordinates":[5.45686,46.74613]},"properties":{"nom":"Champ de Foire","ag":["Réseau interurbain Mobigo"],"lt":0,"dept":"39"}},{"type":"Feature","geometry":{"type":"Point","coordinates":[5.45736,46.7436]},"properties":{"nom":"Collège","ag":["Réseau interurbain Mobigo"],"lt":0,"dept":"39"}},{"type":"Feature","geometry":{"type":"Point","coordinates":[6.15546,46.54596]},"properties":{"nom":"Frontière","ag":["Réseau interurbain Mobigo"],"lt":0,"dept":"39"}},{"type":"Feature","geometry":{"type":"Point","coordinates":[6.12489,46.52236]},"properties":{"nom":"L'Auvergne","ag":["Réseau interurbain Mobigo"],"lt":0,"dept":"39"}},{"type":"Feature","geometry":{"type":"Point","coordinates":[6.13817,46.53958]},"properties":{"nom":"Le Renouveau","ag":["Réseau interurbain Mobigo"],"lt":0,"dept":"39"}},{"type":"Feature","geometry":{"type":"Point","coordinates":[6.10997,46.52239]},"properties":{"nom":"Le Vivier","ag":["Réseau interurbain Mobigo"],"lt":0,"dept":"39"}},{"type":"Feature","geometry":{"type":"Point","coordinates":[6.13329,46.52917]},"properties":{"nom":"Meuniers","ag":["Réseau interurbain Mobigo"],"lt":0,"dept":"39"}},{"type":"Feature","geometry":{"type":"Point","coordinates":[6.13725,46.5376]},"properties":{"nom":"Salle Polyvalente","ag":["Réseau interurbain Mobigo"],"lt":0,"dept":"39"}},{"type":"Feature","geometry":{"type":"Point","coordinates":[6.14583,46.53888]},"properties":{"nom":"Ski Vandel","ag":["Réseau interurbain Mobigo"],"lt":0,"dept":"39"}},{"type":"Feature","geometry":{"type":"Point","coordinates":[6.12881,46.52564]},"properties":{"nom":"1132 Rue Franche-Com","ag":["Réseau interurbain Mobigo"],"lt":0,"dept":"39"}},{"type":"Feature","geometry":{"type":"Point","coordinates":[6.15111,46.54272]},"properties":{"nom":"3593 Rue Franche-Com","ag":["Réseau interurbain Mobigo"],"lt":0,"dept":"39"}},{"type":"Feature","geometry":{"type":"Point","coordinates":[5.73016,46.58915]},"properties":{"nom":"Carrefour RD678","ag":["Réseau interurbain Mobigo"],"lt":0,"dept":"39"}},{"type":"Feature","geometry":{"type":"Point","coordinates":[5.85408,46.60048]},"properties":{"nom":"Village","ag":["Réseau interurbain Mobigo"],"lt":0,"dept":"39"}},{"type":"Feature","geometry":{"type":"Point","coordinates":[5.88683,46.9165]},"properties":{"nom":"Cote Belettes","ag":["Réseau interurbain Mobigo"],"lt":0,"dept":"39"}},{"type":"Feature","geometry":{"type":"Point","coordinates":[5.48803,46.62544]},"properties":{"nom":"RD1083","ag":["Réseau interurbain Mobigo"],"lt":0,"dept":"39"}},{"type":"Feature","geometry":{"type":"Point","coordinates":[5.48888,46.62602]},"properties":{"nom":"RD1083","ag":["Réseau interurbain Mobigo"],"lt":0,"dept":"39"}},{"type":"Feature","geometry":{"type":"Point","coordinates":[5.4425,46.9261]},"properties":{"nom":"(LA) Grande Ru","ag":["Réseau interurbain Mobigo"],"lt":0,"dept":"39"}},{"type":"Feature","geometry":{"type":"Point","coordinates":[5.92675,46.73296]},"properties":{"nom":"Collège Louataux","ag":["Réseau interurbain Mobigo"],"lt":0,"dept":"39"}},{"type":"Feature","geometry":{"type":"Point","coordinates":[5.91016,46.74909]},"properties":{"nom":"Gare","ag":["Réseau interurbain Mobigo"],"lt":0,"dept":"39"}},{"type":"Feature","geometry":{"type":"Point","coordinates":[5.92282,46.74356]},"properties":{"nom":"Lycée P. E. Victor","ag":["Réseau interurbain Mobigo"],"lt":0,"dept":"39"}},{"type":"Feature","geometry":{"type":"Point","coordinates":[5.90914,46.74696]},"properties":{"nom":"Place Prost Chalet","ag":["Réseau interurbain Mobigo"],"lt":0,"dept":"39"}},{"type":"Feature","geometry":{"type":"Point","coordinates":[5.91058,46.74709]},"properties":{"nom":"Oppidum","ag":["Réseau interurbain Mobigo"],"lt":0,"dept":"39"}},{"type":"Feature","geometry":{"type":"Point","coordinates":[5.37755,46.80242]},"properties":{"nom":"Ecole","ag":["Réseau interurbain Mobigo"],"lt":0,"dept":"39"}},{"type":"Feature","geometry":{"type":"Point","coordinates":[5.71339,46.46584]},"properties":{"nom":"Mairie","ag":["Réseau interurbain Mobigo"],"lt":0,"dept":"39"}},{"type":"Feature","geometry":{"type":"Point","coordinates":[5.45019,46.86356]},"properties":{"nom":"CHASSAGNE (LA) RD468","ag":["Réseau interurbain Mobigo"],"lt":0,"dept":"39"}},{"type":"Feature","geometry":{"type":"Point","coordinates":[5.47789,46.84653]},"properties":{"nom":"Ecole","ag":["Réseau interurbain Mobigo"],"lt":0,"dept":"39"}},{"type":"Feature","geometry":{"type":"Point","coordinates":[5.47814,46.84694]},"properties":{"nom":"Pompiers","ag":["Réseau interurbain Mobigo"],"lt":0,"dept":"39"}},{"type":"Feature","geometry":{"type":"Point","coordinates":[5.41504,46.9668]},"properties":{"nom":"Place Gare","ag":["Réseau interurbain Mobigo"],"lt":0,"dept":"39"}},{"type":"Feature","geometry":{"type":"Point","coordinates":[5.40784,46.96846]},"properties":{"nom":"Gendarmerie","ag":["Réseau interurbain Mobigo"],"lt":0,"dept":"39"}},{"type":"Feature","geometry":{"type":"Point","coordinates":[5.40632,46.95887]},"properties":{"nom":"Framboisy","ag":["Réseau interurbain Mobigo"],"lt":0,"dept":"39"}},{"type":"Feature","geometry":{"type":"Point","coordinates":[5.40022,46.97041]},"properties":{"nom":"La Villeneuve","ag":["Réseau interurbain Mobigo"],"lt":0,"dept":"39"}},{"type":"Feature","geometry":{"type":"Point","coordinates":[5.90337,46.60492]},"properties":{"nom":"CHAUX DU DOMBIEF (LA) RD678","ag":["Réseau interurbain Mobigo"],"lt":0,"dept":"39"}},{"type":"Feature","geometry":{"type":"Point","coordinates":[5.89034,46.90141]},"properties":{"nom":"Val D'Héry","ag":["Réseau interurbain Mobigo"],"lt":0,"dept":"39"}},{"type":"Feature","geometry":{"type":"Point","coordinates":[5.74723,46.58105]},"properties":{"nom":"CLAIRVAUX Gendarmerie","ag":["Réseau interurbain Mobigo"],"lt":0,"dept":"39"}},{"type":"Feature","geometry":{"type":"Point","coordinates":[5.75112,46.57616]},"properties":{"nom":"CLAIRVAUX Mairie","ag":["Réseau interurbain Mobigo"],"lt":0,"dept":"39"}},{"type":"Feature","geometry":{"type":"Point","coordinates":[5.75833,46.5811]},"properties":{"nom":"Place","ag":["Réseau interurbain Mobigo"],"lt":0,"dept":"39"}},{"type":"Feature","geometry":{"type":"Point","coordinates":[5.45358,46.81853]},"properties":{"nom":"Car. De la Potière","ag":["Réseau interurbain Mobigo"],"lt":0,"dept":"39"}},{"type":"Feature","geometry":{"type":"Point","coordinates":[5.45159,46.80233]},"properties":{"nom":"Rue des Combes","ag":["Réseau interurbain Mobigo"],"lt":0,"dept":"39"}},{"type":"Feature","geometry":{"type":"Point","coordinates":[5.45167,46.80291]},"properties":{"nom":"Boulangerie","ag":["Réseau interurbain Mobigo"],"lt":0,"dept":"39"}},{"type":"Feature","geometry":{"type":"Point","coordinates":[5.44697,46.78739]},"properties":{"nom":"Le Villarnier","ag":["Réseau interurbain Mobigo"],"lt":0,"dept":"39"}},{"type":"Feature","geometry":{"type":"Point","coordinates":[5.59837,46.65459]},"properties":{"nom":"Village","ag":["Réseau interurbain Mobigo"],"lt":0,"dept":"39"}},{"type":"Feature","geometry":{"type":"Point","coordinates":[5.39193,46.53294]},"properties":{"nom":"La Grenette","ag":["Réseau interurbain Mobigo"],"lt":0,"dept":"39"}},{"type":"Feature","geometry":{"type":"Point","coordinates":[5.39202,46.53292]},"properties":{"nom":"La Grenette","ag":["Réseau interurbain Mobigo"],"lt":0,"dept":"39"}},{"type":"Feature","geometry":{"type":"Point","coordinates":[5.70458,46.51028]},"properties":{"nom":"Abribus","ag":["Réseau interurbain Mobigo"],"lt":0,"dept":"39"}},{"type":"Feature","geometry":{"type":"Point","coordinates":[5.66027,46.68777]},"properties":{"nom":"CRANCOT Village","ag":["Réseau interurbain Mobigo"],"lt":0,"dept":"39"}},{"type":"Feature","geometry":{"type":"Point","coordinates":[5.81383,46.75112]},"properties":{"nom":"Mairie","ag":["Réseau interurbain Mobigo"],"lt":0,"dept":"39"}},{"type":"Feature","geometry":{"type":"Point","coordinates":[5.50216,46.95012]},"properties":{"nom":"DESCHAUX (LE) Salle des Fêtes","ag":["Réseau interurbain Mobigo"],"lt":0,"dept":"39"}},{"type":"Feature","geometry":{"type":"Point","coordinates":[5.49694,47.09048]},"properties":{"nom":"Av. de Lahr","ag":["Réseau interurbain Mobigo"],"lt":0,"dept":"39"}},{"type":"Feature","geometry":{"type":"Point","coordinates":[5.497,47.09063]},"properties":{"nom":"Av. de Lahr","ag":["Réseau interurbain Mobigo"],"lt":0,"dept":"39"}},{"type":"Feature","geometry":{"type":"Point","coordinates":[5.47077,47.08362]},"properties":{"nom":"CES Bastié","ag":["Réseau interurbain Mobigo"],"lt":0,"dept":"39"}},{"type":"Feature","geometry":{"type":"Point","coordinates":[5.49033,47.09648]},"properties":{"nom":"Gare Routière","ag":["Réseau interurbain Mobigo"],"lt":0,"dept":"39"}},{"type":"Feature","geometry":{"type":"Point","coordinates":[5.47311,47.08182]},"properties":{"nom":"Duhamel","ag":["Réseau interurbain Mobigo"],"lt":0,"dept":"39"}},{"type":"Feature","geometry":{"type":"Point","coordinates":[5.48819,47.09134]},"properties":{"nom":"Théatre","ag":["Réseau interurbain Mobigo"],"lt":0,"dept":"39"}},{"type":"Feature","geometry":{"type":"Point","coordinates":[5.61047,46.55976]},"properties":{"nom":"DOMPIERRE/MONT Place Eglise","ag":["Réseau interurbain Mobigo"],"lt":0,"dept":"39"}},{"type":"Feature","geometry":{"type":"Point","coordinates":[5.41876,46.91105]},"properties":{"nom":"ESSARDS TAIGNEVAUX (LES) Mairie","ag":["Réseau interurbain Mobigo"],"lt":0,"dept":"39"}},{"type":"Feature","geometry":{"type":"Point","coordinates":[5.65733,46.94333]},"properties":{"nom":"FERTE (LA) Chalet","ag":["Réseau interurbain Mobigo"],"lt":0,"dept":"39"}},{"type":"Feature","geometry":{"type":"Point","coordinates":[5.50219,46.64253]},"properties":{"nom":"CFA","ag":["Réseau interurbain Mobigo"],"lt":0,"dept":"39"}},{"type":"Feature","geometry":{"type":"Point","coordinates":[5.50161,46.6418]},"properties":{"nom":"CFA","ag":["Réseau interurbain Mobigo"],"lt":0,"dept":"39"}},{"type":"Feature","geometry":{"type":"Point","coordinates":[5.9724,46.37488]},"properties":{"nom":"Ecole","ag":["Réseau interurbain Mobigo"],"lt":0,"dept":"39"}},{"type":"Feature","geometry":{"type":"Point","coordinates":[5.98595,46.40116]},"properties":{"nom":"Combe du Lac","ag":["Réseau interurbain Mobigo"],"lt":0,"dept":"39"}},{"type":"Feature","geometry":{"type":"Point","coordinates":[5.96778,46.39444]},"properties":{"nom":"Village","ag":["Réseau interurbain Mobigo"],"lt":0,"dept":"39"}},{"type":"Feature","geometry":{"type":"Point","coordinates":[5.47344,46.71697]},"properties":{"nom":"Rue de la Gare","ag":["Réseau interurbain Mobigo"],"lt":0,"dept":"39"}},{"type":"Feature","geometry":{"type":"Point","coordinates":[5.46769,46.71008]},"properties":{"nom":"Village","ag":["Réseau interurbain Mobigo"],"lt":0,"dept":"39"}},{"type":"Feature","geometry":{"type":"Point","coordinates":[5.77992,46.38545]},"properties":{"nom":"LAVANS-ST-CLAUDE Bourg Dessus","ag":["Réseau interurbain Mobigo"],"lt":0,"dept":"39"}},{"type":"Feature","geometry":{"type":"Point","coordinates":[5.78186,46.38408]},"properties":{"nom":"LAVANS-ST-CLAUDE Eglise","ag":["Réseau interurbain Mobigo"],"lt":0,"dept":"39"}},{"type":"Feature","geometry":{"type":"Point","coordinates":[5.37211,46.95762]},"properties":{"nom":"LONGWY Eglise","ag":["Réseau interurbain Mobigo"],"lt":0,"dept":"39"}},{"type":"Feature","geometry":{"type":"Point","coordinates":[5.55823,46.67312]},"properties":{"nom":"LONS Avenue Jean Moulin","ag":["Réseau interurbain Mobigo"],"lt":0,"dept":"39"}},{"type":"Feature","geometry":{"type":"Point","coordinates":[5.55549,46.6725]},"properties":{"nom":"LONS Avenue de la Marseillaise","ag":["Réseau interurbain Mobigo"],"lt":0,"dept":"39"}},{"type":"Feature","geometry":{"type":"Point","coordinates":[5.55316,46.67277]},"properties":{"nom":"LONS Avenue Thurel","ag":["Réseau interurbain Mobigo"],"lt":0,"dept":"39"}},{"type":"Feature","geometry":{"type":"Point","coordinates":[5.55151,46.66992]},"properties":{"nom":"LONS Collège Briand","ag":["Réseau interurbain Mobigo"],"lt":0,"dept":"39"}},{"type":"Feature","geometry":{"type":"Point","coordinates":[5.55242,46.66883]},"properties":{"nom":"LONS Gare","ag":["Réseau interurbain Mobigo"],"lt":0,"dept":"39"}},{"type":"Feature","geometry":{"type":"Point","coordinates":[5.54164,46.6728]},"properties":{"nom":"LONS Lycée Montciel","ag":["Réseau interurbain Mobigo"],"lt":0,"dept":"39"}},{"type":"Feature","geometry":{"type":"Point","coordinates":[5.56648,46.6846]},"properties":{"nom":"LONS Piscine","ag":["Réseau interurbain Mobigo"],"lt":0,"dept":"39"}},{"type":"Feature","geometry":{"type":"Point","coordinates":[5.55804,47.02637]},"properties":{"nom":"LOYE (LA) Place","ag":["Réseau interurbain Mobigo"],"lt":0,"dept":"39"}},{"type":"Feature","geometry":{"type":"Point","coordinates":[5.67789,46.93166]},"properties":{"nom":"Molamboz","ag":["Réseau interurbain Mobigo"],"lt":0,"dept":"39"}},{"type":"Feature","geometry":{"type":"Point","coordinates":[5.41677,46.56614]},"properties":{"nom":"RD1083","ag":["Réseau interurbain Mobigo"],"lt":0,"dept":"39"}},{"type":"Feature","geometry":{"type":"Point","coordinates":[5.41675,46.56595]},"properties":{"nom":"RD1083","ag":["Réseau interurbain Mobigo"],"lt":0,"dept":"39"}},{"type":"Feature","geometry":{"type":"Point","coordinates":[5.67961,46.59176]},"properties":{"nom":"Thuron","ag":["Réseau interurbain Mobigo"],"lt":0,"dept":"39"}},{"type":"Feature","geometry":{"type":"Point","coordinates":[5.52215,46.66316]},"properties":{"nom":"MESSIA/SORNE Salle des Fêtes","ag":["Réseau interurbain Mobigo"],"lt":0,"dept":"39"}},{"type":"Feature","geometry":{"type":"Point","coordinates":[5.52179,46.66292]},"properties":{"nom":"MESSIA/SORNE Salle des Fêtes","ag":["Réseau interurbain Mobigo"],"lt":0,"dept":"39"}},{"type":"Feature","geometry":{"type":"Point","coordinates":[5.52221,46.66323]},"properties":{"nom":"MESSIA/SORNE Z.I.","ag":["Réseau interurbain Mobigo"],"lt":0,"dept":"39"}},{"type":"Feature","geometry":{"type":"Point","coordinates":[5.52179,46.66291]},"properties":{"nom":"MESSIA/SORNE Z.I.","ag":["Réseau interurbain Mobigo"],"lt":0,"dept":"39"}},{"type":"Feature","geometry":{"type":"Point","coordinates":[5.72662,46.49883]},"properties":{"nom":"Mairie Ecole","ag":["Réseau interurbain Mobigo"],"lt":0,"dept":"39"}},{"type":"Feature","geometry":{"type":"Point","coordinates":[5.72666,46.69638]},"properties":{"nom":"Village","ag":["Réseau interurbain Mobigo"],"lt":0,"dept":"39"}},{"type":"Feature","geometry":{"type":"Point","coordinates":[5.72264,46.43625]},"properties":{"nom":"Cité Scolaire","ag":["Réseau interurbain Mobigo"],"lt":0,"dept":"39"}},{"type":"Feature","geometry":{"type":"Point","coordinates":[5.72538,46.4346]},"properties":{"nom":"Gendarmerie","ag":["Réseau interurbain Mobigo"],"lt":0,"dept":"39"}},{"type":"Feature","geometry":{"type":"Point","coordinates":[5.72492,46.43361]},"properties":{"nom":"MOIRANS EN MTGNE Voltaire","ag":["Réseau interurbain Mobigo"],"lt":0,"dept":"39"}},{"type":"Feature","geometry":{"type":"Point","coordinates":[5.72608,46.4289]},"properties":{"nom":"Poste","ag":["Réseau interurbain Mobigo"],"lt":0,"dept":"39"}},{"type":"Feature","geometry":{"type":"Point","coordinates":[5.72521,46.4288]},"properties":{"nom":"Poste","ag":["Réseau interurbain Mobigo"],"lt":0,"dept":"39"}},{"type":"Feature","geometry":{"type":"Point","coordinates":[5.72232,46.43853]},"properties":{"nom":"Rte Crenans","ag":["Réseau interurbain Mobigo"],"lt":0,"dept":"39"}},{"type":"Feature","geometry":{"type":"Point","coordinates":[5.72275,46.43819]},"properties":{"nom":"Franche Comté","ag":["Réseau interurbain Mobigo"],"lt":0,"dept":"39"}},{"type":"Feature","geometry":{"type":"Point","coordinates":[5.64581,46.89664]},"properties":{"nom":"RD905","ag":["Réseau interurbain Mobigo"],"lt":0,"dept":"39"}},{"type":"Feature","geometry":{"type":"Point","coordinates":[5.52284,46.67667]},"properties":{"nom":"Pré de la Tour","ag":["Réseau interurbain Mobigo"],"lt":0,"dept":"39"}},{"type":"Feature","geometry":{"type":"Point","coordinates":[5.52992,46.6756]},"properties":{"nom":"Avenue Maillot","ag":["Réseau interurbain Mobigo"],"lt":0,"dept":"39"}},{"type":"Feature","geometry":{"type":"Point","coordinates":[5.50611,46.68636]},"properties":{"nom":"Grand Sugny","ag":["Réseau interurbain Mobigo"],"lt":0,"dept":"39"}},{"type":"Feature","geometry":{"type":"Point","coordinates":[5.52916,46.67297]},"properties":{"nom":"Pont","ag":["Réseau interurbain Mobigo"],"lt":0,"dept":"39"}},{"type":"Feature","geometry":{"type":"Point","coordinates":[5.53281,46.67358]},"properties":{"nom":"Rivoire","ag":["Réseau interurbain Mobigo"],"lt":0,"dept":"39"}},{"type":"Feature","geometry":{"type":"Point","coordinates":[5.59787,46.98252]},"properties":{"nom":"MONT S/S VAUDREY Car. Gare","ag":["Réseau interurbain Mobigo"],"lt":0,"dept":"39"}},{"type":"Feature","geometry":{"type":"Point","coordinates":[5.60247,46.97907]},"properties":{"nom":"MONT S/S VAUDREY Eglise","ag":["Réseau interurbain Mobigo"],"lt":0,"dept":"39"}},{"type":"Feature","geometry":{"type":"Point","coordinates":[6.01586,46.5363]},"properties":{"nom":"Mairie-Eglise","ag":["Réseau interurbain Mobigo"],"lt":0,"dept":"39"}},{"type":"Feature","geometry":{"type":"Point","coordinates":[6.01709,46.54158]},"properties":{"nom":"Pont Godard","ag":["Réseau interurbain Mobigo"],"lt":0,"dept":"39"}},{"type":"Feature","geometry":{"type":"Point","coordinates":[6.02374,46.52648]},"properties":{"nom":"MOREZ Gare","ag":["Réseau interurbain Mobigo"],"lt":0,"dept":"39"}},{"type":"Feature","geometry":{"type":"Point","coordinates":[6.02363,46.51997]},"properties":{"nom":"MOREZ Place Eglise","ag":["Réseau interurbain Mobigo"],"lt":0,"dept":"39"}},{"type":"Feature","geometry":{"type":"Point","coordinates":[6.02407,46.51804]},"properties":{"nom":"MOREZ Place LISSAC","ag":["Réseau interurbain Mobigo"],"lt":0,"dept":"39"}},{"type":"Feature","geometry":{"type":"Point","coordinates":[5.80654,46.97793]},"properties":{"nom":"Bel Air","ag":["Réseau interurbain Mobigo"],"lt":0,"dept":"39"}},{"type":"Feature","geometry":{"type":"Point","coordinates":[5.8011,46.97623]},"properties":{"nom":"Gare","ag":["Réseau interurbain Mobigo"],"lt":0,"dept":"39"}},{"type":"Feature","geometry":{"type":"Point","coordinates":[5.79535,46.96959]},"properties":{"nom":"Gymnase Lycée Bois","ag":["Réseau interurbain Mobigo"],"lt":0,"dept":"39"}},{"type":"Feature","geometry":{"type":"Point","coordinates":[5.34947,46.42346]},"properties":{"nom":"NANC-ST-AMOUR RD3","ag":["Réseau interurbain Mobigo"],"lt":0,"dept":"39"}},{"type":"Feature","geometry":{"type":"Point","coordinates":[5.34921,46.42332]},"properties":{"nom":"NANC-ST-AMOUR RD3","ag":["Réseau interurbain Mobigo"],"lt":0,"dept":"39"}},{"type":"Feature","geometry":{"type":"Point","coordinates":[5.32868,46.91462]},"properties":{"nom":"NEUBLANS Bas","ag":["Réseau interurbain Mobigo"],"lt":0,"dept":"39"}},{"type":"Feature","geometry":{"type":"Point","coordinates":[5.33065,46.90754]},"properties":{"nom":"NEUBLANS Haut","ag":["Réseau interurbain Mobigo"],"lt":0,"dept":"39"}},{"type":"Feature","geometry":{"type":"Point","coordinates":[5.51958,47.00235]},"properties":{"nom":"Place Bascule","ag":["Réseau interurbain Mobigo"],"lt":0,"dept":"39"}},{"type":"Feature","geometry":{"type":"Point","coordinates":[5.52019,47.00198]},"properties":{"nom":"Place Bascule","ag":["Réseau interurbain Mobigo"],"lt":0,"dept":"39"}},{"type":"Feature","geometry":{"type":"Point","coordinates":[5.64351,46.59829]},"properties":{"nom":"Salle des Fêtes","ag":["Réseau interurbain Mobigo"],"lt":0,"dept":"39"}},{"type":"Feature","geometry":{"type":"Point","coordinates":[5.44267,46.58189]},"properties":{"nom":"RD1083","ag":["Réseau interurbain Mobigo"],"lt":0,"dept":"39"}},{"type":"Feature","geometry":{"type":"Point","coordinates":[5.44311,46.58223]},"properties":{"nom":"RD1083","ag":["Réseau interurbain Mobigo"],"lt":0,"dept":"39"}},{"type":"Feature","geometry":{"type":"Point","coordinates":[5.61011,46.51967]},"properties":{"nom":"Salle Polyvalente","ag":["Réseau interurbain Mobigo"],"lt":0,"dept":"39"}},{"type":"Feature","geometry":{"type":"Point","coordinates":[5.66632,46.99471]},"properties":{"nom":"Eglise","ag":["Réseau interurbain Mobigo"],"lt":0,"dept":"39"}},{"type":"Feature","geometry":{"type":"Point","coordinates":[5.81763,46.97058]},"properties":{"nom":"Village","ag":["Réseau interurbain Mobigo"],"lt":0,"dept":"39"}},{"type":"Feature","geometry":{"type":"Point","coordinates":[5.5963,46.69284]},"properties":{"nom":"RD471","ag":["Réseau interurbain Mobigo"],"lt":0,"dept":"39"}},{"type":"Feature","geometry":{"type":"Point","coordinates":[5.59668,46.69312]},"properties":{"nom":"RD471","ag":["Réseau interurbain Mobigo"],"lt":0,"dept":"39"}},{"type":"Feature","geometry":{"type":"Point","coordinates":[5.902,46.79389]},"properties":{"nom":"PASQUIER (LE) Abribus","ag":["Réseau interurbain Mobigo"],"lt":0,"dept":"39"}},{"type":"Feature","geometry":{"type":"Point","coordinates":[5.90487,46.80045]},"properties":{"nom":"PASQUIER (LE) Mairie","ag":["Réseau interurbain Mobigo"],"lt":0,"dept":"39"}},{"type":"Feature","geometry":{"type":"Point","coordinates":[5.70444,46.58666]},"properties":{"nom":"RD678","ag":["Réseau interurbain Mobigo"],"lt":0,"dept":"39"}},{"type":"Feature","geometry":{"type":"Point","coordinates":[5.5743,46.66922]},"properties":{"nom":"Condamine","ag":["Réseau interurbain Mobigo"],"lt":0,"dept":"39"}},{"type":"Feature","geometry":{"type":"Point","coordinates":[5.57583,46.67016]},"properties":{"nom":"Centre Commercial","ag":["Réseau interurbain Mobigo"],"lt":0,"dept":"39"}},{"type":"Feature","geometry":{"type":"Point","coordinates":[5.58129,46.66584]},"properties":{"nom":"Scierie","ag":["Réseau interurbain Mobigo"],"lt":0,"dept":"39"}},{"type":"Feature","geometry":{"type":"Point","coordinates":[5.59018,46.65998]},"properties":{"nom":"Vatagna (Orlong)","ag":["Réseau interurbain Mobigo"],"lt":0,"dept":"39"}},{"type":"Feature","geometry":{"type":"Point","coordinates":[5.34315,46.93588]},"properties":{"nom":"Eglise","ag":["Réseau interurbain Mobigo"],"lt":0,"dept":"39"}},{"type":"Feature","geometry":{"type":"Point","coordinates":[5.32886,46.93975]},"properties":{"nom":"Lavigne","ag":["Réseau interurbain Mobigo"],"lt":0,"dept":"39"}},{"type":"Feature","geometry":{"type":"Point","coordinates":[5.45217,46.91834]},"properties":{"nom":"Calvaire","ag":["Réseau interurbain Mobigo"],"lt":0,"dept":"39"}},{"type":"Feature","geometry":{"type":"Point","coordinates":[5.62953,46.59569]},"properties":{"nom":"Village","ag":["Réseau interurbain Mobigo"],"lt":0,"dept":"39"}},{"type":"Feature","geometry":{"type":"Point","coordinates":[5.70405,46.83443]},"properties":{"nom":"Champ de Foire","ag":["Réseau interurbain Mobigo"],"lt":0,"dept":"39"}},{"type":"Feature","geometry":{"type":"Point","coordinates":[5.69786,46.84805]},"properties":{"nom":"Charmilles","ag":["Réseau interurbain Mobigo"],"lt":0,"dept":"39"}},{"type":"Feature","geometry":{"type":"Point","coordinates":[5.70032,46.84412]},"properties":{"nom":"Gare","ag":["Réseau interurbain Mobigo"],"lt":0,"dept":"39"}},{"type":"Feature","geometry":{"type":"Point","coordinates":[5.69825,46.58542]},"properties":{"nom":"Place","ag":["Réseau interurbain Mobigo"],"lt":0,"dept":"39"}},{"type":"Feature","geometry":{"type":"Point","coordinates":[5.89269,46.89834]},"properties":{"nom":"Moutaine","ag":["Réseau interurbain Mobigo"],"lt":0,"dept":"39"}},{"type":"Feature","geometry":{"type":"Point","coordinates":[5.77833,46.72517]},"properties":{"nom":"Mairie","ag":["Réseau interurbain Mobigo"],"lt":0,"dept":"39"}},{"type":"Feature","geometry":{"type":"Point","coordinates":[5.77804,46.72469]},"properties":{"nom":"Mairie","ag":["Réseau interurbain Mobigo"],"lt":0,"dept":"39"}},{"type":"Feature","geometry":{"type":"Point","coordinates":[5.76092,46.37639]},"properties":{"nom":"Abribus","ag":["Réseau interurbain Mobigo"],"lt":0,"dept":"39"}},{"type":"Feature","geometry":{"type":"Point","coordinates":[5.44789,46.76218]},"properties":{"nom":"Salle des Fêtes","ag":["Réseau interurbain Mobigo"],"lt":0,"dept":"39"}},{"type":"Feature","geometry":{"type":"Point","coordinates":[5.44783,46.7619]},"properties":{"nom":"Grande Rue","ag":["Réseau interurbain Mobigo"],"lt":0,"dept":"39"}},{"type":"Feature","geometry":{"type":"Point","coordinates":[5.60516,46.63521]},"properties":{"nom":"Village","ag":["Réseau interurbain Mobigo"],"lt":0,"dept":"39"}},{"type":"Feature","geometry":{"type":"Point","coordinates":[6.06967,46.48949]},"properties":{"nom":"ROUSSES (LES) Collège","ag":["Réseau interurbain Mobigo"],"lt":0,"dept":"39"}},{"type":"Feature","geometry":{"type":"Point","coordinates":[6.03573,46.49446]},"properties":{"nom":"ROUSSES (LES) Gouland","ag":["Réseau interurbain Mobigo"],"lt":0,"dept":"39"}},{"type":"Feature","geometry":{"type":"Point","coordinates":[6.07265,46.46354]},"properties":{"nom":"ROUSSES (LES) La Cure","ag":["Réseau interurbain Mobigo"],"lt":0,"dept":"39"}},{"type":"Feature","geometry":{"type":"Point","coordinates":[6.0626,46.46356]},"properties":{"nom":"ROUSSES (LES) La Cure Douane","ag":["Réseau interurbain Mobigo"],"lt":0,"dept":"39"}},{"type":"Feature","geometry":{"type":"Point","coordinates":[6.10403,46.50471]},"properties":{"nom":"ROUSSES (LES) Le Gravier Vandelle","ag":["Réseau interurbain Mobigo"],"lt":0,"dept":"39"}},{"type":"Feature","geometry":{"type":"Point","coordinates":[6.09965,46.49972]},"properties":{"nom":"ROUSSES (LES) Le Gravier Lacroix","ag":["Réseau interurbain Mobigo"],"lt":0,"dept":"39"}},{"type":"Feature","geometry":{"type":"Point","coordinates":[6.09299,46.4922]},"properties":{"nom":"ROUSSES (LES) Le Noirmont","ag":["Réseau interurbain Mobigo"],"lt":0,"dept":"39"}},{"type":"Feature","geometry":{"type":"Point","coordinates":[6.06103,46.48296]},"properties":{"nom":"ROUSSES (LES) Syndic d'Initiative","ag":["Réseau interurbain Mobigo"],"lt":0,"dept":"39"}},{"type":"Feature","geometry":{"type":"Point","coordinates":[5.42992,46.87122]},"properties":{"nom":"Place de la Mairie","ag":["Réseau interurbain Mobigo"],"lt":0,"dept":"39"}},{"type":"Feature","geometry":{"type":"Point","coordinates":[5.47333,46.61003]},"properties":{"nom":"RD1083","ag":["Réseau interurbain Mobigo"],"lt":0,"dept":"39"}},{"type":"Feature","geometry":{"type":"Point","coordinates":[5.47363,46.60986]},"properties":{"nom":"RD1083","ag":["Réseau interurbain Mobigo"],"lt":0,"dept":"39"}},{"type":"Feature","geometry":{"type":"Point","coordinates":[5.33511,46.4347]},"properties":{"nom":"ST AMOUR Av.Gare","ag":["Réseau interurbain Mobigo"],"lt":0,"dept":"39"}},{"type":"Feature","geometry":{"type":"Point","coordinates":[5.33538,46.43477]},"properties":{"nom":"ST AMOUR Av.Gare","ag":["Réseau interurbain Mobigo"],"lt":0,"dept":"39"}},{"type":"Feature","geometry":{"type":"Point","coordinates":[5.33425,46.43775]},"properties":{"nom":"ZI","ag":["Réseau interurbain Mobigo"],"lt":0,"dept":"39"}},{"type":"Feature","geometry":{"type":"Point","coordinates":[5.86637,46.38681]},"properties":{"nom":"Cathédrale","ag":["Réseau interurbain Mobigo"],"lt":0,"dept":"39"}},{"type":"Feature","geometry":{"type":"Point","coordinates":[5.86537,46.38697]},"properties":{"nom":"Cathédrale","ag":["Réseau interurbain Mobigo"],"lt":0,"dept":"39"}},{"type":"Feature","geometry":{"type":"Point","coordinates":[5.82361,46.38034]},"properties":{"nom":"Aiglon","ag":["Réseau interurbain Mobigo"],"lt":0,"dept":"39"}},{"type":"Feature","geometry":{"type":"Point","coordinates":[5.86235,46.38563]},"properties":{"nom":"Faubourg école","ag":["Réseau interurbain Mobigo"],"lt":0,"dept":"39"}},{"type":"Feature","geometry":{"type":"Point","coordinates":[5.86927,46.38072]},"properties":{"nom":"Cité scolaire Pré St Sauveur","ag":["Réseau interurbain Mobigo"],"lt":0,"dept":"39"}},{"type":"Feature","geometry":{"type":"Point","coordinates":[5.86371,46.38464]},"properties":{"nom":"Pont Cimetière","ag":["Réseau interurbain Mobigo"],"lt":0,"dept":"39"}},{"type":"Feature","geometry":{"type":"Point","coordinates":[5.87282,46.3772]},"properties":{"nom":"Rochefort","ag":["Réseau interurbain Mobigo"],"lt":0,"dept":"39"}},{"type":"Feature","geometry":{"type":"Point","coordinates":[5.85723,46.38093]},"properties":{"nom":"Rue Carnot","ag":["Réseau interurbain Mobigo"],"lt":0,"dept":"39"}},{"type":"Feature","geometry":{"type":"Point","coordinates":[5.87031,46.38379]},"properties":{"nom":"Saint Hubert","ag":["Réseau interurbain Mobigo"],"lt":0,"dept":"39"}},{"type":"Feature","geometry":{"type":"Point","coordinates":[5.86091,46.38986]},"properties":{"nom":"Gare","ag":["Réseau interurbain Mobigo"],"lt":0,"dept":"39"}},{"type":"Feature","geometry":{"type":"Point","coordinates":[5.8643,46.39136]},"properties":{"nom":"Place du 9 avril","ag":["Réseau interurbain Mobigo"],"lt":0,"dept":"39"}},{"type":"Feature","geometry":{"type":"Point","coordinates":[5.95164,46.57491]},"properties":{"nom":"SAINT-LAURENT-EN-GDX Gare","ag":["Réseau interurbain Mobigo"],"lt":0,"dept":"39"}},{"type":"Feature","geometry":{"type":"Point","coordinates":[5.9557,46.57613]},"properties":{"nom":"SAINT LAURENT EN GDX Ville","ag":["Réseau interurbain Mobigo"],"lt":0,"dept":"39"}},{"type":"Feature","geometry":{"type":"Point","coordinates":[5.79459,46.39473]},"properties":{"nom":"SAINT LUPICIN Gertem","ag":["Réseau interurbain Mobigo"],"lt":0,"dept":"39"}},{"type":"Feature","geometry":{"type":"Point","coordinates":[5.79334,46.39784]},"properties":{"nom":"SAINT LUPICIN Place Mairie","ag":["Réseau interurbain Mobigo"],"lt":0,"dept":"39"}},{"type":"Feature","geometry":{"type":"Point","coordinates":[5.92914,46.58016]},"properties":{"nom":"RD678","ag":["Réseau interurbain Mobigo"],"lt":0,"dept":"39"}},{"type":"Feature","geometry":{"type":"Point","coordinates":[5.87748,46.93863]},"properties":{"nom":"Casino","ag":["Réseau interurbain Mobigo"],"lt":0,"dept":"39"}},{"type":"Feature","geometry":{"type":"Point","coordinates":[5.8727,46.94931]},"properties":{"nom":"SALINS Faienceries","ag":["Réseau interurbain Mobigo"],"lt":0,"dept":"39"}},{"type":"Feature","geometry":{"type":"Point","coordinates":[5.8829,46.94908]},"properties":{"nom":"SALINS Lycée","ag":["Réseau interurbain Mobigo"],"lt":0,"dept":"39"}},{"type":"Feature","geometry":{"type":"Point","coordinates":[5.87741,46.94729]},"properties":{"nom":"SALINS Olivet","ag":["Réseau interurbain Mobigo"],"lt":0,"dept":"39"}},{"type":"Feature","geometry":{"type":"Point","coordinates":[5.87856,46.93293]},"properties":{"nom":"SALINS Pl. Aubarède","ag":["Réseau interurbain Mobigo"],"lt":0,"dept":"39"}},{"type":"Feature","geometry":{"type":"Point","coordinates":[5.88699,46.9291]},"properties":{"nom":"SALINS Pl. Ste Marie","ag":["Réseau interurbain Mobigo"],"lt":0,"dept":"39"}},{"type":"Feature","geometry":{"type":"Point","coordinates":[5.87806,46.94712]},"properties":{"nom":"SALINS Ancienne Gare","ag":["Réseau interurbain Mobigo"],"lt":0,"dept":"39"}},{"type":"Feature","geometry":{"type":"Point","coordinates":[5.5653,46.82746]},"properties":{"nom":"Poste","ag":["Réseau interurbain Mobigo"],"lt":0,"dept":"39"}},{"type":"Feature","geometry":{"type":"Point","coordinates":[5.92438,46.37898]},"properties":{"nom":"SEPTMONCEL Bellecombe","ag":["Réseau interurbain Mobigo"],"lt":0,"dept":"39"}},{"type":"Feature","geometry":{"type":"Point","coordinates":[5.93957,46.38685]},"properties":{"nom":"SEPTMONCEL Clavières","ag":["Réseau interurbain Mobigo"],"lt":0,"dept":"39"}},{"type":"Feature","geometry":{"type":"Point","coordinates":[5.90792,46.35962]},"properties":{"nom":"SEPTMONCEL L'Evalide","ag":["Réseau interurbain Mobigo"],"lt":0,"dept":"39"}},{"type":"Feature","geometry":{"type":"Point","coordinates":[5.9083,46.36286]},"properties":{"nom":"SEPTMONCEL Montépile","ag":["Réseau interurbain Mobigo"],"lt":0,"dept":"39"}},{"type":"Feature","geometry":{"type":"Point","coordinates":[5.91435,46.37125]},"properties":{"nom":"SEPTMONCEL Place","ag":["Réseau interurbain Mobigo"],"lt":0,"dept":"39"}},{"type":"Feature","geometry":{"type":"Point","coordinates":[5.55859,46.99143]},"properties":{"nom":"RN 63","ag":["Réseau interurbain Mobigo"],"lt":0,"dept":"39"}},{"type":"Feature","geometry":{"type":"Point","coordinates":[5.55075,46.99435]},"properties":{"nom":"Poste","ag":["Réseau interurbain Mobigo"],"lt":0,"dept":"39"}},{"type":"Feature","geometry":{"type":"Point","coordinates":[5.66115,46.52667]},"properties":{"nom":"TOUR DU MEIX (LA) Ecole-Mairie","ag":["Réseau interurbain Mobigo"],"lt":0,"dept":"39"}},{"type":"Feature","geometry":{"type":"Point","coordinates":[5.65959,46.52495]},"properties":{"nom":"TOUR DU MEIX (LA) RD470","ag":["Réseau interurbain Mobigo"],"lt":0,"dept":"39"}},{"type":"Feature","geometry":{"type":"Point","coordinates":[5.68394,46.85996]},"properties":{"nom":"Village Parking","ag":["Réseau interurbain Mobigo"],"lt":0,"dept":"39"}},{"type":"Feature","geometry":{"type":"Point","coordinates":[5.70118,46.92268]},"properties":{"nom":"Carf. RD469","ag":["Réseau interurbain Mobigo"],"lt":0,"dept":"39"}},{"type":"Feature","geometry":{"type":"Point","coordinates":[5.62188,46.98029]},"properties":{"nom":"Eglise","ag":["Réseau interurbain Mobigo"],"lt":0,"dept":"39"}},{"type":"Feature","geometry":{"type":"Point","coordinates":[5.61961,46.97694]},"properties":{"nom":"Pont","ag":["Réseau interurbain Mobigo"],"lt":0,"dept":"39"}},{"type":"Feature","geometry":{"type":"Point","coordinates":[5.45914,46.5984]},"properties":{"nom":"Paisia","ag":["Réseau interurbain Mobigo"],"lt":0,"dept":"39"}},{"type":"Feature","geometry":{"type":"Point","coordinates":[5.45981,46.59875]},"properties":{"nom":"Paisia","ag":["Réseau interurbain Mobigo"],"lt":0,"dept":"39"}},{"type":"Feature","geometry":{"type":"Point","coordinates":[5.45406,46.59388]},"properties":{"nom":"RD1083","ag":["Réseau interurbain Mobigo"],"lt":0,"dept":"39"}},{"type":"Feature","geometry":{"type":"Point","coordinates":[5.45472,46.59428]},"properties":{"nom":"RD 1083","ag":["Réseau interurbain Mobigo"],"lt":0,"dept":"39"}},{"type":"Feature","geometry":{"type":"Point","coordinates":[5.91592,46.81534]},"properties":{"nom":"Mairie","ag":["Réseau interurbain Mobigo"],"lt":0,"dept":"39"}},{"type":"Feature","geometry":{"type":"Point","coordinates":[5.63219,47.04163]},"properties":{"nom":"VIEILLE LOYE (LA) Mairie","ag":["Réseau interurbain Mobigo"],"lt":0,"dept":"39"}},{"type":"Feature","geometry":{"type":"Point","coordinates":[5.8752,46.37076]},"properties":{"nom":"VILLARD ST SAUVEUR L'Essard","ag":["Réseau interurbain Mobigo"],"lt":0,"dept":"39"}},{"type":"Feature","geometry":{"type":"Point","coordinates":[5.8782,46.36895]},"properties":{"nom":"VILLARD ST SAUVEUR Montbrillant Bas","ag":["Réseau interurbain Mobigo"],"lt":0,"dept":"39"}},{"type":"Feature","geometry":{"type":"Point","coordinates":[5.73067,46.41545]},"properties":{"nom":"Mairie","ag":["Réseau interurbain Mobigo"],"lt":0,"dept":"39"}},{"type":"Feature","geometry":{"type":"Point","coordinates":[5.7349,46.41525]},"properties":{"nom":"Ecole","ag":["Réseau interurbain Mobigo"],"lt":0,"dept":"39"}},{"type":"Feature","geometry":{"type":"Point","coordinates":[5.46443,46.73684]},"properties":{"nom":"Eglise","ag":["Réseau interurbain Mobigo"],"lt":0,"dept":"39"}},{"type":"Feature","geometry":{"type":"Point","coordinates":[5.46429,46.73698]},"properties":{"nom":"Pl de la Résistance","ag":["Réseau interurbain Mobigo"],"lt":0,"dept":"39"}},{"type":"Feature","geometry":{"type":"Point","coordinates":[5.4667,46.60457]},"properties":{"nom":"VINCELLES RD1083","ag":["Réseau interurbain Mobigo"],"lt":0,"dept":"39"}},{"type":"Feature","geometry":{"type":"Point","coordinates":[5.467,46.60455]},"properties":{"nom":"VINCELLES  RD1083","ag":["Réseau interurbain Mobigo"],"lt":0,"dept":"39"}},{"type":"Feature","geometry":{"type":"Point","coordinates":[5.38806,46.51662]},"properties":{"nom":"Bretelle RD1083","ag":["Réseau interurbain Mobigo"],"lt":0,"dept":"39"}},{"type":"Feature","geometry":{"type":"Point","coordinates":[5.3895,46.51714]},"properties":{"nom":"Carr. RD178","ag":["Réseau interurbain Mobigo"],"lt":0,"dept":"39"}},{"type":"Feature","geometry":{"type":"Point","coordinates":[5.87619,46.93699]},"properties":{"nom":"Salines","ag":["Réseau interurbain Mobigo"],"lt":0,"dept":"39"}},{"type":"Feature","geometry":{"type":"Point","coordinates":[5.51567,46.92238]},"properties":{"nom":"RD 475","ag":["Réseau interurbain Mobigo"],"lt":0,"dept":"39"}},{"type":"Feature","geometry":{"type":"Point","coordinates":[5.47901,46.84652]},"properties":{"nom":"Atelier Communal","ag":["Réseau interurbain Mobigo"],"lt":0,"dept":"39"}},{"type":"Feature","geometry":{"type":"Point","coordinates":[5.49464,47.02346]},"properties":{"nom":"RD 905","ag":["Réseau interurbain Mobigo"],"lt":0,"dept":"39"}},{"type":"Feature","geometry":{"type":"Point","coordinates":[5.33444,46.43776]},"properties":{"nom":"Parking Bolard","ag":["Réseau interurbain Mobigo"],"lt":0,"dept":"39"}},{"type":"Feature","geometry":{"type":"Point","coordinates":[5.3434,46.43747]},"properties":{"nom":"Gendarmerie","ag":["Réseau interurbain Mobigo"],"lt":0,"dept":"39"}},{"type":"Feature","geometry":{"type":"Point","coordinates":[5.39822,46.53967]},"properties":{"nom":"Bretelle RD1083","ag":["Réseau interurbain Mobigo"],"lt":0,"dept":"39"}},{"type":"Feature","geometry":{"type":"Point","coordinates":[5.39626,46.53978]},"properties":{"nom":"Bretelle RD1083","ag":["Réseau interurbain Mobigo"],"lt":0,"dept":"39"}},{"type":"Feature","geometry":{"type":"Point","coordinates":[5.55944,46.67388]},"properties":{"nom":"Place de Verdun","ag":["Réseau interurbain Mobigo"],"lt":0,"dept":"39"}},{"type":"Feature","geometry":{"type":"Point","coordinates":[5.90001,46.87112]},"properties":{"nom":"Mairie","ag":["Réseau interurbain Mobigo"],"lt":0,"dept":"39"}},{"type":"Feature","geometry":{"type":"Point","coordinates":[5.46125,46.82761]},"properties":{"nom":"RD33/D1","ag":["Réseau interurbain Mobigo"],"lt":0,"dept":"39"}},{"type":"Feature","geometry":{"type":"Point","coordinates":[5.85656,46.38104]},"properties":{"nom":"Cité Chabod","ag":["Réseau interurbain Mobigo"],"lt":0,"dept":"39"}},{"type":"Feature","geometry":{"type":"Point","coordinates":[5.60444,46.97222]},"properties":{"nom":"MT/VAUDREY Rte Poligny","ag":["Réseau interurbain Mobigo"],"lt":0,"dept":"39"}},{"type":"Feature","geometry":{"type":"Point","coordinates":[5.83601,46.95977]},"properties":{"nom":"Barges","ag":["Réseau interurbain Mobigo"],"lt":0,"dept":"39"}},{"type":"Feature","geometry":{"type":"Point","coordinates":[5.67123,46.5197]},"properties":{"nom":"TOUR-DU-MEIX (LA) Lac de Vouglans","ag":["Réseau interurbain Mobigo"],"lt":0,"dept":"39"}},{"type":"Feature","geometry":{"type":"Point","coordinates":[6.10591,46.5193]},"properties":{"nom":"2982 Rue du Vivier","ag":["Réseau interurbain Mobigo"],"lt":0,"dept":"39"}},{"type":"Feature","geometry":{"type":"Point","coordinates":[5.83003,46.38103]},"properties":{"nom":"Route de Lyon","ag":["Réseau interurbain Mobigo"],"lt":0,"dept":"39"}},{"type":"Feature","geometry":{"type":"Point","coordinates":[5.55754,46.99215]},"properties":{"nom":"MIGAILLE","ag":["Réseau interurbain Mobigo"],"lt":0,"dept":"39"}},{"type":"Feature","geometry":{"type":"Point","coordinates":[5.88163,46.36791]},"properties":{"nom":"VILLARD ST SAUVEUR Montbrillant Haut","ag":["Réseau interurbain Mobigo"],"lt":0,"dept":"39"}},{"type":"Feature","geometry":{"type":"Point","coordinates":[5.817,47.15186]},"properties":{"nom":"Roset-Fluans - La Corne","ag":["Réseau urbain Ginko"],"lt":0,"dept":"39"}},{"type":"Feature","geometry":{"type":"Point","coordinates":[5.81703,47.1519]},"properties":{"nom":"Roset-Fluans - La Corne","ag":["Réseau urbain Ginko"],"lt":0,"dept":"39"}},{"type":"Feature","geometry":{"type":"Point","coordinates":[5.81702,47.15188]},"properties":{"nom":"Roset-Fluans - La Corne","ag":["Réseau urbain Ginko"],"lt":1,"dept":"39"}},{"type":"Feature","geometry":{"type":"Point","coordinates":[5.4372,47.1055]},"properties":{"nom":"Champvans Huffenhardt","ag":["Réseau urbain Grandole Mobilités"],"lt":0,"dept":"39"}},{"type":"Feature","geometry":{"type":"Point","coordinates":[5.4478,47.0637]},"properties":{"nom":"Choisey Autoroute","ag":["Réseau urbain Grandole Mobilités"],"lt":0,"dept":"39"}},{"type":"Feature","geometry":{"type":"Point","coordinates":[5.5149,47.0946]},"properties":{"nom":"Gujean","ag":["Réseau urbain Grandole Mobilités"],"lt":0,"dept":"39"}},{"type":"Feature","geometry":{"type":"Point","coordinates":[5.5148,47.0946]},"properties":{"nom":"Gujean","ag":["Réseau urbain Grandole Mobilités"],"lt":0,"dept":"39"}},{"type":"Feature","geometry":{"type":"Point","coordinates":[5.4504,47.0617]},"properties":{"nom":"Choisey Paradis","ag":["Réseau urbain Grandole Mobilités"],"lt":0,"dept":"39"}},{"type":"Feature","geometry":{"type":"Point","coordinates":[5.4146,47.0621]},"properties":{"nom":"Damparis Belvoye","ag":["Réseau urbain Grandole Mobilités"],"lt":0,"dept":"39"}},{"type":"Feature","geometry":{"type":"Point","coordinates":[5.4146,47.0622]},"properties":{"nom":"Damparis Belvoye","ag":["Réseau urbain Grandole Mobilités"],"lt":0,"dept":"39"}},{"type":"Feature","geometry":{"type":"Point","coordinates":[5.50698,47.109]},"properties":{"nom":"Léon Bel","ag":["Réseau urbain Grandole Mobilités"],"lt":0,"dept":"39"}},{"type":"Feature","geometry":{"type":"Point","coordinates":[5.4127,47.0766]},"properties":{"nom":"Damparis Monument","ag":["Réseau urbain Grandole Mobilités"],"lt":0,"dept":"39"}},{"type":"Feature","geometry":{"type":"Point","coordinates":[5.4127,47.0767]},"properties":{"nom":"Damparis Monument","ag":["Réseau urbain Grandole Mobilités"],"lt":0,"dept":"39"}},{"type":"Feature","geometry":{"type":"Point","coordinates":[5.413,47.0732]},"properties":{"nom":"Damparis Soleil","ag":["Réseau urbain Grandole Mobilités"],"lt":0,"dept":"39"}},{"type":"Feature","geometry":{"type":"Point","coordinates":[5.413,47.0733]},"properties":{"nom":"Damparis Soleil","ag":["Réseau urbain Grandole Mobilités"],"lt":0,"dept":"39"}},{"type":"Feature","geometry":{"type":"Point","coordinates":[5.4166,47.0752]},"properties":{"nom":"Damparis Sous les Vignes","ag":["Réseau urbain Grandole Mobilités"],"lt":0,"dept":"39"}},{"type":"Feature","geometry":{"type":"Point","coordinates":[5.4168,47.0752]},"properties":{"nom":"Damparis Sous les Vignes","ag":["Réseau urbain Grandole Mobilités"],"lt":0,"dept":"39"}},{"type":"Feature","geometry":{"type":"Point","coordinates":[5.4894,47.0988]},"properties":{"nom":"Lombard","ag":["Réseau urbain Grandole Mobilités"],"lt":0,"dept":"39"}},{"type":"Feature","geometry":{"type":"Point","coordinates":[5.4893,47.0986]},"properties":{"nom":"Lombard","ag":["Réseau urbain Grandole Mobilités"],"lt":0,"dept":"39"}},{"type":"Feature","geometry":{"type":"Point","coordinates":[5.4678,47.0725]},"properties":{"nom":"Aberjoux","ag":["Réseau urbain Grandole Mobilités"],"lt":0,"dept":"39"}},{"type":"Feature","geometry":{"type":"Point","coordinates":[5.4867,47.0883]},"properties":{"nom":"Barberousse","ag":["Réseau urbain Grandole Mobilités"],"lt":0,"dept":"39"}},{"type":"Feature","geometry":{"type":"Point","coordinates":[5.4874,47.0894]},"properties":{"nom":"Barberousse","ag":["Réseau urbain Grandole Mobilités"],"lt":0,"dept":"39"}},{"type":"Feature","geometry":{"type":"Point","coordinates":[5.4833,47.0861]},"properties":{"nom":"Beauregard","ag":["Réseau urbain Grandole Mobilités"],"lt":0,"dept":"39"}},{"type":"Feature","geometry":{"type":"Point","coordinates":[5.4826,47.0857]},"properties":{"nom":"Beauregard","ag":["Réseau urbain Grandole Mobilités"],"lt":0,"dept":"39"}},{"type":"Feature","geometry":{"type":"Point","coordinates":[5.4985,47.0814]},"properties":{"nom":"La Bedugue","ag":["Réseau urbain Grandole Mobilités"],"lt":0,"dept":"39"}},{"type":"Feature","geometry":{"type":"Point","coordinates":[5.4983,47.0813]},"properties":{"nom":"La Bedugue","ag":["Réseau urbain Grandole Mobilités"],"lt":0,"dept":"39"}},{"type":"Feature","geometry":{"type":"Point","coordinates":[5.4925,47.0935]},"properties":{"nom":"Boyvin","ag":["Réseau urbain Grandole Mobilités"],"lt":0,"dept":"39"}},{"type":"Feature","geometry":{"type":"Point","coordinates":[5.4909,47.0949]},"properties":{"nom":"Briand","ag":["Réseau urbain Grandole Mobilités"],"lt":0,"dept":"39"}},{"type":"Feature","geometry":{"type":"Point","coordinates":[5.5727,47.1123]},"properties":{"nom":"rochefort sur nenon gros buisson","ag":["Réseau urbain Grandole Mobilités"],"lt":0,"dept":"39"}},{"type":"Feature","geometry":{"type":"Point","coordinates":[5.4752,47.0756]},"properties":{"nom":"Flexi agglo 1","ag":["Réseau urbain Grandole Mobilités"],"lt":0,"dept":"39"}},{"type":"Feature","geometry":{"type":"Point","coordinates":[5.4752,47.0756]},"properties":{"nom":"Flexi agglo 2","ag":["Réseau urbain Grandole Mobilités"],"lt":0,"dept":"39"}},{"type":"Feature","geometry":{"type":"Point","coordinates":[5.4752,47.0756]},"properties":{"nom":"Flexi job 1","ag":["Réseau urbain Grandole Mobilités"],"lt":0,"dept":"39"}},{"type":"Feature","geometry":{"type":"Point","coordinates":[5.4911,47.093]},"properties":{"nom":"Collège","ag":["Réseau urbain Grandole Mobilités"],"lt":0,"dept":"39"}},{"type":"Feature","geometry":{"type":"Point","coordinates":[5.5069,47.0996]},"properties":{"nom":"Constant","ag":["Réseau urbain Grandole Mobilités"],"lt":0,"dept":"39"}},{"type":"Feature","geometry":{"type":"Point","coordinates":[5.5065,47.0995]},"properties":{"nom":"Constant","ag":["Réseau urbain Grandole Mobilités"],"lt":0,"dept":"39"}},{"type":"Feature","geometry":{"type":"Point","coordinates":[5.4784,47.0829]},"properties":{"nom":"La Corniche","ag":["Réseau urbain Grandole Mobilités"],"lt":0,"dept":"39"}},{"type":"Feature","geometry":{"type":"Point","coordinates":[5.4774,47.0824]},"properties":{"nom":"La Corniche","ag":["Réseau urbain Grandole Mobilités"],"lt":0,"dept":"39"}},{"type":"Feature","geometry":{"type":"Point","coordinates":[5.4752,47.0756]},"properties":{"nom":"Flexi job 2","ag":["Réseau urbain Grandole Mobilités"],"lt":0,"dept":"39"}},{"type":"Feature","geometry":{"type":"Point","coordinates":[5.4752,47.0756]},"properties":{"nom":"Flexi pmr 1","ag":["Réseau urbain Grandole Mobilités"],"lt":0,"dept":"39"}},{"type":"Feature","geometry":{"type":"Point","coordinates":[5.4752,47.0756]},"properties":{"nom":"Flexi pmr 2","ag":["Réseau urbain Grandole Mobilités"],"lt":0,"dept":"39"}},{"type":"Feature","geometry":{"type":"Point","coordinates":[5.4735,47.0818]},"properties":{"nom":"Lycée Duhamel","ag":["Réseau urbain Grandole Mobilités"],"lt":0,"dept":"39"}},{"type":"Feature","geometry":{"type":"Point","coordinates":[5.4727,47.082]},"properties":{"nom":"Lycée Duhamel","ag":["Réseau urbain Grandole Mobilités"],"lt":0,"dept":"39"}},{"type":"Feature","geometry":{"type":"Point","coordinates":[5.5026,47.0974]},"properties":{"nom":"Eisenhower","ag":["Réseau urbain Grandole Mobilités"],"lt":0,"dept":"39"}},{"type":"Feature","geometry":{"type":"Point","coordinates":[5.5023,47.0973]},"properties":{"nom":"Eisenhower","ag":["Réseau urbain Grandole Mobilités"],"lt":0,"dept":"39"}},{"type":"Feature","geometry":{"type":"Point","coordinates":[5.4752,47.0756]},"properties":{"nom":"Flexi séniors 1","ag":["Réseau urbain Grandole Mobilités"],"lt":0,"dept":"39"}},{"type":"Feature","geometry":{"type":"Point","coordinates":[5.4752,47.0756]},"properties":{"nom":"Flexi séniors 2","ag":["Réseau urbain Grandole Mobilités"],"lt":0,"dept":"39"}},{"type":"Feature","geometry":{"type":"Point","coordinates":[5.4901,47.0767]},"properties":{"nom":"Dolexpo","ag":["Réseau urbain Grandole Mobilités"],"lt":0,"dept":"39"}},{"type":"Feature","geometry":{"type":"Point","coordinates":[5.4903,47.0767]},"properties":{"nom":"Dolexpo","ag":["Réseau urbain Grandole Mobilités"],"lt":0,"dept":"39"}},{"type":"Feature","geometry":{"type":"Point","coordinates":[5.4696,47.07777]},"properties":{"nom":"Foch","ag":["Réseau urbain Grandole Mobilités"],"lt":0,"dept":"39"}},{"type":"Feature","geometry":{"type":"Point","coordinates":[5.4881,47.0959]},"properties":{"nom":"Dole Gare","ag":["Réseau urbain Grandole Mobilités"],"lt":0,"dept":"39"}},{"type":"Feature","geometry":{"type":"Point","coordinates":[5.4899,47.1406]},"properties":{"nom":"Jouhe Centre","ag":["Réseau urbain Grandole Mobilités"],"lt":0,"dept":"39"}},{"type":"Feature","geometry":{"type":"Point","coordinates":[5.56505,47.16557]},"properties":{"nom":"amange abribus","ag":["Réseau urbain Grandole Mobilités"],"lt":0,"dept":"39"}},{"type":"Feature","geometry":{"type":"Point","coordinates":[5.4907,47.0848]},"properties":{"nom":"Général Béthouart","ag":["Réseau urbain Grandole Mobilités"],"lt":0,"dept":"39"}},{"type":"Feature","geometry":{"type":"Point","coordinates":[5.565,47.1653]},"properties":{"nom":"AMANGE Ecole","ag":["Réseau urbain Grandole Mobilités"],"lt":0,"dept":"39"}},{"type":"Feature","geometry":{"type":"Point","coordinates":[5.51569,47.14586]},"properties":{"nom":"Archelange Ecole","ag":["Réseau urbain Grandole Mobilités"],"lt":0,"dept":"39"}},{"type":"Feature","geometry":{"type":"Point","coordinates":[5.47164,47.08349]},"properties":{"nom":"Hopital Pasteur","ag":["Réseau urbain Grandole Mobilités"],"lt":0,"dept":"39"}},{"type":"Feature","geometry":{"type":"Point","coordinates":[5.53895,47.10197]},"properties":{"nom":"baverans grande rue","ag":["Réseau urbain Grandole Mobilités"],"lt":0,"dept":"39"}},{"type":"Feature","geometry":{"type":"Point","coordinates":[5.53895,47.10197]},"properties":{"nom":"Baverans Ecole","ag":["Réseau urbain Grandole Mobilités"],"lt":0,"dept":"39"}},{"type":"Feature","geometry":{"type":"Point","coordinates":[5.5389,47.1019]},"properties":{"nom":"Baverans Ecole","ag":["Réseau urbain Grandole Mobilités"],"lt":0,"dept":"39"}},{"type":"Feature","geometry":{"type":"Point","coordinates":[5.4824,47.0898]},"properties":{"nom":"Paters","ag":["Réseau urbain Grandole Mobilités"],"lt":0,"dept":"39"}},{"type":"Feature","geometry":{"type":"Point","coordinates":[5.5098,47.0975]},"properties":{"nom":"La Paule","ag":["Réseau urbain Grandole Mobilités"],"lt":0,"dept":"39"}},{"type":"Feature","geometry":{"type":"Point","coordinates":[5.5146,47.1028]},"properties":{"nom":"Baverans lot.Parc","ag":["Réseau urbain Grandole Mobilités"],"lt":0,"dept":"39"}},{"type":"Feature","geometry":{"type":"Point","coordinates":[5.4798,47.087]},"properties":{"nom":"Plumont","ag":["Réseau urbain Grandole Mobilités"],"lt":0,"dept":"39"}},{"type":"Feature","geometry":{"type":"Point","coordinates":[5.43427,47.10551]},"properties":{"nom":"Champvans Ecole","ag":["Réseau urbain Grandole Mobilités"],"lt":0,"dept":"39"}},{"type":"Feature","geometry":{"type":"Point","coordinates":[5.4691,47.0764]},"properties":{"nom":"Place Novarina","ag":["Réseau urbain Grandole Mobilités"],"lt":0,"dept":"39"}},{"type":"Feature","geometry":{"type":"Point","coordinates":[5.4906,47.0893]},"properties":{"nom":"Pointelin","ag":["Réseau urbain Grandole Mobilités"],"lt":0,"dept":"39"}},{"type":"Feature","geometry":{"type":"Point","coordinates":[5.4906,47.0894]},"properties":{"nom":"Pointelin","ag":["Réseau urbain Grandole Mobilités"],"lt":0,"dept":"39"}},{"type":"Feature","geometry":{"type":"Point","coordinates":[5.4982,47.074]},"properties":{"nom":"Poiset","ag":["Réseau urbain Grandole Mobilités"],"lt":0,"dept":"39"}},{"type":"Feature","geometry":{"type":"Point","coordinates":[5.498,47.074]},"properties":{"nom":"Poiset","ag":["Réseau urbain Grandole Mobilités"],"lt":0,"dept":"39"}},{"type":"Feature","geometry":{"type":"Point","coordinates":[5.4951,47.074]},"properties":{"nom":"Cité des Polonais","ag":["Réseau urbain Grandole Mobilités"],"lt":0,"dept":"39"}},{"type":"Feature","geometry":{"type":"Point","coordinates":[5.4962,47.0736]},"properties":{"nom":"Cité des Polonais","ag":["Réseau urbain Grandole Mobilités"],"lt":0,"dept":"39"}},{"type":"Feature","geometry":{"type":"Point","coordinates":[5.38391,47.0095]},"properties":{"nom":"Champdivers Ecole","ag":["Réseau urbain Grandole Mobilités"],"lt":0,"dept":"39"}},{"type":"Feature","geometry":{"type":"Point","coordinates":[5.4863,47.0941]},"properties":{"nom":"Mont Roland","ag":["Réseau urbain Grandole Mobilités"],"lt":0,"dept":"39"}},{"type":"Feature","geometry":{"type":"Point","coordinates":[5.4751,47.08229]},"properties":{"nom":"Souvenir Français","ag":["Réseau urbain Grandole Mobilités"],"lt":0,"dept":"39"}},{"type":"Feature","geometry":{"type":"Point","coordinates":[5.49779,47.09462]},"properties":{"nom":"Dole Saint Mauris","ag":["Réseau urbain Grandole Mobilités"],"lt":0,"dept":"39"}},{"type":"Feature","geometry":{"type":"Point","coordinates":[5.497,47.0847]},"properties":{"nom":"Templiers","ag":["Réseau urbain Grandole Mobilités"],"lt":0,"dept":"39"}},{"type":"Feature","geometry":{"type":"Point","coordinates":[5.4971,47.0845]},"properties":{"nom":"Templiers","ag":["Réseau urbain Grandole Mobilités"],"lt":0,"dept":"39"}},{"type":"Feature","geometry":{"type":"Point","coordinates":[5.40987,47.07453]},"properties":{"nom":"Damparis Park. Abbaye","ag":["Réseau urbain Grandole Mobilités"],"lt":0,"dept":"39"}},{"type":"Feature","geometry":{"type":"Point","coordinates":[5.4886,47.0913]},"properties":{"nom":"Théâtre 1","ag":["Réseau urbain Grandole Mobilités"],"lt":0,"dept":"39"}},{"type":"Feature","geometry":{"type":"Point","coordinates":[5.48794,47.09128]},"properties":{"nom":"Théâtre 2","ag":["Réseau urbain Grandole Mobilités"],"lt":0,"dept":"39"}},{"type":"Feature","geometry":{"type":"Point","coordinates":[5.4687,47.0818]},"properties":{"nom":"Thouverey","ag":["Réseau urbain Grandole Mobilités"],"lt":0,"dept":"39"}},{"type":"Feature","geometry":{"type":"Point","coordinates":[5.4688,47.0819]},"properties":{"nom":"Thouverey","ag":["Réseau urbain Grandole Mobilités"],"lt":0,"dept":"39"}},{"type":"Feature","geometry":{"type":"Point","coordinates":[5.42026,47.0798]},"properties":{"nom":"Damparis Casanova","ag":["Réseau urbain Grandole Mobilités"],"lt":0,"dept":"39"}},{"type":"Feature","geometry":{"type":"Point","coordinates":[5.41253,47.08]},"properties":{"nom":"Damparis Rue des Cosaques","ag":["Réseau urbain Grandole Mobilités"],"lt":0,"dept":"39"}},{"type":"Feature","geometry":{"type":"Point","coordinates":[5.4689,47.0797]},"properties":{"nom":"Verdun","ag":["Réseau urbain Grandole Mobilités"],"lt":0,"dept":"39"}},{"type":"Feature","geometry":{"type":"Point","coordinates":[5.40918,47.0787]},"properties":{"nom":"Damparis Allée des Fleurs","ag":["Réseau urbain Grandole Mobilités"],"lt":0,"dept":"39"}},{"type":"Feature","geometry":{"type":"Point","coordinates":[5.4937,47.0896]},"properties":{"nom":"Vieux Château","ag":["Réseau urbain Grandole Mobilités"],"lt":0,"dept":"39"}},{"type":"Feature","geometry":{"type":"Point","coordinates":[5.4939,47.0896]},"properties":{"nom":"Vieux Château","ag":["Réseau urbain Grandole Mobilités"],"lt":0,"dept":"39"}},{"type":"Feature","geometry":{"type":"Point","coordinates":[5.5004,47.0962]},"properties":{"nom":"Villa des Roses","ag":["Réseau urbain Grandole Mobilités"],"lt":0,"dept":"39"}},{"type":"Feature","geometry":{"type":"Point","coordinates":[5.5004,47.0963]},"properties":{"nom":"Villa des Roses","ag":["Réseau urbain Grandole Mobilités"],"lt":0,"dept":"39"}},{"type":"Feature","geometry":{"type":"Point","coordinates":[5.4932,47.0938]},"properties":{"nom":"Visitation","ag":["Réseau urbain Grandole Mobilités"],"lt":0,"dept":"39"}},{"type":"Feature","geometry":{"type":"Point","coordinates":[5.4949,47.0967]},"properties":{"nom":"Wilson","ag":["Réseau urbain Grandole Mobilités"],"lt":0,"dept":"39"}},{"type":"Feature","geometry":{"type":"Point","coordinates":[5.41629,47.0801]},"properties":{"nom":"Damparis Rue Gabriel Péri","ag":["Réseau urbain Grandole Mobilités"],"lt":0,"dept":"39"}},{"type":"Feature","geometry":{"type":"Point","coordinates":[5.4621,47.0683]},"properties":{"nom":"Saint Ylie","ag":["Réseau urbain Grandole Mobilités"],"lt":0,"dept":"39"}},{"type":"Feature","geometry":{"type":"Point","coordinates":[5.4555,47.08259]},"properties":{"nom":"Foucherans Commerce","ag":["Réseau urbain Grandole Mobilités"],"lt":0,"dept":"39"}},{"type":"Feature","geometry":{"type":"Point","coordinates":[5.455,47.08233]},"properties":{"nom":"Foucherans Commerce","ag":["Réseau urbain Grandole Mobilités"],"lt":0,"dept":"39"}},{"type":"Feature","geometry":{"type":"Point","coordinates":[5.4463,47.0782]},"properties":{"nom":"Foucherans Gare","ag":["Réseau urbain Grandole Mobilités"],"lt":0,"dept":"39"}},{"type":"Feature","geometry":{"type":"Point","coordinates":[5.4465,47.0783]},"properties":{"nom":"Foucherans Gare","ag":["Réseau urbain Grandole Mobilités"],"lt":0,"dept":"39"}},{"type":"Feature","geometry":{"type":"Point","coordinates":[5.45839,47.08107]},"properties":{"nom":"Foucherans Marronniers","ag":["Réseau urbain Grandole Mobilités"],"lt":0,"dept":"39"}},{"type":"Feature","geometry":{"type":"Point","coordinates":[5.45761,47.08188]},"properties":{"nom":"Foucherans Marronniers","ag":["Réseau urbain Grandole Mobilités"],"lt":0,"dept":"39"}},{"type":"Feature","geometry":{"type":"Point","coordinates":[5.4537,47.08052]},"properties":{"nom":"Foucherans Poste","ag":["Réseau urbain Grandole Mobilités"],"lt":0,"dept":"39"}},{"type":"Feature","geometry":{"type":"Point","coordinates":[5.45373,47.08062]},"properties":{"nom":"Foucherans Poste","ag":["Réseau urbain Grandole Mobilités"],"lt":0,"dept":"39"}},{"type":"Feature","geometry":{"type":"Point","coordinates":[5.4629,47.0802]},"properties":{"nom":"Foucherans Rougemont 1","ag":["Réseau urbain Grandole Mobilités"],"lt":0,"dept":"39"}},{"type":"Feature","geometry":{"type":"Point","coordinates":[5.4636,47.0802]},"properties":{"nom":"Foucherans Rougemont 1","ag":["Réseau urbain Grandole Mobilités"],"lt":0,"dept":"39"}},{"type":"Feature","geometry":{"type":"Point","coordinates":[5.402,47.0434]},"properties":{"nom":"Tavaux Collège","ag":["Réseau urbain Grandole Mobilités"],"lt":0,"dept":"39"}},{"type":"Feature","geometry":{"type":"Point","coordinates":[5.4147,47.0396]},"properties":{"nom":"Tavaux Droits de l'Homme","ag":["Réseau urbain Grandole Mobilités"],"lt":0,"dept":"39"}},{"type":"Feature","geometry":{"type":"Point","coordinates":[5.4146,47.0396]},"properties":{"nom":"Tavaux Droits de l'Homme","ag":["Réseau urbain Grandole Mobilités"],"lt":0,"dept":"39"}},{"type":"Feature","geometry":{"type":"Point","coordinates":[5.40594,47.0757]},"properties":{"nom":"Damparis HLM Les Moules","ag":["Réseau urbain Grandole Mobilités"],"lt":0,"dept":"39"}},{"type":"Feature","geometry":{"type":"Point","coordinates":[5.413,47.04482]},"properties":{"nom":"Tavaux Gérard Philipe","ag":["Réseau urbain Grandole Mobilités"],"lt":0,"dept":"39"}},{"type":"Feature","geometry":{"type":"Point","coordinates":[5.4129,47.0448]},"properties":{"nom":"Tavaux Gérard Philipe","ag":["Réseau urbain Grandole Mobilités"],"lt":0,"dept":"39"}},{"type":"Feature","geometry":{"type":"Point","coordinates":[5.41694,47.04199]},"properties":{"nom":"Tavaux Kennedy","ag":["Réseau urbain Grandole Mobilités"],"lt":0,"dept":"39"}},{"type":"Feature","geometry":{"type":"Point","coordinates":[5.41662,47.04217]},"properties":{"nom":"Tavaux Kennedy","ag":["Réseau urbain Grandole Mobilités"],"lt":0,"dept":"39"}},{"type":"Feature","geometry":{"type":"Point","coordinates":[5.4139,47.0559]},"properties":{"nom":"Tavaux Solvay","ag":["Réseau urbain Grandole Mobilités"],"lt":0,"dept":"39"}},{"type":"Feature","geometry":{"type":"Point","coordinates":[5.4138,47.0557]},"properties":{"nom":"Tavaux Solvay","ag":["Réseau urbain Grandole Mobilités"],"lt":0,"dept":"39"}},{"type":"Feature","geometry":{"type":"Point","coordinates":[5.414,47.0496]},"properties":{"nom":"Tavaux Tennis","ag":["Réseau urbain Grandole Mobilités"],"lt":0,"dept":"39"}},{"type":"Feature","geometry":{"type":"Point","coordinates":[5.4138,47.0496]},"properties":{"nom":"Tavaux Tennis","ag":["Réseau urbain Grandole Mobilités"],"lt":0,"dept":"39"}},{"type":"Feature","geometry":{"type":"Point","coordinates":[5.3689,47.0701]},"properties":{"nom":"Abergement Carrefour de Damparis","ag":["Réseau urbain Grandole Mobilités"],"lt":0,"dept":"39"}},{"type":"Feature","geometry":{"type":"Point","coordinates":[5.3696,47.0707]},"properties":{"nom":"Abergement Carrefour de Damparis","ag":["Réseau urbain Grandole Mobilités"],"lt":0,"dept":"39"}},{"type":"Feature","geometry":{"type":"Point","coordinates":[5.3652,47.0712]},"properties":{"nom":"Abergement Rue du Centre","ag":["Réseau urbain Grandole Mobilités"],"lt":0,"dept":"39"}},{"type":"Feature","geometry":{"type":"Point","coordinates":[5.3652,47.0714]},"properties":{"nom":"Abergement Rue du Centre","ag":["Réseau urbain Grandole Mobilités"],"lt":0,"dept":"39"}},{"type":"Feature","geometry":{"type":"Point","coordinates":[5.35962,47.07394]},"properties":{"nom":"Abergement Rue de Samerey","ag":["Réseau urbain Grandole Mobilités"],"lt":0,"dept":"39"}},{"type":"Feature","geometry":{"type":"Point","coordinates":[5.3743,47.0658]},"properties":{"nom":"Abergement Rue de Tavaux","ag":["Réseau urbain Grandole Mobilités"],"lt":0,"dept":"39"}},{"type":"Feature","geometry":{"type":"Point","coordinates":[5.3744,47.0658]},"properties":{"nom":"Abergement Rue de Tavaux","ag":["Réseau urbain Grandole Mobilités"],"lt":0,"dept":"39"}},{"type":"Feature","geometry":{"type":"Point","coordinates":[5.565,47.1654]},"properties":{"nom":"Amange Ecole","ag":["Réseau urbain Grandole Mobilités"],"lt":0,"dept":"39"}},{"type":"Feature","geometry":{"type":"Point","coordinates":[5.51408,47.14655]},"properties":{"nom":"Archelange Centre","ag":["Réseau urbain Grandole Mobilités"],"lt":0,"dept":"39"}},{"type":"Feature","geometry":{"type":"Point","coordinates":[5.51408,47.14669]},"properties":{"nom":"Archelange Centre","ag":["Réseau urbain Grandole Mobilités"],"lt":0,"dept":"39"}},{"type":"Feature","geometry":{"type":"Point","coordinates":[5.5858,47.1346]},"properties":{"nom":"Audelange Centre","ag":["Réseau urbain Grandole Mobilités"],"lt":0,"dept":"39"}},{"type":"Feature","geometry":{"type":"Point","coordinates":[5.58573,47.13454]},"properties":{"nom":"Audelange Centre","ag":["Réseau urbain Grandole Mobilités"],"lt":0,"dept":"39"}},{"type":"Feature","geometry":{"type":"Point","coordinates":[5.34789,47.05911]},"properties":{"nom":"Aumur Eglise","ag":["Réseau urbain Grandole Mobilités"],"lt":0,"dept":"39"}},{"type":"Feature","geometry":{"type":"Point","coordinates":[5.34774,47.05927]},"properties":{"nom":"Aumur Eglise","ag":["Réseau urbain Grandole Mobilités"],"lt":0,"dept":"39"}},{"type":"Feature","geometry":{"type":"Point","coordinates":[5.5046,47.1347]},"properties":{"nom":"Authume Autoroute","ag":["Réseau urbain Grandole Mobilités"],"lt":0,"dept":"39"}},{"type":"Feature","geometry":{"type":"Point","coordinates":[5.5044,47.13]},"properties":{"nom":"Authume Chemin Blanc","ag":["Réseau urbain Grandole Mobilités"],"lt":0,"dept":"39"}},{"type":"Feature","geometry":{"type":"Point","coordinates":[5.5024,47.1248]},"properties":{"nom":"Authume Mairie","ag":["Réseau urbain Grandole Mobilités"],"lt":0,"dept":"39"}},{"type":"Feature","geometry":{"type":"Point","coordinates":[5.5023,47.1247]},"properties":{"nom":"Authume Mairie","ag":["Réseau urbain Grandole Mobilités"],"lt":0,"dept":"39"}},{"type":"Feature","geometry":{"type":"Point","coordinates":[5.5011,47.1155]},"properties":{"nom":"Authume Stade","ag":["Réseau urbain Grandole Mobilités"],"lt":0,"dept":"39"}},{"type":"Feature","geometry":{"type":"Point","coordinates":[5.5011,47.1158]},"properties":{"nom":"Authume Stade","ag":["Réseau urbain Grandole Mobilités"],"lt":0,"dept":"39"}},{"type":"Feature","geometry":{"type":"Point","coordinates":[5.6505,47.1747]},"properties":{"nom":"Auxange Centre","ag":["Réseau urbain Grandole Mobilités"],"lt":0,"dept":"39"}},{"type":"Feature","geometry":{"type":"Point","coordinates":[5.5344,47.0989]},"properties":{"nom":"Baverans Rue des Crêts","ag":["Réseau urbain Grandole Mobilités"],"lt":0,"dept":"39"}},{"type":"Feature","geometry":{"type":"Point","coordinates":[5.5345,47.0989]},"properties":{"nom":"Baverans Rue des Crêts","ag":["Réseau urbain Grandole Mobilités"],"lt":0,"dept":"39"}},{"type":"Feature","geometry":{"type":"Point","coordinates":[5.4589,47.1466]},"properties":{"nom":"Biarne Ecole","ag":["Réseau urbain Grandole Mobilités"],"lt":0,"dept":"39"}},{"type":"Feature","geometry":{"type":"Point","coordinates":[5.4413,47.1353]},"properties":{"nom":"Biarne St Vivant","ag":["Réseau urbain Grandole Mobilités"],"lt":0,"dept":"39"}},{"type":"Feature","geometry":{"type":"Point","coordinates":[5.4412,47.1353]},"properties":{"nom":"Biarne St Vivant","ag":["Réseau urbain Grandole Mobilités"],"lt":0,"dept":"39"}},{"type":"Feature","geometry":{"type":"Point","coordinates":[5.5206,47.0956]},"properties":{"nom":"Brevans Grande Rue","ag":["Réseau urbain Grandole Mobilités"],"lt":0,"dept":"39"}},{"type":"Feature","geometry":{"type":"Point","coordinates":[5.5204,47.0956]},"properties":{"nom":"Brevans Grande Rue","ag":["Réseau urbain Grandole Mobilités"],"lt":0,"dept":"39"}},{"type":"Feature","geometry":{"type":"Point","coordinates":[5.5251,47.0964]},"properties":{"nom":"Brevans Mairie","ag":["Réseau urbain Grandole Mobilités"],"lt":0,"dept":"39"}},{"type":"Feature","geometry":{"type":"Point","coordinates":[5.5251,47.0963]},"properties":{"nom":"Brevans Mairie","ag":["Réseau urbain Grandole Mobilités"],"lt":0,"dept":"39"}},{"type":"Feature","geometry":{"type":"Point","coordinates":[5.51406,47.10354]},"properties":{"nom":"Parc de Brevans","ag":["Réseau urbain Grandole Mobilités"],"lt":0,"dept":"39"}},{"type":"Feature","geometry":{"type":"Point","coordinates":[5.51426,47.10361]},"properties":{"nom":"Parc de Brevans","ag":["Réseau urbain Grandole Mobilités"],"lt":0,"dept":"39"}},{"type":"Feature","geometry":{"type":"Point","coordinates":[5.526,47.09749]},"properties":{"nom":"Brevans Rue des Vignes","ag":["Réseau urbain Grandole Mobilités"],"lt":0,"dept":"39"}},{"type":"Feature","geometry":{"type":"Point","coordinates":[5.52613,47.09751]},"properties":{"nom":"Brevans Rue des Vignes","ag":["Réseau urbain Grandole Mobilités"],"lt":0,"dept":"39"}},{"type":"Feature","geometry":{"type":"Point","coordinates":[5.41642,47.0626]},"properties":{"nom":"Damparis Rue du Moulin (Carf Beauregard)","ag":["Réseau urbain Grandole Mobilités"],"lt":0,"dept":"39"}},{"type":"Feature","geometry":{"type":"Point","coordinates":[5.4339,47.1021]},"properties":{"nom":"Champvans Rue de Damparis","ag":["Réseau urbain Grandole Mobilités"],"lt":0,"dept":"39"}},{"type":"Feature","geometry":{"type":"Point","coordinates":[5.43381,47.10211]},"properties":{"nom":"Champvans Rue de Damparis","ag":["Réseau urbain Grandole Mobilités"],"lt":0,"dept":"39"}},{"type":"Feature","geometry":{"type":"Point","coordinates":[5.4422,47.1057]},"properties":{"nom":"Champvans Le Luminaire","ag":["Réseau urbain Grandole Mobilités"],"lt":0,"dept":"39"}},{"type":"Feature","geometry":{"type":"Point","coordinates":[5.4427,47.1058]},"properties":{"nom":"Champvans Le Luminaire","ag":["Réseau urbain Grandole Mobilités"],"lt":0,"dept":"39"}},{"type":"Feature","geometry":{"type":"Point","coordinates":[5.44877,47.10549]},"properties":{"nom":"Champvans Atelier Municipal","ag":["Réseau urbain Grandole Mobilités"],"lt":0,"dept":"39"}},{"type":"Feature","geometry":{"type":"Point","coordinates":[5.44883,47.10541]},"properties":{"nom":"Champvans Atelier Municipal","ag":["Réseau urbain Grandole Mobilités"],"lt":0,"dept":"39"}},{"type":"Feature","geometry":{"type":"Point","coordinates":[5.4424,47.1152]},"properties":{"nom":"Champvans Pont SNCF","ag":["Réseau urbain Grandole Mobilités"],"lt":0,"dept":"39"}},{"type":"Feature","geometry":{"type":"Point","coordinates":[5.43765,47.1103]},"properties":{"nom":"Champvans Stade","ag":["Réseau urbain Grandole Mobilités"],"lt":0,"dept":"39"}},{"type":"Feature","geometry":{"type":"Point","coordinates":[5.43792,47.11057]},"properties":{"nom":"Champvans Stade","ag":["Réseau urbain Grandole Mobilités"],"lt":0,"dept":"39"}},{"type":"Feature","geometry":{"type":"Point","coordinates":[5.3819,47.0106]},"properties":{"nom":"Champdivers Rue du Finage","ag":["Réseau urbain Grandole Mobilités"],"lt":0,"dept":"39"}},{"type":"Feature","geometry":{"type":"Point","coordinates":[5.3821,47.01072]},"properties":{"nom":"Champdivers Rue du Finage","ag":["Réseau urbain Grandole Mobilités"],"lt":0,"dept":"39"}},{"type":"Feature","geometry":{"type":"Point","coordinates":[5.5142,47.2587]},"properties":{"nom":"Champagney Place","ag":["Réseau urbain Grandole Mobilités"],"lt":0,"dept":"39"}},{"type":"Feature","geometry":{"type":"Point","coordinates":[5.5005,47.249]},"properties":{"nom":"Champagney Tuilerie","ag":["Réseau urbain Grandole Mobilités"],"lt":0,"dept":"39"}},{"type":"Feature","geometry":{"type":"Point","coordinates":[5.46015,47.063]},"properties":{"nom":"Choisey Eglise","ag":["Réseau urbain Grandole Mobilités"],"lt":0,"dept":"39"}},{"type":"Feature","geometry":{"type":"Point","coordinates":[5.46025,47.063]},"properties":{"nom":"Choisey Eglise","ag":["Réseau urbain Grandole Mobilités"],"lt":0,"dept":"39"}},{"type":"Feature","geometry":{"type":"Point","coordinates":[5.4572,47.0654]},"properties":{"nom":"Choisey Gagnières","ag":["Réseau urbain Grandole Mobilités"],"lt":0,"dept":"39"}},{"type":"Feature","geometry":{"type":"Point","coordinates":[5.4568,47.06537]},"properties":{"nom":"Choisey Gagnières","ag":["Réseau urbain Grandole Mobilités"],"lt":0,"dept":"39"}},{"type":"Feature","geometry":{"type":"Point","coordinates":[5.45693,47.06172]},"properties":{"nom":"Choisey Larges Pierres","ag":["Réseau urbain Grandole Mobilités"],"lt":0,"dept":"39"}},{"type":"Feature","geometry":{"type":"Point","coordinates":[5.45688,47.06167]},"properties":{"nom":"Choisey Larges Pierres","ag":["Réseau urbain Grandole Mobilités"],"lt":0,"dept":"39"}},{"type":"Feature","geometry":{"type":"Point","coordinates":[5.41934,47.0619]},"properties":{"nom":"Damparis Rue du Moulin (Rd Point.)","ag":["Réseau urbain Grandole Mobilités"],"lt":0,"dept":"39"}},{"type":"Feature","geometry":{"type":"Point","coordinates":[5.42624,47.0628]},"properties":{"nom":"Damparis Rue du Moulin (Cab tel.)","ag":["Réseau urbain Grandole Mobilités"],"lt":0,"dept":"39"}},{"type":"Feature","geometry":{"type":"Point","coordinates":[5.5514,47.1459]},"properties":{"nom":"Châtenois Centre","ag":["Réseau urbain Grandole Mobilités"],"lt":0,"dept":"39"}},{"type":"Feature","geometry":{"type":"Point","coordinates":[5.4756,47.1758]},"properties":{"nom":"Chevigny","ag":["Réseau urbain Grandole Mobilités"],"lt":0,"dept":"39"}},{"type":"Feature","geometry":{"type":"Point","coordinates":[5.4758,47.1757]},"properties":{"nom":"Chevigny","ag":["Réseau urbain Grandole Mobilités"],"lt":0,"dept":"39"}},{"type":"Feature","geometry":{"type":"Point","coordinates":[5.4943,47.0635]},"properties":{"nom":"Crissey Les Baraques","ag":["Réseau urbain Grandole Mobilités"],"lt":0,"dept":"39"}},{"type":"Feature","geometry":{"type":"Point","coordinates":[5.4944,47.0635]},"properties":{"nom":"Crissey Les Baraques","ag":["Réseau urbain Grandole Mobilités"],"lt":0,"dept":"39"}},{"type":"Feature","geometry":{"type":"Point","coordinates":[5.4865,47.0664]},"properties":{"nom":"Crissey La Boutière","ag":["Réseau urbain Grandole Mobilités"],"lt":0,"dept":"39"}},{"type":"Feature","geometry":{"type":"Point","coordinates":[5.48657,47.06635]},"properties":{"nom":"Crissey La Boutière","ag":["Réseau urbain Grandole Mobilités"],"lt":0,"dept":"39"}},{"type":"Feature","geometry":{"type":"Point","coordinates":[5.4915,47.0661]},"properties":{"nom":"Crissey Combotte","ag":["Réseau urbain Grandole Mobilités"],"lt":0,"dept":"39"}},{"type":"Feature","geometry":{"type":"Point","coordinates":[5.4916,47.0662]},"properties":{"nom":"Crissey Combotte","ag":["Réseau urbain Grandole Mobilités"],"lt":0,"dept":"39"}},{"type":"Feature","geometry":{"type":"Point","coordinates":[5.4947,47.0658]},"properties":{"nom":"Crissey Rue du Loup","ag":["Réseau urbain Grandole Mobilités"],"lt":0,"dept":"39"}},{"type":"Feature","geometry":{"type":"Point","coordinates":[5.4946,47.0658]},"properties":{"nom":"Crissey Rue du Loup","ag":["Réseau urbain Grandole Mobilités"],"lt":0,"dept":"39"}},{"type":"Feature","geometry":{"type":"Point","coordinates":[5.4827,47.0693]},"properties":{"nom":"Crissey Mairie","ag":["Réseau urbain Grandole Mobilités"],"lt":0,"dept":"39"}},{"type":"Feature","geometry":{"type":"Point","coordinates":[5.4828,47.0693]},"properties":{"nom":"Crissey Mairie","ag":["Réseau urbain Grandole Mobilités"],"lt":0,"dept":"39"}},{"type":"Feature","geometry":{"type":"Point","coordinates":[5.4895,47.0667]},"properties":{"nom":"Crissey Meix Brulés","ag":["Réseau urbain Grandole Mobilités"],"lt":0,"dept":"39"}},{"type":"Feature","geometry":{"type":"Point","coordinates":[5.4894,47.0667]},"properties":{"nom":"Crissey Meix Brulés","ag":["Réseau urbain Grandole Mobilités"],"lt":0,"dept":"39"}},{"type":"Feature","geometry":{"type":"Point","coordinates":[5.4876,47.07]},"properties":{"nom":"Crissey Ronceraie","ag":["Réseau urbain Grandole Mobilités"],"lt":0,"dept":"39"}},{"type":"Feature","geometry":{"type":"Point","coordinates":[5.4875,47.07]},"properties":{"nom":"Crissey Ronceraie","ag":["Réseau urbain Grandole Mobilités"],"lt":0,"dept":"39"}},{"type":"Feature","geometry":{"type":"Point","coordinates":[5.4144,47.0687]},"properties":{"nom":"Damparis Collège","ag":["Réseau urbain Grandole Mobilités"],"lt":0,"dept":"39"}},{"type":"Feature","geometry":{"type":"Point","coordinates":[5.4139,47.0687]},"properties":{"nom":"Damparis Concorde","ag":["Réseau urbain Grandole Mobilités"],"lt":0,"dept":"39"}},{"type":"Feature","geometry":{"type":"Point","coordinates":[5.4139,47.0685]},"properties":{"nom":"Damparis Concorde","ag":["Réseau urbain Grandole Mobilités"],"lt":0,"dept":"39"}},{"type":"Feature","geometry":{"type":"Point","coordinates":[5.4066,47.0756]},"properties":{"nom":"Damparis Malnouhe","ag":["Réseau urbain Grandole Mobilités"],"lt":0,"dept":"39"}},{"type":"Feature","geometry":{"type":"Point","coordinates":[5.4067,47.0755]},"properties":{"nom":"Damparis Malnouhe","ag":["Réseau urbain Grandole Mobilités"],"lt":0,"dept":"39"}},{"type":"Feature","geometry":{"type":"Point","coordinates":[5.41496,47.07922]},"properties":{"nom":"Damparis Rue de Champvans","ag":["Réseau urbain Grandole Mobilités"],"lt":0,"dept":"39"}},{"type":"Feature","geometry":{"type":"Point","coordinates":[5.41495,47.07928]},"properties":{"nom":"Damparis Rue de Champvans","ag":["Réseau urbain Grandole Mobilités"],"lt":0,"dept":"39"}},{"type":"Feature","geometry":{"type":"Point","coordinates":[5.4922,47.096]},"properties":{"nom":"11-nov","ag":["Réseau urbain Grandole Mobilités"],"lt":0,"dept":"39"}},{"type":"Feature","geometry":{"type":"Point","coordinates":[5.493,47.0964]},"properties":{"nom":"11-nov","ag":["Réseau urbain Grandole Mobilités"],"lt":0,"dept":"39"}},{"type":"Feature","geometry":{"type":"Point","coordinates":[5.4677,47.0726]},"properties":{"nom":"Aberjoux","ag":["Réseau urbain Grandole Mobilités"],"lt":0,"dept":"39"}},{"type":"Feature","geometry":{"type":"Point","coordinates":[5.5095,47.101]},"properties":{"nom":"Ameter","ag":["Réseau urbain Grandole Mobilités"],"lt":0,"dept":"39"}},{"type":"Feature","geometry":{"type":"Point","coordinates":[5.5093,47.101]},"properties":{"nom":"Ameter","ag":["Réseau urbain Grandole Mobilités"],"lt":0,"dept":"39"}},{"type":"Feature","geometry":{"type":"Point","coordinates":[5.4979,47.0866]},"properties":{"nom":"Azans","ag":["Réseau urbain Grandole Mobilités"],"lt":0,"dept":"39"}},{"type":"Feature","geometry":{"type":"Point","coordinates":[5.4978,47.0866]},"properties":{"nom":"Azans","ag":["Réseau urbain Grandole Mobilités"],"lt":0,"dept":"39"}},{"type":"Feature","geometry":{"type":"Point","coordinates":[5.47073,47.08292]},"properties":{"nom":"Bastié","ag":["Réseau urbain Grandole Mobilités"],"lt":0,"dept":"39"}},{"type":"Feature","geometry":{"type":"Point","coordinates":[5.41419,47.07056]},"properties":{"nom":"Damparis Place du 1er Mai (ecole primaire)","ag":["Réseau urbain Grandole Mobilités"],"lt":0,"dept":"39"}},{"type":"Feature","geometry":{"type":"Point","coordinates":[5.4987,47.103]},"properties":{"nom":"Berlioz","ag":["Réseau urbain Grandole Mobilités"],"lt":0,"dept":"39"}},{"type":"Feature","geometry":{"type":"Point","coordinates":[5.4986,47.103]},"properties":{"nom":"Berlioz","ag":["Réseau urbain Grandole Mobilités"],"lt":0,"dept":"39"}},{"type":"Feature","geometry":{"type":"Point","coordinates":[5.5056,47.082]},"properties":{"nom":"Bizard","ag":["Réseau urbain Grandole Mobilités"],"lt":0,"dept":"39"}},{"type":"Feature","geometry":{"type":"Point","coordinates":[5.5058,47.082]},"properties":{"nom":"Bizard","ag":["Réseau urbain Grandole Mobilités"],"lt":0,"dept":"39"}},{"type":"Feature","geometry":{"type":"Point","coordinates":[5.5026,47.085]},"properties":{"nom":"Charles Blind","ag":["Réseau urbain Grandole Mobilités"],"lt":0,"dept":"39"}},{"type":"Feature","geometry":{"type":"Point","coordinates":[5.5027,47.085]},"properties":{"nom":"Charles Blind","ag":["Réseau urbain Grandole Mobilités"],"lt":0,"dept":"39"}},{"type":"Feature","geometry":{"type":"Point","coordinates":[5.4955,47.0986]},"properties":{"nom":"Bougauld","ag":["Réseau urbain Grandole Mobilités"],"lt":0,"dept":"39"}},{"type":"Feature","geometry":{"type":"Point","coordinates":[5.4955,47.0987]},"properties":{"nom":"Bougauld","ag":["Réseau urbain Grandole Mobilités"],"lt":0,"dept":"39"}},{"type":"Feature","geometry":{"type":"Point","coordinates":[5.4954,47.1071]},"properties":{"nom":"Bugnardes","ag":["Réseau urbain Grandole Mobilités"],"lt":0,"dept":"39"}},{"type":"Feature","geometry":{"type":"Point","coordinates":[5.4953,47.1072]},"properties":{"nom":"Bugnardes","ag":["Réseau urbain Grandole Mobilités"],"lt":0,"dept":"39"}},{"type":"Feature","geometry":{"type":"Point","coordinates":[5.5024,47.107]},"properties":{"nom":"Cinorodons","ag":["Réseau urbain Grandole Mobilités"],"lt":0,"dept":"39"}},{"type":"Feature","geometry":{"type":"Point","coordinates":[5.5022,47.107]},"properties":{"nom":"Cinorodons","ag":["Réseau urbain Grandole Mobilités"],"lt":0,"dept":"39"}},{"type":"Feature","geometry":{"type":"Point","coordinates":[5.4785,47.1031]},"properties":{"nom":"Combe Truchenne 1","ag":["Réseau urbain Grandole Mobilités"],"lt":0,"dept":"39"}},{"type":"Feature","geometry":{"type":"Point","coordinates":[5.5055,47.0951]},"properties":{"nom":"Les Commards","ag":["Réseau urbain Grandole Mobilités"],"lt":0,"dept":"39"}},{"type":"Feature","geometry":{"type":"Point","coordinates":[5.5056,47.0951]},"properties":{"nom":"Les Commards","ag":["Réseau urbain Grandole Mobilités"],"lt":0,"dept":"39"}},{"type":"Feature","geometry":{"type":"Point","coordinates":[5.5047,47.0834]},"properties":{"nom":"Place du Coulon","ag":["Réseau urbain Grandole Mobilités"],"lt":0,"dept":"39"}},{"type":"Feature","geometry":{"type":"Point","coordinates":[5.5048,47.0835]},"properties":{"nom":"Place du Coulon","ag":["Réseau urbain Grandole Mobilités"],"lt":0,"dept":"39"}},{"type":"Feature","geometry":{"type":"Point","coordinates":[5.48169,47.09795]},"properties":{"nom":"Crechot","ag":["Réseau urbain Grandole Mobilités"],"lt":0,"dept":"39"}},{"type":"Feature","geometry":{"type":"Point","coordinates":[5.4815,47.0981]},"properties":{"nom":"Crechot","ag":["Réseau urbain Grandole Mobilités"],"lt":0,"dept":"39"}},{"type":"Feature","geometry":{"type":"Point","coordinates":[5.41219,47.07696]},"properties":{"nom":"Damparis Rue Roger Bride","ag":["Réseau urbain Grandole Mobilités"],"lt":0,"dept":"39"}},{"type":"Feature","geometry":{"type":"Point","coordinates":[5.41859,47.07682]},"properties":{"nom":"Damparis Vignes","ag":["Réseau urbain Grandole Mobilités"],"lt":0,"dept":"39"}},{"type":"Feature","geometry":{"type":"Point","coordinates":[5.4992,47.1059]},"properties":{"nom":"Defois","ag":["Réseau urbain Grandole Mobilités"],"lt":0,"dept":"39"}},{"type":"Feature","geometry":{"type":"Point","coordinates":[5.4991,47.1057]},"properties":{"nom":"Defois","ag":["Réseau urbain Grandole Mobilités"],"lt":0,"dept":"39"}},{"type":"Feature","geometry":{"type":"Point","coordinates":[5.4687,47.0806]},"properties":{"nom":"Descartes","ag":["Réseau urbain Grandole Mobilités"],"lt":0,"dept":"39"}},{"type":"Feature","geometry":{"type":"Point","coordinates":[5.4686,47.0806]},"properties":{"nom":"Descartes","ag":["Réseau urbain Grandole Mobilités"],"lt":0,"dept":"39"}},{"type":"Feature","geometry":{"type":"Point","coordinates":[5.4697,47.07761]},"properties":{"nom":"Foch","ag":["Réseau urbain Grandole Mobilités"],"lt":0,"dept":"39"}},{"type":"Feature","geometry":{"type":"Point","coordinates":[5.4872,47.097]},"properties":{"nom":"Grandes Carrières SNCF","ag":["Réseau urbain Grandole Mobilités"],"lt":0,"dept":"39"}},{"type":"Feature","geometry":{"type":"Point","coordinates":[5.487,47.097]},"properties":{"nom":"Grandes Carrières SNCF","ag":["Réseau urbain Grandole Mobilités"],"lt":0,"dept":"39"}},{"type":"Feature","geometry":{"type":"Point","coordinates":[5.522,47.0427]},"properties":{"nom":"Goux Place de la Cornée","ag":["Réseau urbain Grandole Mobilités"],"lt":0,"dept":"39"}},{"type":"Feature","geometry":{"type":"Point","coordinates":[5.5221,47.0427]},"properties":{"nom":"Goux Place de la Cornée","ag":["Réseau urbain Grandole Mobilités"],"lt":0,"dept":"39"}},{"type":"Feature","geometry":{"type":"Point","coordinates":[5.5175,47.0396]},"properties":{"nom":"Goux Ecole","ag":["Réseau urbain Grandole Mobilités"],"lt":0,"dept":"39"}},{"type":"Feature","geometry":{"type":"Point","coordinates":[5.5175,47.0397]},"properties":{"nom":"Goux Ecole","ag":["Réseau urbain Grandole Mobilités"],"lt":0,"dept":"39"}},{"type":"Feature","geometry":{"type":"Point","coordinates":[5.5127,47.0401]},"properties":{"nom":"Goux Lotissement","ag":["Réseau urbain Grandole Mobilités"],"lt":0,"dept":"39"}},{"type":"Feature","geometry":{"type":"Point","coordinates":[5.5126,47.04]},"properties":{"nom":"Goux Lotissement","ag":["Réseau urbain Grandole Mobilités"],"lt":0,"dept":"39"}},{"type":"Feature","geometry":{"type":"Point","coordinates":[5.4803,47.1014]},"properties":{"nom":"Guignard","ag":["Réseau urbain Grandole Mobilités"],"lt":0,"dept":"39"}},{"type":"Feature","geometry":{"type":"Point","coordinates":[5.4793,47.0918]},"properties":{"nom":"Hézard","ag":["Réseau urbain Grandole Mobilités"],"lt":0,"dept":"39"}},{"type":"Feature","geometry":{"type":"Point","coordinates":[5.4792,47.0919]},"properties":{"nom":"Hézard","ag":["Réseau urbain Grandole Mobilités"],"lt":0,"dept":"39"}},{"type":"Feature","geometry":{"type":"Point","coordinates":[5.47163,47.08361]},"properties":{"nom":"Hopital Pasteur","ag":["Réseau urbain Grandole Mobilités"],"lt":0,"dept":"39"}},{"type":"Feature","geometry":{"type":"Point","coordinates":[5.4767,47.1092]},"properties":{"nom":"Landon Eglise","ag":["Réseau urbain Grandole Mobilités"],"lt":0,"dept":"39"}},{"type":"Feature","geometry":{"type":"Point","coordinates":[5.47675,47.10908]},"properties":{"nom":"Landon Eglise","ag":["Réseau urbain Grandole Mobilités"],"lt":0,"dept":"39"}},{"type":"Feature","geometry":{"type":"Point","coordinates":[5.4982,47.1006]},"properties":{"nom":"De Lattre de Tassigny","ag":["Réseau urbain Grandole Mobilités"],"lt":0,"dept":"39"}},{"type":"Feature","geometry":{"type":"Point","coordinates":[5.4981,47.1006]},"properties":{"nom":"De Lattre de Tassigny","ag":["Réseau urbain Grandole Mobilités"],"lt":0,"dept":"39"}},{"type":"Feature","geometry":{"type":"Point","coordinates":[5.5018,47.0715]},"properties":{"nom":"Collège Ledoux","ag":["Réseau urbain Grandole Mobilités"],"lt":0,"dept":"39"}},{"type":"Feature","geometry":{"type":"Point","coordinates":[5.51439,47.14673]},"properties":{"nom":"Archelange Eglise","ag":["Réseau urbain Grandole Mobilités"],"lt":0,"dept":"39"}},{"type":"Feature","geometry":{"type":"Point","coordinates":[5.4789,47.1085]},"properties":{"nom":"Longeottes","ag":["Réseau urbain Grandole Mobilités"],"lt":0,"dept":"39"}},{"type":"Feature","geometry":{"type":"Point","coordinates":[5.4789,47.1084]},"properties":{"nom":"Longeottes","ag":["Réseau urbain Grandole Mobilités"],"lt":0,"dept":"39"}},{"type":"Feature","geometry":{"type":"Point","coordinates":[5.4822,47.0926]},"properties":{"nom":"Machard","ag":["Réseau urbain Grandole Mobilités"],"lt":0,"dept":"39"}},{"type":"Feature","geometry":{"type":"Point","coordinates":[5.4821,47.0927]},"properties":{"nom":"Machard","ag":["Réseau urbain Grandole Mobilités"],"lt":0,"dept":"39"}},{"type":"Feature","geometry":{"type":"Point","coordinates":[5.4755,47.0912]},"properties":{"nom":"Marcuse","ag":["Réseau urbain Grandole Mobilités"],"lt":0,"dept":"39"}},{"type":"Feature","geometry":{"type":"Point","coordinates":[5.4756,47.0913]},"properties":{"nom":"Marcuse","ag":["Réseau urbain Grandole Mobilités"],"lt":0,"dept":"39"}},{"type":"Feature","geometry":{"type":"Point","coordinates":[5.4746,47.0931]},"properties":{"nom":"Rue Jean Mermoz","ag":["Réseau urbain Grandole Mobilités"],"lt":0,"dept":"39"}},{"type":"Feature","geometry":{"type":"Point","coordinates":[5.4747,47.0931]},"properties":{"nom":"Rue Jean Mermoz","ag":["Réseau urbain Grandole Mobilités"],"lt":0,"dept":"39"}},{"type":"Feature","geometry":{"type":"Point","coordinates":[5.4923,47.0719]},"properties":{"nom":"Montciel","ag":["Réseau urbain Grandole Mobilités"],"lt":0,"dept":"39"}},{"type":"Feature","geometry":{"type":"Point","coordinates":[5.4922,47.0718]},"properties":{"nom":"Montciel","ag":["Réseau urbain Grandole Mobilités"],"lt":0,"dept":"39"}},{"type":"Feature","geometry":{"type":"Point","coordinates":[5.4666,47.1107]},