{"type":"FeatureCollection","features":[{"type":"Feature","geometry":{"type":"Point","coordinates":[-2.07664,47.64647]},"properties":{"nom":"Jean Burel","ag":["Réseau urbain RED"],"lt":0,"dept":"44"}},{"type":"Feature","geometry":{"type":"Point","coordinates":[-2.07133,47.64383]},"properties":{"nom":"Coude du Canal","ag":["Réseau urbain RED"],"lt":0,"dept":"44"}},{"type":"Feature","geometry":{"type":"Point","coordinates":[-2.05227,47.63227]},"properties":{"nom":"PA des Bauches","ag":["Réseau urbain RED"],"lt":0,"dept":"44"}},{"type":"Feature","geometry":{"type":"Point","coordinates":[-2.06042,47.63798]},"properties":{"nom":"Rue de Nantes","ag":["Réseau urbain RED"],"lt":0,"dept":"44"}},{"type":"Feature","geometry":{"type":"Point","coordinates":[-2.06443,47.64079]},"properties":{"nom":"Moulin Casse","ag":["Réseau urbain RED"],"lt":0,"dept":"44"}},{"type":"Feature","geometry":{"type":"Point","coordinates":[-2.06076,47.64181]},"properties":{"nom":"Herbinerie","ag":["Réseau urbain RED"],"lt":0,"dept":"44"}},{"type":"Feature","geometry":{"type":"Point","coordinates":[-2.06518,47.64426]},"properties":{"nom":"Garenne","ag":["Réseau urbain RED"],"lt":0,"dept":"44"}},{"type":"Feature","geometry":{"type":"Point","coordinates":[-2.06922,47.64204]},"properties":{"nom":"Mairie","ag":["Réseau urbain RED"],"lt":0,"dept":"44"}},{"type":"Feature","geometry":{"type":"Point","coordinates":[-2.07119,47.64377]},"properties":{"nom":"Coude du Canal","ag":["Réseau urbain RED"],"lt":0,"dept":"44"}},{"type":"Feature","geometry":{"type":"Point","coordinates":[-2.06059,47.63801]},"properties":{"nom":"Rue de Nantes","ag":["Réseau urbain RED"],"lt":0,"dept":"44"}},{"type":"Feature","geometry":{"type":"Point","coordinates":[-2.0645,47.64087]},"properties":{"nom":"Moulin Casse","ag":["Réseau urbain RED"],"lt":0,"dept":"44"}},{"type":"Feature","geometry":{"type":"Point","coordinates":[-2.06068,47.64191]},"properties":{"nom":"Herbinerie","ag":["Réseau urbain RED"],"lt":0,"dept":"44"}},{"type":"Feature","geometry":{"type":"Point","coordinates":[-2.06524,47.64422]},"properties":{"nom":"Garenne","ag":["Réseau urbain RED"],"lt":0,"dept":"44"}},{"type":"Feature","geometry":{"type":"Point","coordinates":[-1.317,47.65534]},"properties":{"nom":"2 RUE DU GUE - ERBRAY","ag":["TAD zonal réseau Aléop - Pays de la Loire"],"lt":0,"dept":"44"}},{"type":"Feature","geometry":{"type":"Point","coordinates":[-1.66152,47.66839]},"properties":{"nom":"AIRE COVOITURAGE SUPER U GENDARMERIE - DERVAL","ag":["TAD zonal réseau Aléop - Pays de la Loire"],"lt":0,"dept":"44"}},{"type":"Feature","geometry":{"type":"Point","coordinates":[-1.45235,47.62329]},"properties":{"nom":"AIRE DE COVOITURAGE - ISSE","ag":["TAD zonal réseau Aléop - Pays de la Loire"],"lt":0,"dept":"44"}},{"type":"Feature","geometry":{"type":"Point","coordinates":[-1.40155,47.55888]},"properties":{"nom":"AIRE DE COVOITURAGE - LA MEILLERAYE-DE-BRETAGNE","ag":["TAD zonal réseau Aléop - Pays de la Loire"],"lt":0,"dept":"44"}},{"type":"Feature","geometry":{"type":"Point","coordinates":[-1.37402,47.62008]},"properties":{"nom":"AIRE DE COVOITURAGE - MOISDON-LA-RIVIERE","ag":["TAD zonal réseau Aléop - Pays de la Loire"],"lt":0,"dept":"44"}},{"type":"Feature","geometry":{"type":"Point","coordinates":[-1.33051,47.08569]},"properties":{"nom":"ALLEE DES GARENNES - SAINT-LUMINE-DE-CLISSON","ag":["TAD zonal réseau Aléop - Pays de la Loire"],"lt":0,"dept":"44"}},{"type":"Feature","geometry":{"type":"Point","coordinates":[-1.17986,47.37205]},"properties":{"nom":"ANCENIS-ST GEREON_ACTION","ag":["TAD zonal réseau Aléop - Pays de la Loire"],"lt":0,"dept":"44"}},{"type":"Feature","geometry":{"type":"Point","coordinates":[-1.17682,47.36936]},"properties":{"nom":"ANCENIS-ST GEREON_GARE SNCF","ag":["TAD zonal réseau Aléop - Pays de la Loire"],"lt":0,"dept":"44"}},{"type":"Feature","geometry":{"type":"Point","coordinates":[-1.17395,47.37429]},"properties":{"nom":"ANCENIS-ST GEREON_HOPITAL","ag":["TAD zonal réseau Aléop - Pays de la Loire"],"lt":0,"dept":"44"}},{"type":"Feature","geometry":{"type":"Point","coordinates":[-1.17914,47.37052]},"properties":{"nom":"ANCENIS-ST GEREON_LA POSTE","ag":["TAD zonal réseau Aléop - Pays de la Loire"],"lt":0,"dept":"44"}},{"type":"Feature","geometry":{"type":"Point","coordinates":[-1.1789,47.37114]},"properties":{"nom":"ANCENIS-ST GEREON_LES ARCADES","ag":["TAD zonal réseau Aléop - Pays de la Loire"],"lt":0,"dept":"44"}},{"type":"Feature","geometry":{"type":"Point","coordinates":[-1.17709,47.3709]},"properties":{"nom":"ANCENIS-ST GEREON_LIDL","ag":["TAD zonal réseau Aléop - Pays de la Loire"],"lt":0,"dept":"44"}},{"type":"Feature","geometry":{"type":"Point","coordinates":[-1.18022,47.36334]},"properties":{"nom":"ANCENIS-ST GEREON_PISCINE","ag":["TAD zonal réseau Aléop - Pays de la Loire"],"lt":0,"dept":"44"}},{"type":"Feature","geometry":{"type":"Point","coordinates":[-1.18015,47.37626]},"properties":{"nom":"ANCENIS-ST GEREON_POLE EMPLOI","ag":["TAD zonal réseau Aléop - Pays de la Loire"],"lt":0,"dept":"44"}},{"type":"Feature","geometry":{"type":"Point","coordinates":[-1.1839,47.37225]},"properties":{"nom":"ANCENIS-ST GEREON_SUPER U","ag":["TAD zonal réseau Aléop - Pays de la Loire"],"lt":0,"dept":"44"}},{"type":"Feature","geometry":{"type":"Point","coordinates":[-1.19542,47.37345]},"properties":{"nom":"ANCENIS_C. COMMERCIAL LECLERC","ag":["TAD zonal réseau Aléop - Pays de la Loire"],"lt":0,"dept":"44"}},{"type":"Feature","geometry":{"type":"Point","coordinates":[-1.18678,47.38253]},"properties":{"nom":"ANCENIS_COLLEGE  CADOU","ag":["TAD zonal réseau Aléop - Pays de la Loire"],"lt":0,"dept":"44"}},{"type":"Feature","geometry":{"type":"Point","coordinates":[-1.18739,47.36488]},"properties":{"nom":"ANCENIS_EHPAD LA DAVRAYS","ag":["TAD zonal réseau Aléop - Pays de la Loire"],"lt":0,"dept":"44"}},{"type":"Feature","geometry":{"type":"Point","coordinates":[-1.17308,47.37654]},"properties":{"nom":"ANCENIS_EHPAD LES COROLLES","ag":["TAD zonal réseau Aléop - Pays de la Loire"],"lt":0,"dept":"44"}},{"type":"Feature","geometry":{"type":"Point","coordinates":[-1.17887,47.36943]},"properties":{"nom":"ANCENIS_ESPACE CORAIL","ag":["TAD zonal réseau Aléop - Pays de la Loire"],"lt":0,"dept":"44"}},{"type":"Feature","geometry":{"type":"Point","coordinates":[-1.18548,47.37888]},"properties":{"nom":"ANCENIS_FOYER DACCUEIL","ag":["TAD zonal réseau Aléop - Pays de la Loire"],"lt":0,"dept":"44"}},{"type":"Feature","geometry":{"type":"Point","coordinates":[-1.18225,47.37546]},"properties":{"nom":"ANCENIS_LYCEE JOUBERT","ag":["TAD zonal réseau Aléop - Pays de la Loire"],"lt":0,"dept":"44"}},{"type":"Feature","geometry":{"type":"Point","coordinates":[-1.18666,47.37914]},"properties":{"nom":"ANCENIS_PISCINE J. BLANCHET","ag":["TAD zonal réseau Aléop - Pays de la Loire"],"lt":0,"dept":"44"}},{"type":"Feature","geometry":{"type":"Point","coordinates":[-1.38533,47.73626]},"properties":{"nom":"AQUACHOISEL - CHATEAUBRIANT","ag":["TAD zonal réseau Aléop - Pays de la Loire"],"lt":0,"dept":"44"}},{"type":"Feature","geometry":{"type":"Point","coordinates":[-1.9163,47.12168]},"properties":{"nom":"ARTHUS PRINCE - CHAUMES-EN-RETZ (CHEMERE)","ag":["TAD zonal réseau Aléop - Pays de la Loire"],"lt":0,"dept":"44"}},{"type":"Feature","geometry":{"type":"Point","coordinates":[-2.03806,47.51565]},"properties":{"nom":"ASSO. M. GUILLAUME - PONTCHATEAU-SAINT-GILDAS DES BOIS","ag":["TAD zonal réseau Aléop - Pays de la Loire"],"lt":0,"dept":"44"}},{"type":"Feature","geometry":{"type":"Point","coordinates":[-1.56967,47.62504]},"properties":{"nom":"AUBETTE GRAND VILLE - JANS","ag":["TAD zonal réseau Aléop - Pays de la Loire"],"lt":0,"dept":"44"}},{"type":"Feature","geometry":{"type":"Point","coordinates":[-1.59494,47.50431]},"properties":{"nom":"AUGRAIN - SAFFRE","ag":["TAD zonal réseau Aléop - Pays de la Loire"],"lt":0,"dept":"44"}},{"type":"Feature","geometry":{"type":"Point","coordinates":[-1.57936,47.50082]},"properties":{"nom":"AV DU CHATEAU COVOIT - SAFFRE","ag":["TAD zonal réseau Aléop - Pays de la Loire"],"lt":0,"dept":"44"}},{"type":"Feature","geometry":{"type":"Point","coordinates":[-2.15474,47.25045]},"properties":{"nom":"AVENUE DU PONT RENAUD - SAINT-BREVIN-LES-PINS","ag":["TAD zonal réseau Aléop - Pays de la Loire"],"lt":0,"dept":"44"}},{"type":"Feature","geometry":{"type":"Point","coordinates":[-1.6625,47.54777]},"properties":{"nom":"BAIN - VAY","ag":["TAD zonal réseau Aléop - Pays de la Loire"],"lt":0,"dept":"44"}},{"type":"Feature","geometry":{"type":"Point","coordinates":[-1.5845,46.89179]},"properties":{"nom":"BASSE PARNIERE - LEGE","ag":["TAD zonal réseau Aléop - Pays de la Loire"],"lt":0,"dept":"44"}},{"type":"Feature","geometry":{"type":"Point","coordinates":[-1.59643,47.43457]},"properties":{"nom":"BEAU SOLEIL - HERIC","ag":["TAD zonal réseau Aléop - Pays de la Loire"],"lt":0,"dept":"44"}},{"type":"Feature","geometry":{"type":"Point","coordinates":[-1.49742,47.34358]},"properties":{"nom":"BEAU SOLEIL - SUCE-SUR-ERDRE","ag":["TAD zonal réseau Aléop - Pays de la Loire"],"lt":0,"dept":"44"}},{"type":"Feature","geometry":{"type":"Point","coordinates":[-1.34252,47.68452]},"properties":{"nom":"BEAUCHENE - ERBRAY","ag":["TAD zonal réseau Aléop - Pays de la Loire"],"lt":0,"dept":"44"}},{"type":"Feature","geometry":{"type":"Point","coordinates":[-1.62028,47.60056]},"properties":{"nom":"BEAUJOUET - NOZAY","ag":["TAD zonal réseau Aléop - Pays de la Loire"],"lt":0,"dept":"44"}},{"type":"Feature","geometry":{"type":"Point","coordinates":[-1.87855,47.38941]},"properties":{"nom":"BEL AIR - BOUVRON","ag":["TAD zonal réseau Aléop - Pays de la Loire"],"lt":0,"dept":"44"}},{"type":"Feature","geometry":{"type":"Point","coordinates":[-1.7235,46.94955]},"properties":{"nom":"BEL AIR - SAINT-ETIENNE-DE-MER-MORTE","ag":["TAD zonal réseau Aléop - Pays de la Loire"],"lt":0,"dept":"44"}},{"type":"Feature","geometry":{"type":"Point","coordinates":[-1.69897,47.05154]},"properties":{"nom":"BEL AIR - SAINT-LUMINE-DE-COUTAIS","ag":["TAD zonal réseau Aléop - Pays de la Loire"],"lt":0,"dept":"44"}},{"type":"Feature","geometry":{"type":"Point","coordinates":[-1.6192,47.33785]},"properties":{"nom":"BELLE ETOILE - GRANDCHAMP-DES-FONTAINES","ag":["TAD zonal réseau Aléop - Pays de la Loire"],"lt":0,"dept":"44"}},{"type":"Feature","geometry":{"type":"Point","coordinates":[-1.61772,47.33085]},"properties":{"nom":"BELLE ETOILE - TREILLIERES","ag":["TAD zonal réseau Aléop - Pays de la Loire"],"lt":0,"dept":"44"}},{"type":"Feature","geometry":{"type":"Point","coordinates":[-1.64393,47.62562]},"properties":{"nom":"BELLEVUE - JANS (A)","ag":["TAD zonal réseau Aléop - Pays de la Loire"],"lt":0,"dept":"44"}},{"type":"Feature","geometry":{"type":"Point","coordinates":[-1.64299,47.62652]},"properties":{"nom":"BELLEVUE - JANS (B)","ag":["TAD zonal réseau Aléop - Pays de la Loire"],"lt":0,"dept":"44"}},{"type":"Feature","geometry":{"type":"Point","coordinates":[-1.51727,47.61678]},"properties":{"nom":"BELLEVUE - TREFFIEUX","ag":["TAD zonal réseau Aléop - Pays de la Loire"],"lt":0,"dept":"44"}},{"type":"Feature","geometry":{"type":"Point","coordinates":[-1.51281,47.33659]},"properties":{"nom":"BETULAS - SUCE-SUR-ERDRE","ag":["TAD zonal réseau Aléop - Pays de la Loire"],"lt":0,"dept":"44"}},{"type":"Feature","geometry":{"type":"Point","coordinates":[-1.43658,47.24581]},"properties":{"nom":"BOIRE COURANT - SAINT-JULIEN-DE-CONCELLES","ag":["TAD zonal réseau Aléop - Pays de la Loire"],"lt":0,"dept":"44"}},{"type":"Feature","geometry":{"type":"Point","coordinates":[-1.78656,47.10305]},"properties":{"nom":"BOIS D'ARDENNES - SAINTE-PAZANNE","ag":["TAD zonal réseau Aléop - Pays de la Loire"],"lt":0,"dept":"44"}},{"type":"Feature","geometry":{"type":"Point","coordinates":[-1.4724,47.7314]},"properties":{"nom":"BOIS LOUEL - SAINT-AUBIN-DES-CHATEAUX","ag":["TAD zonal réseau Aléop - Pays de la Loire"],"lt":0,"dept":"44"}},{"type":"Feature","geometry":{"type":"Point","coordinates":[-2.22079,47.13431]},"properties":{"nom":"BOIS ROUX - PREFAILLES","ag":["TAD zonal réseau Aléop - Pays de la Loire"],"lt":0,"dept":"44"}},{"type":"Feature","geometry":{"type":"Point","coordinates":[-1.65933,47.51364]},"properties":{"nom":"BOISDIN - LA GRIGONNAIS","ag":["TAD zonal réseau Aléop - Pays de la Loire"],"lt":0,"dept":"44"}},{"type":"Feature","geometry":{"type":"Point","coordinates":[-1.46864,47.81422]},"properties":{"nom":"BONNE FONTAINE - SOULVACHE","ag":["TAD zonal réseau Aléop - Pays de la Loire"],"lt":0,"dept":"44"}},{"type":"Feature","geometry":{"type":"Point","coordinates":[-1.47908,47.70095]},"properties":{"nom":"BOURRUAIS - SAINT-AUBIN-DES-CHATEAUX","ag":["TAD zonal réseau Aléop - Pays de la Loire"],"lt":0,"dept":"44"}},{"type":"Feature","geometry":{"type":"Point","coordinates":[-1.63803,47.45083]},"properties":{"nom":"BOUT DE BOIS - HERIC","ag":["TAD zonal réseau Aléop - Pays de la Loire"],"lt":0,"dept":"44"}},{"type":"Feature","geometry":{"type":"Point","coordinates":[-1.41124,47.17647]},"properties":{"nom":"BRILLAUDIERE - LA HAIE-FOUASSIERE","ag":["TAD zonal réseau Aléop - Pays de la Loire"],"lt":0,"dept":"44"}},{"type":"Feature","geometry":{"type":"Point","coordinates":[-1.36937,47.70221]},"properties":{"nom":"BRIOTAIS - CHATEAUBRIANT","ag":["TAD zonal réseau Aléop - Pays de la Loire"],"lt":0,"dept":"44"}},{"type":"Feature","geometry":{"type":"Point","coordinates":[-1.6385,47.22206]},"properties":{"nom":"BUS FRANCOIS MITTERAND-SAINT-HERBLAIN","ag":["TAD zonal réseau Aléop - Pays de la Loire"],"lt":0,"dept":"44"}},{"type":"Feature","geometry":{"type":"Point","coordinates":[-1.38826,47.70628]},"properties":{"nom":"C. CIAL RUE EISENHOWER - CHATEAUBRIANT","ag":["TAD zonal réseau Aléop - Pays de la Loire"],"lt":0,"dept":"44"}},{"type":"Feature","geometry":{"type":"Point","coordinates":[-1.53825,47.51891]},"properties":{"nom":"CAHAREL - SAFFRE","ag":["TAD zonal réseau Aléop - Pays de la Loire"],"lt":0,"dept":"44"}},{"type":"Feature","geometry":{"type":"Point","coordinates":[-1.417,47.24169]},"properties":{"nom":"CAHERAULT - SAINT-JULIEN-DE-CONCELLES","ag":["TAD zonal réseau Aléop - Pays de la Loire"],"lt":0,"dept":"44"}},{"type":"Feature","geometry":{"type":"Point","coordinates":[-1.33172,47.68494]},"properties":{"nom":"CALVAIRE LA TOUCHE - ERBRAY","ag":["TAD zonal réseau Aléop - Pays de la Loire"],"lt":0,"dept":"44"}},{"type":"Feature","geometry":{"type":"Point","coordinates":[-1.70336,47.61554]},"properties":{"nom":"CARF LE BREIL - DERVAL","ag":["TAD zonal réseau Aléop - Pays de la Loire"],"lt":0,"dept":"44"}},{"type":"Feature","geometry":{"type":"Point","coordinates":[-1.6786,47.66854]},"properties":{"nom":"CARF RUES VERLAINE HUGO - DERVAL","ag":["TAD zonal réseau Aléop - Pays de la Loire"],"lt":0,"dept":"44"}},{"type":"Feature","geometry":{"type":"Point","coordinates":[-1.90653,47.21917]},"properties":{"nom":"CATHELLERAIS - FROSSAY","ag":["TAD zonal réseau Aléop - Pays de la Loire"],"lt":0,"dept":"44"}},{"type":"Feature","geometry":{"type":"Point","coordinates":[-2.19099,47.13837]},"properties":{"nom":"CENTRE - LA PLAINE-SUR-MER","ag":["TAD zonal réseau Aléop - Pays de la Loire"],"lt":0,"dept":"44"}},{"type":"Feature","geometry":{"type":"Point","coordinates":[-1.40646,47.36702]},"properties":{"nom":"CENTRE - SAINT-MARS-DU-DESERT","ag":["TAD zonal réseau Aléop - Pays de la Loire"],"lt":0,"dept":"44"}},{"type":"Feature","geometry":{"type":"Point","coordinates":[-1.30522,47.73819]},"properties":{"nom":"CENTRE - SOUDAN (44SOUDcentA)","ag":["TAD zonal réseau Aléop - Pays de la Loire"],"lt":0,"dept":"44"}},{"type":"Feature","geometry":{"type":"Point","coordinates":[-1.30547,47.73808]},"properties":{"nom":"CENTRE - SOUDAN (44SOUDcentA)_2","ag":["TAD zonal réseau Aléop - Pays de la Loire"],"lt":0,"dept":"44"}},{"type":"Feature","geometry":{"type":"Point","coordinates":[-1.30718,47.73778]},"properties":{"nom":"CENTRE - SOUDAN (44SOUDcentA)_3","ag":["TAD zonal réseau Aléop - Pays de la Loire"],"lt":0,"dept":"44"}},{"type":"Feature","geometry":{"type":"Point","coordinates":[-1.30535,47.73819]},"properties":{"nom":"CENTRE - SOUDAN (44SOUDcentR)","ag":["TAD zonal réseau Aléop - Pays de la Loire"],"lt":0,"dept":"44"}},{"type":"Feature","geometry":{"type":"Point","coordinates":[-1.30526,47.7382]},"properties":{"nom":"CENTRE - SOUDAN (44SOUDcentR)_2","ag":["TAD zonal réseau Aléop - Pays de la Loire"],"lt":0,"dept":"44"}},{"type":"Feature","geometry":{"type":"Point","coordinates":[-1.74729,47.47358]},"properties":{"nom":"CENTRE COMMERCIAL - BLAIN","ag":["TAD zonal réseau Aléop - Pays de la Loire"],"lt":0,"dept":"44"}},{"type":"Feature","geometry":{"type":"Point","coordinates":[-1.48002,47.43982]},"properties":{"nom":"CENTRE COMMERCIAL LA PANCARTE - NORT-SUR-ERDRE","ag":["TAD zonal réseau Aléop - Pays de la Loire"],"lt":0,"dept":"44"}},{"type":"Feature","geometry":{"type":"Point","coordinates":[-2.22315,47.27448]},"properties":{"nom":"CENTRE EXAMEN DE SANTE - ST NAZAIRE","ag":["TAD zonal réseau Aléop - Pays de la Loire"],"lt":0,"dept":"44"}},{"type":"Feature","geometry":{"type":"Point","coordinates":[-1.59727,46.88592]},"properties":{"nom":"CHAMP DE FOIRE - LEGE","ag":["TAD zonal réseau Aléop - Pays de la Loire"],"lt":0,"dept":"44"}},{"type":"Feature","geometry":{"type":"Point","coordinates":[-1.62554,47.56688]},"properties":{"nom":"CHAMP DE FOIRE - NOZAY","ag":["TAD zonal réseau Aléop - Pays de la Loire"],"lt":0,"dept":"44"}},{"type":"Feature","geometry":{"type":"Point","coordinates":[-1.55876,47.14798]},"properties":{"nom":"CHAMPSIOME - PONT-SAINT-MARTIN","ag":["TAD zonal réseau Aléop - Pays de la Loire"],"lt":0,"dept":"44"}},{"type":"Feature","geometry":{"type":"Point","coordinates":[-1.51287,47.69959]},"properties":{"nom":"CHAPELLE - SAINT-AUBIN-DES-CHATEAUX","ag":["TAD zonal réseau Aléop - Pays de la Loire"],"lt":0,"dept":"44"}},{"type":"Feature","geometry":{"type":"Point","coordinates":[-1.93603,47.24471]},"properties":{"nom":"CHARLES DE GAULLE - FROSSAY","ag":["TAD zonal réseau Aléop - Pays de la Loire"],"lt":0,"dept":"44"}},{"type":"Feature","geometry":{"type":"Point","coordinates":[-1.72529,47.1058]},"properties":{"nom":"CHATEAU BRIDAN - SAINT-MARS-DE-COUTAIS","ag":["TAD zonal réseau Aléop - Pays de la Loire"],"lt":0,"dept":"44"}},{"type":"Feature","geometry":{"type":"Point","coordinates":[-1.48865,47.55548]},"properties":{"nom":"CHATEAU ROUGE - ABBARETZ","ag":["TAD zonal réseau Aléop - Pays de la Loire"],"lt":0,"dept":"44"}},{"type":"Feature","geometry":{"type":"Point","coordinates":[-1.38192,47.72526]},"properties":{"nom":"CHATEAUBRIANT_HOPITAL","ag":["TAD zonal réseau Aléop - Pays de la Loire"],"lt":0,"dept":"44"}},{"type":"Feature","geometry":{"type":"Point","coordinates":[-1.38157,47.71899]},"properties":{"nom":"CHATEAUBRIANT_OPHTALMO","ag":["TAD zonal réseau Aléop - Pays de la Loire"],"lt":0,"dept":"44"}},{"type":"Feature","geometry":{"type":"Point","coordinates":[-1.37641,47.71334]},"properties":{"nom":"CHATEAUBRIANT_RADIOLOGIE","ag":["TAD zonal réseau Aléop - Pays de la Loire"],"lt":0,"dept":"44"}},{"type":"Feature","geometry":{"type":"Point","coordinates":[-1.3512,47.27918]},"properties":{"nom":"CHENE VERT - DIVATTE-SUR-LOIRE (LA CHAPELLE-BASSE-MER)","ag":["TAD zonal réseau Aléop - Pays de la Loire"],"lt":0,"dept":"44"}},{"type":"Feature","geometry":{"type":"Point","coordinates":[-1.57485,47.3612]},"properties":{"nom":"CHESNAIE MINIER - GRANDCHAMP-DES-FONTAINES","ag":["TAD zonal réseau Aléop - Pays de la Loire"],"lt":0,"dept":"44"}},{"type":"Feature","geometry":{"type":"Point","coordinates":[-1.45583,47.06427]},"properties":{"nom":"CHEZ GARREAU - MONTBERT","ag":["TAD zonal réseau Aléop - Pays de la Loire"],"lt":0,"dept":"44"}},{"type":"Feature","geometry":{"type":"Point","coordinates":[-1.54235,47.06026]},"properties":{"nom":"CHEZ PICARD - GENESTON","ag":["TAD zonal réseau Aléop - Pays de la Loire"],"lt":0,"dept":"44"}},{"type":"Feature","geometry":{"type":"Point","coordinates":[-1.40445,47.56069]},"properties":{"nom":"CIMETIERE - LA MEILLERAYE-DE-BRETAGNE","ag":["TAD zonal réseau Aléop - Pays de la Loire"],"lt":0,"dept":"44"}},{"type":"Feature","geometry":{"type":"Point","coordinates":[-1.83235,46.99806]},"properties":{"nom":"CIMETIERE - MACHECOUL-SAINT-MEME (MACHECOUL)","ag":["TAD zonal réseau Aléop - Pays de la Loire"],"lt":0,"dept":"44"}},{"type":"Feature","geometry":{"type":"Point","coordinates":[-1.72186,47.55611]},"properties":{"nom":"CLEGREUC - VAY","ag":["TAD zonal réseau Aléop - Pays de la Loire"],"lt":0,"dept":"44"}},{"type":"Feature","geometry":{"type":"Point","coordinates":[-1.51938,47.24852]},"properties":{"nom":"CLINIQUE JULES VERNE - NANTES","ag":["TAD zonal réseau Aléop - Pays de la Loire"],"lt":0,"dept":"44"}},{"type":"Feature","geometry":{"type":"Point","coordinates":[-2.09436,47.1217]},"properties":{"nom":"COMPLEXE SPORTIF - PORNIC","ag":["TAD zonal réseau Aléop - Pays de la Loire"],"lt":0,"dept":"44"}},{"type":"Feature","geometry":{"type":"Point","coordinates":[-1.8796,47.29194]},"properties":{"nom":"CORDEMAIS_CABINET MEDICAL","ag":["TAD zonal réseau Aléop - Pays de la Loire"],"lt":0,"dept":"44"}},{"type":"Feature","geometry":{"type":"Point","coordinates":[-1.71353,47.21453]},"properties":{"nom":"COUERON_CABINET MEDICAL","ag":["TAD zonal réseau Aléop - Pays de la Loire"],"lt":0,"dept":"44"}},{"type":"Feature","geometry":{"type":"Point","coordinates":[-1.36097,47.24488]},"properties":{"nom":"COUR DU CHENE - LE LOROUX-BOTTEREAU","ag":["TAD zonal réseau Aléop - Pays de la Loire"],"lt":0,"dept":"44"}},{"type":"Feature","geometry":{"type":"Point","coordinates":[-1.42288,47.12607]},"properties":{"nom":"CROIX VERTE - CHATEAU-THEBAUD","ag":["TAD zonal réseau Aléop - Pays de la Loire"],"lt":0,"dept":"44"}},{"type":"Feature","geometry":{"type":"Point","coordinates":[-1.68998,47.65143]},"properties":{"nom":"CROQUEMAIS - DERVAL","ag":["TAD zonal réseau Aléop - Pays de la Loire"],"lt":0,"dept":"44"}},{"type":"Feature","geometry":{"type":"Point","coordinates":[-1.26546,47.16326]},"properties":{"nom":"DEJOIE - VALLET","ag":["TAD zonal réseau Aléop - Pays de la Loire"],"lt":0,"dept":"44"}},{"type":"Feature","geometry":{"type":"Point","coordinates":[-1.59496,47.00206]},"properties":{"nom":"DEMI-BŒUF - LA LIMOUZINIERE","ag":["TAD zonal réseau Aléop - Pays de la Loire"],"lt":0,"dept":"44"}},{"type":"Feature","geometry":{"type":"Point","coordinates":[-1.24782,47.48752]},"properties":{"nom":"DEPOT ANCENIS 2","ag":["TAD zonal réseau Aléop - Pays de la Loire"],"lt":0,"dept":"44"}},{"type":"Feature","geometry":{"type":"Point","coordinates":[-2.05805,47.47462]},"properties":{"nom":"DEPOT PONTCHATEAU 2","ag":["TAD zonal réseau Aléop - Pays de la Loire"],"lt":0,"dept":"44"}},{"type":"Feature","geometry":{"type":"Point","coordinates":[-2.05009,47.48251]},"properties":{"nom":"DREFFEAC_GARE","ag":["TAD zonal réseau Aléop - Pays de la Loire"],"lt":0,"dept":"44"}},{"type":"Feature","geometry":{"type":"Point","coordinates":[-2.04312,47.51882]},"properties":{"nom":"E.LECLERC EXPRESS-SAINT GILDAS DES BOIS","ag":["TAD zonal réseau Aléop - Pays de la Loire"],"lt":0,"dept":"44"}},{"type":"Feature","geometry":{"type":"Point","coordinates":[-1.58893,47.68099]},"properties":{"nom":"EC PUBL LUSANGER - LUSANGER","ag":["TAD zonal réseau Aléop - Pays de la Loire"],"lt":0,"dept":"44"}},{"type":"Feature","geometry":{"type":"Point","coordinates":[-1.54,47.11052]},"properties":{"nom":"ECHANGEUR DE VIAIS - PONT-SAINT-MARTIN","ag":["TAD zonal réseau Aléop - Pays de la Loire"],"lt":0,"dept":"44"}},{"type":"Feature","geometry":{"type":"Point","coordinates":[-1.17722,47.18064]},"properties":{"nom":"ECOLE - LA REGRIPPIERE","ag":["TAD zonal réseau Aléop - Pays de la Loire"],"lt":0,"dept":"44"}},{"type":"Feature","geometry":{"type":"Point","coordinates":[-1.48529,47.71995]},"properties":{"nom":"ECOLE PRIVEE - SAINT-AUBIN-DES-CHATEAUX","ag":["TAD zonal réseau Aléop - Pays de la Loire"],"lt":0,"dept":"44"}},{"type":"Feature","geometry":{"type":"Point","coordinates":[-1.75167,47.13165]},"properties":{"nom":"ECOMARCHE - PORT-SAINT-PERE","ag":["TAD zonal réseau Aléop - Pays de la Loire"],"lt":0,"dept":"44"}},{"type":"Feature","geometry":{"type":"Point","coordinates":[-1.41295,47.08131]},"properties":{"nom":"EDS - AIGREFEUILLE-SUR-MAINE","ag":["TAD zonal réseau Aléop - Pays de la Loire"],"lt":0,"dept":"44"}},{"type":"Feature","geometry":{"type":"Point","coordinates":[-1.98525,47.15087]},"properties":{"nom":"EGLISE - CHAUVE","ag":["TAD zonal réseau Aléop - Pays de la Loire"],"lt":0,"dept":"44"}},{"type":"Feature","geometry":{"type":"Point","coordinates":[-1.42985,47.19928]},"properties":{"nom":"EGLISE - HAUTE-GOULAINE","ag":["TAD zonal réseau Aléop - Pays de la Loire"],"lt":0,"dept":"44"}},{"type":"Feature","geometry":{"type":"Point","coordinates":[-1.34008,47.17645]},"properties":{"nom":"EGLISE - LA CHAPELLE-HEULIN","ag":["TAD zonal réseau Aléop - Pays de la Loire"],"lt":0,"dept":"44"}},{"type":"Feature","geometry":{"type":"Point","coordinates":[-1.67197,47.46684]},"properties":{"nom":"EGLISE - LA CHEVALLERAIS","ag":["TAD zonal réseau Aléop - Pays de la Loire"],"lt":0,"dept":"44"}},{"type":"Feature","geometry":{"type":"Point","coordinates":[-1.61218,47.09429]},"properties":{"nom":"EGLISE - LA CHEVROLIERE","ag":["TAD zonal réseau Aléop - Pays de la Loire"],"lt":0,"dept":"44"}},{"type":"Feature","geometry":{"type":"Point","coordinates":[-1.24337,47.23783]},"properties":{"nom":"EGLISE - LA REMAUDIERE","ag":["TAD zonal réseau Aléop - Pays de la Loire"],"lt":0,"dept":"44"}},{"type":"Feature","geometry":{"type":"Point","coordinates":[-1.48892,47.09816]},"properties":{"nom":"EGLISE - LE BIGNON","ag":["TAD zonal réseau Aléop - Pays de la Loire"],"lt":0,"dept":"44"}},{"type":"Feature","geometry":{"type":"Point","coordinates":[-1.34949,47.23835]},"properties":{"nom":"EGLISE - LE LOROUX-BOTTEREAU","ag":["TAD zonal réseau Aléop - Pays de la Loire"],"lt":0,"dept":"44"}},{"type":"Feature","geometry":{"type":"Point","coordinates":[-1.6447,47.69615]},"properties":{"nom":"EGLISE - MOUAIS","ag":["TAD zonal réseau Aléop - Pays de la Loire"],"lt":0,"dept":"44"}},{"type":"Feature","geometry":{"type":"Point","coordinates":[-1.58415,47.12315]},"properties":{"nom":"EGLISE - PONT-SAINT-MARTIN","ag":["TAD zonal réseau Aléop - Pays de la Loire"],"lt":0,"dept":"44"}},{"type":"Feature","geometry":{"type":"Point","coordinates":[-1.74729,47.13457]},"properties":{"nom":"EGLISE - PORT-SAINT-PERE","ag":["TAD zonal réseau Aléop - Pays de la Loire"],"lt":0,"dept":"44"}},{"type":"Feature","geometry":{"type":"Point","coordinates":[-1.58299,47.00948]},"properties":{"nom":"EGLISE - SAINT-COLOMBAN","ag":["TAD zonal réseau Aléop - Pays de la Loire"],"lt":0,"dept":"44"}},{"type":"Feature","geometry":{"type":"Point","coordinates":[-1.74262,46.92884]},"properties":{"nom":"EGLISE - SAINT-ETIENNE-DE-MER-MORTE","ag":["TAD zonal réseau Aléop - Pays de la Loire"],"lt":0,"dept":"44"}},{"type":"Feature","geometry":{"type":"Point","coordinates":[-1.38485,47.25371]},"properties":{"nom":"EGLISE - SAINT-JULIEN-DE-CONCELLES","ag":["TAD zonal réseau Aléop - Pays de la Loire"],"lt":0,"dept":"44"}},{"type":"Feature","geometry":{"type":"Point","coordinates":[-1.72653,47.05538]},"properties":{"nom":"EGLISE - SAINT-LUMINE-DE-COUTAIS","ag":["TAD zonal réseau Aléop - Pays de la Loire"],"lt":0,"dept":"44"}},{"type":"Feature","geometry":{"type":"Point","coordinates":[-1.64085,47.03635]},"properties":{"nom":"EGLISE - SAINT-PHILBERT-DE-GRAND-LIEU","ag":["TAD zonal réseau Aléop - Pays de la Loire"],"lt":0,"dept":"44"}},{"type":"Feature","geometry":{"type":"Point","coordinates":[-1.59186,47.73472]},"properties":{"nom":"EGLISE - SION-LES-MINES","ag":["TAD zonal réseau Aléop - Pays de la Loire"],"lt":0,"dept":"44"}},{"type":"Feature","geometry":{"type":"Point","coordinates":[-1.68526,46.90067]},"properties":{"nom":"EGLISE - TOUVOIS","ag":["TAD zonal réseau Aléop - Pays de la Loire"],"lt":0,"dept":"44"}},{"type":"Feature","geometry":{"type":"Point","coordinates":[-1.73793,47.32668]},"properties":{"nom":"EGLISE - VIGNEUX-DE-BRETAGNE","ag":["TAD zonal réseau Aléop - Pays de la Loire"],"lt":0,"dept":"44"}},{"type":"Feature","geometry":{"type":"Point","coordinates":[-1.28738,47.27709]},"properties":{"nom":"EGLISE BARBECHAT - DIVATTE-SUR-LOIRE (BARBECHAT)","ag":["TAD zonal réseau Aléop - Pays de la Loire"],"lt":0,"dept":"44"}},{"type":"Feature","geometry":{"type":"Point","coordinates":[-1.87778,47.02522]},"properties":{"nom":"EGLISE FRESNAY-EN-RETZ - VILLENEUVE-EN-RETZ (FRESNAY-EN-RETZ)","ag":["TAD zonal réseau Aléop - Pays de la Loire"],"lt":0,"dept":"44"}},{"type":"Feature","geometry":{"type":"Point","coordinates":[-1.71124,47.43337]},"properties":{"nom":"EGLISE SAINT EMILIEN - BLAIN","ag":["TAD zonal réseau Aléop - Pays de la Loire"],"lt":0,"dept":"44"}},{"type":"Feature","geometry":{"type":"Point","coordinates":[-1.85745,47.47403]},"properties":{"nom":"EGLISE SAINT OMER - BLAIN","ag":["TAD zonal réseau Aléop - Pays de la Loire"],"lt":0,"dept":"44"}},{"type":"Feature","geometry":{"type":"Point","coordinates":[-1.40083,47.15477]},"properties":{"nom":"EGLISE- LA HAIE-FOUASSIERE","ag":["TAD zonal réseau Aléop - Pays de la Loire"],"lt":0,"dept":"44"}},{"type":"Feature","geometry":{"type":"Point","coordinates":[-1.43267,47.22173]},"properties":{"nom":"EMBREIL - SAINT-JULIEN-DE-CONCELLES","ag":["TAD zonal réseau Aléop - Pays de la Loire"],"lt":0,"dept":"44"}},{"type":"Feature","geometry":{"type":"Point","coordinates":[-1.44481,47.20046]},"properties":{"nom":"EPINETTES - HAUTE-GOULAINE","ag":["TAD zonal réseau Aléop - Pays de la Loire"],"lt":0,"dept":"44"}},{"type":"Feature","geometry":{"type":"Point","coordinates":[-1.67169,47.67398]},"properties":{"nom":"ESPACE AQUATIQUE-SALLE DES FETES - DERVAL","ag":["TAD zonal réseau Aléop - Pays de la Loire"],"lt":0,"dept":"44"}},{"type":"Feature","geometry":{"type":"Point","coordinates":[-1.58082,47.10482]},"properties":{"nom":"FABLOU - LA CHEVROLIERE","ag":["TAD zonal réseau Aléop - Pays de la Loire"],"lt":0,"dept":"44"}},{"type":"Feature","geometry":{"type":"Point","coordinates":[-1.96256,47.20411]},"properties":{"nom":"FERRIERES - FROSSAY","ag":["TAD zonal réseau Aléop - Pays de la Loire"],"lt":0,"dept":"44"}},{"type":"Feature","geometry":{"type":"Point","coordinates":[-2.15779,47.24405]},"properties":{"nom":"FONTAINE - SAINT-BREVIN-LES-PINS","ag":["TAD zonal réseau Aléop - Pays de la Loire"],"lt":0,"dept":"44"}},{"type":"Feature","geometry":{"type":"Point","coordinates":[-1.308,47.71405]},"properties":{"nom":"FONTENAY / LE MARGAT - SOUDAN","ag":["TAD zonal réseau Aléop - Pays de la Loire"],"lt":0,"dept":"44"}},{"type":"Feature","geometry":{"type":"Point","coordinates":[-2.14016,47.44101]},"properties":{"nom":"FOYER DE LA MADELEINE LE CALVAIRE-PONTCHATEAU","ag":["TAD zonal réseau Aléop - Pays de la Loire"],"lt":0,"dept":"44"}},{"type":"Feature","geometry":{"type":"Point","coordinates":[-1.28386,47.097]},"properties":{"nom":"FRANCE TRAVAIL - CLISSON","ag":["TAD zonal réseau Aléop - Pays de la Loire"],"lt":0,"dept":"44"}},{"type":"Feature","geometry":{"type":"Point","coordinates":[-2.15606,47.3267]},"properties":{"nom":"FRANÇOIS MITTERRAND - MONTOIR DE BRETAGNE","ag":["TAD zonal réseau Aléop - Pays de la Loire"],"lt":0,"dept":"44"}},{"type":"Feature","geometry":{"type":"Point","coordinates":[-1.70516,46.89096]},"properties":{"nom":"FRELIGNE - TOUVOIS","ag":["TAD zonal réseau Aléop - Pays de la Loire"],"lt":0,"dept":"44"}},{"type":"Feature","geometry":{"type":"Point","coordinates":[-1.63361,47.31363]},"properties":{"nom":"GARAMBEAU - TREILLIERES","ag":["TAD zonal réseau Aléop - Pays de la Loire"],"lt":0,"dept":"44"}},{"type":"Feature","geometry":{"type":"Point","coordinates":[-1.44598,47.68318]},"properties":{"nom":"GARE - SAINT-AUBIN-DES-CHATEAUX","ag":["TAD zonal réseau Aléop - Pays de la Loire"],"lt":0,"dept":"44"}},{"type":"Feature","geometry":{"type":"Point","coordinates":[-1.37192,47.71732]},"properties":{"nom":"GARE ROUTIERE - CHATEAUBRIANT (44CHATroutA)","ag":["TAD zonal réseau Aléop - Pays de la Loire"],"lt":0,"dept":"44"}},{"type":"Feature","geometry":{"type":"Point","coordinates":[-1.3718,47.71745]},"properties":{"nom":"GARE ROUTIERE - CHATEAUBRIANT (44CHATroutA)_2","ag":["TAD zonal réseau Aléop - Pays de la Loire"],"lt":0,"dept":"44"}},{"type":"Feature","geometry":{"type":"Point","coordinates":[-1.37205,47.71732]},"properties":{"nom":"GARE ROUTIERE - CHATEAUBRIANT (44CHATroutR)","ag":["TAD zonal réseau Aléop - Pays de la Loire"],"lt":0,"dept":"44"}},{"type":"Feature","geometry":{"type":"Point","coordinates":[-1.37184,47.71736]},"properties":{"nom":"GARE ROUTIERE - CHATEAUBRIANT (44CHATroutR)_2","ag":["TAD zonal réseau Aléop - Pays de la Loire"],"lt":0,"dept":"44"}},{"type":"Feature","geometry":{"type":"Point","coordinates":[-1.52492,47.55453]},"properties":{"nom":"GARE SNCF - ABBARETZ","ag":["TAD zonal réseau Aléop - Pays de la Loire"],"lt":0,"dept":"44"}},{"type":"Feature","geometry":{"type":"Point","coordinates":[-1.17773,47.36939]},"properties":{"nom":"GARE SNCF - ANCENIS-SAINT-GEREON (ANCENIS)","ag":["TAD zonal réseau Aléop - Pays de la Loire"],"lt":0,"dept":"44"}},{"type":"Feature","geometry":{"type":"Point","coordinates":[-1.18293,47.05011]},"properties":{"nom":"GARE SNCF - BOUSSAY","ag":["TAD zonal réseau Aléop - Pays de la Loire"],"lt":0,"dept":"44"}},{"type":"Feature","geometry":{"type":"Point","coordinates":[-1.3718,47.71733]},"properties":{"nom":"GARE SNCF - CHATEAUBRIANT","ag":["TAD zonal réseau Aléop - Pays de la Loire"],"lt":0,"dept":"44"}},{"type":"Feature","geometry":{"type":"Point","coordinates":[-1.28631,47.08613]},"properties":{"nom":"GARE SNCF - CLISSON (A)","ag":["TAD zonal réseau Aléop - Pays de la Loire"],"lt":0,"dept":"44"}},{"type":"Feature","geometry":{"type":"Point","coordinates":[-1.28603,47.08611]},"properties":{"nom":"GARE SNCF - CLISSON (B)","ag":["TAD zonal réseau Aléop - Pays de la Loire"],"lt":0,"dept":"44"}},{"type":"Feature","geometry":{"type":"Point","coordinates":[-1.45012,47.6266]},"properties":{"nom":"GARE SNCF - ISSE","ag":["TAD zonal réseau Aléop - Pays de la Loire"],"lt":0,"dept":"44"}},{"type":"Feature","geometry":{"type":"Point","coordinates":[-1.39262,47.16197]},"properties":{"nom":"GARE SNCF - LA HAIE-FOUASSIERE","ag":["TAD zonal réseau Aléop - Pays de la Loire"],"lt":0,"dept":"44"}},{"type":"Feature","geometry":{"type":"Point","coordinates":[-1.34708,47.1435]},"properties":{"nom":"GARE SNCF - LE PALLET","ag":["TAD zonal réseau Aléop - Pays de la Loire"],"lt":0,"dept":"44"}},{"type":"Feature","geometry":{"type":"Point","coordinates":[-1.01981,47.37466]},"properties":{"nom":"GARE SNCF - LOIREAUXENCE (VARADES)","ag":["TAD zonal réseau Aléop - Pays de la Loire"],"lt":0,"dept":"44"}},{"type":"Feature","geometry":{"type":"Point","coordinates":[-1.82257,46.99077]},"properties":{"nom":"GARE SNCF - MACHECOUL-SAINT-MEME (MACHECOUL)","ag":["TAD zonal réseau Aléop - Pays de la Loire"],"lt":0,"dept":"44"}},{"type":"Feature","geometry":{"type":"Point","coordinates":[-1.38983,47.29319]},"properties":{"nom":"GARE SNCF - MAUVES-SUR-LOIRE","ag":["TAD zonal réseau Aléop - Pays de la Loire"],"lt":0,"dept":"44"}},{"type":"Feature","geometry":{"type":"Point","coordinates":[-1.50286,47.44154]},"properties":{"nom":"GARE SNCF - NORT-SUR-ERDRE","ag":["TAD zonal réseau Aléop - Pays de la Loire"],"lt":0,"dept":"44"}},{"type":"Feature","geometry":{"type":"Point","coordinates":[-1.29198,47.34348]},"properties":{"nom":"GARE SNCF - OUDON","ag":["TAD zonal réseau Aléop - Pays de la Loire"],"lt":0,"dept":"44"}},{"type":"Feature","geometry":{"type":"Point","coordinates":[-2.09803,47.11436]},"properties":{"nom":"GARE SNCF - PORNIC","ag":["TAD zonal réseau Aléop - Pays de la Loire"],"lt":0,"dept":"44"}},{"type":"Feature","geometry":{"type":"Point","coordinates":[-1.73935,47.11594]},"properties":{"nom":"GARE SNCF - PORT-SAINT-PERE","ag":["TAD zonal réseau Aléop - Pays de la Loire"],"lt":0,"dept":"44"}},{"type":"Feature","geometry":{"type":"Point","coordinates":[-1.49847,47.66396]},"properties":{"nom":"GARE SNCF - SAINT-VINCENT-DES-LANDES","ag":["TAD zonal réseau Aléop - Pays de la Loire"],"lt":0,"dept":"44"}},{"type":"Feature","geometry":{"type":"Point","coordinates":[-1.81344,47.10559]},"properties":{"nom":"GARE SNCF - SAINTE-PAZANNE","ag":["TAD zonal réseau Aléop - Pays de la Loire"],"lt":0,"dept":"44"}},{"type":"Feature","geometry":{"type":"Point","coordinates":[-1.95091,47.35876]},"properties":{"nom":"GARE SNCF - SAVENAY","ag":["TAD zonal réseau Aléop - Pays de la Loire"],"lt":0,"dept":"44"}},{"type":"Feature","geometry":{"type":"Point","coordinates":[-1.43981,47.2654]},"properties":{"nom":"GARE SNCF - THOUARE-SUR-LOIRE","ag":["TAD zonal réseau Aléop - Pays de la Loire"],"lt":0,"dept":"44"}},{"type":"Feature","geometry":{"type":"Point","coordinates":[-1.95573,47.04645]},"properties":{"nom":"GARE SNCF BOURGNEUF-EN-RETZ - VILLENEUVE-EN-RETZ (BOURGNEUF-EN-RETZ)","ag":["TAD zonal réseau Aléop - Pays de la Loire"],"lt":0,"dept":"44"}},{"type":"Feature","geometry":{"type":"Point","coordinates":[-1.53006,47.34265]},"properties":{"nom":"GARE TRAM-TRAIN - SUCE-SUR-ERDRE","ag":["TAD zonal réseau Aléop - Pays de la Loire"],"lt":0,"dept":"44"}},{"type":"Feature","geometry":{"type":"Point","coordinates":[-1.71093,47.30123]},"properties":{"nom":"GAUDINIERE - VIGNEUX-DE-BRETAGNE","ag":["TAD zonal réseau Aléop - Pays de la Loire"],"lt":0,"dept":"44"}},{"type":"Feature","geometry":{"type":"Point","coordinates":[-1.62761,47.56179]},"properties":{"nom":"GENDARMERIE - NOZAY","ag":["TAD zonal réseau Aléop - Pays de la Loire"],"lt":0,"dept":"44"}},{"type":"Feature","geometry":{"type":"Point","coordinates":[-1.27246,47.15769]},"properties":{"nom":"GENDARMERIE - VALLET","ag":["TAD zonal réseau Aléop - Pays de la Loire"],"lt":0,"dept":"44"}},{"type":"Feature","geometry":{"type":"Point","coordinates":[-1.54675,47.76564]},"properties":{"nom":"GERAUDAIS - RUFFIGNE","ag":["TAD zonal réseau Aléop - Pays de la Loire"],"lt":0,"dept":"44"}},{"type":"Feature","geometry":{"type":"Point","coordinates":[-1.82262,47.00328]},"properties":{"nom":"GRAND ETANG - MACHECOUL-SAINT-MEME (MACHECOUL)","ag":["TAD zonal réseau Aléop - Pays de la Loire"],"lt":0,"dept":"44"}},{"type":"Feature","geometry":{"type":"Point","coordinates":[-1.92943,47.25713]},"properties":{"nom":"GRAND PATUREAU - FROSSAY","ag":["TAD zonal réseau Aléop - Pays de la Loire"],"lt":0,"dept":"44"}},{"type":"Feature","geometry":{"type":"Point","coordinates":[-1.57317,47.4664]},"properties":{"nom":"GRAND'LANDE - SAFFRE","ag":["TAD zonal réseau Aléop - Pays de la Loire"],"lt":0,"dept":"44"}},{"type":"Feature","geometry":{"type":"Point","coordinates":[-1.73147,47.09746]},"properties":{"nom":"GRAND-LIEU - SAINT-MARS-DE-COUTAIS","ag":["TAD zonal réseau Aléop - Pays de la Loire"],"lt":0,"dept":"44"}},{"type":"Feature","geometry":{"type":"Point","coordinates":[-1.76883,47.46783]},"properties":{"nom":"GRAVIERS - BLAIN","ag":["TAD zonal réseau Aléop - Pays de la Loire"],"lt":0,"dept":"44"}},{"type":"Feature","geometry":{"type":"Point","coordinates":[-1.64377,47.32647]},"properties":{"nom":"GREHANDIERE - TREILLIERES","ag":["TAD zonal réseau Aléop - Pays de la Loire"],"lt":0,"dept":"44"}},{"type":"Feature","geometry":{"type":"Point","coordinates":[-1.95432,47.25603]},"properties":{"nom":"GRUANDERIE - FROSSAY","ag":["TAD zonal réseau Aléop - Pays de la Loire"],"lt":0,"dept":"44"}},{"type":"Feature","geometry":{"type":"Point","coordinates":[-1.48328,47.43675]},"properties":{"nom":"GUENARDIERE ROND-POINT - NORT-SUR-ERDRE","ag":["TAD zonal réseau Aléop - Pays de la Loire"],"lt":0,"dept":"44"}},{"type":"Feature","geometry":{"type":"Point","coordinates":[-1.52388,47.09021]},"properties":{"nom":"GUENEGAUD - LE BIGNON","ag":["TAD zonal réseau Aléop - Pays de la Loire"],"lt":0,"dept":"44"}},{"type":"Feature","geometry":{"type":"Point","coordinates":[-1.95463,47.52012]},"properties":{"nom":"GUENROUET_EHPAD LE CHENE","ag":["TAD zonal réseau Aléop - Pays de la Loire"],"lt":0,"dept":"44"}},{"type":"Feature","geometry":{"type":"Point","coordinates":[-1.95489,47.51711]},"properties":{"nom":"GUENROUET_FOYER DU ROUET","ag":["TAD zonal réseau Aléop - Pays de la Loire"],"lt":0,"dept":"44"}},{"type":"Feature","geometry":{"type":"Point","coordinates":[-1.669,47.38485]},"properties":{"nom":"GUILBAUDIERE - HERIC","ag":["TAD zonal réseau Aléop - Pays de la Loire"],"lt":0,"dept":"44"}},{"type":"Feature","geometry":{"type":"Point","coordinates":[-1.63532,47.05041]},"properties":{"nom":"GUINEVRE - SAINT-PHILBERT-DE-GRAND-LIEU","ag":["TAD zonal réseau Aléop - Pays de la Loire"],"lt":0,"dept":"44"}},{"type":"Feature","geometry":{"type":"Point","coordinates":[-1.45554,47.39988]},"properties":{"nom":"GUY DE MAUPASSANT - PETIT-MARS","ag":["TAD zonal réseau Aléop - Pays de la Loire"],"lt":0,"dept":"44"}},{"type":"Feature","geometry":{"type":"Point","coordinates":[-1.68343,47.46365]},"properties":{"nom":"HAMONNAIS - HERIC","ag":["TAD zonal réseau Aléop - Pays de la Loire"],"lt":0,"dept":"44"}},{"type":"Feature","geometry":{"type":"Point","coordinates":[-2.03858,47.14574]},"properties":{"nom":"HAUTE BRENIERE - CHAUVE","ag":["TAD zonal réseau Aléop - Pays de la Loire"],"lt":0,"dept":"44"}},{"type":"Feature","geometry":{"type":"Point","coordinates":[-1.96993,47.13135]},"properties":{"nom":"HAUTE PERCHE - CHAUMES-EN-RETZ (ARTHON-EN-RETZ)","ag":["TAD zonal réseau Aléop - Pays de la Loire"],"lt":0,"dept":"44"}},{"type":"Feature","geometry":{"type":"Point","coordinates":[-2.22138,47.1431]},"properties":{"nom":"HAUTE RUE - LA PLAINE-SUR-MER","ag":["TAD zonal réseau Aléop - Pays de la Loire"],"lt":0,"dept":"44"}},{"type":"Feature","geometry":{"type":"Point","coordinates":[-1.37103,47.72344]},"properties":{"nom":"HLM VITRE - CHATEAUBRIANT","ag":["TAD zonal réseau Aléop - Pays de la Loire"],"lt":0,"dept":"44"}},{"type":"Feature","geometry":{"type":"Point","coordinates":[-1.17948,47.37429]},"properties":{"nom":"HOPITAL - ANCENIS-SAINT-GEREON (ANCENIS)","ag":["TAD zonal réseau Aléop - Pays de la Loire"],"lt":0,"dept":"44"}},{"type":"Feature","geometry":{"type":"Point","coordinates":[-1.383,47.7258]},"properties":{"nom":"HOPITAL - CHATEAUBRIANT","ag":["TAD zonal réseau Aléop - Pays de la Loire"],"lt":0,"dept":"44"}},{"type":"Feature","geometry":{"type":"Point","coordinates":[-1.29119,47.09253]},"properties":{"nom":"HOPITAL - CLISSON","ag":["TAD zonal réseau Aléop - Pays de la Loire"],"lt":0,"dept":"44"}},{"type":"Feature","geometry":{"type":"Point","coordinates":[-1.82043,46.99528]},"properties":{"nom":"HOPITAL - MACHECOUL-SAINT-MEME (MACHECOUL)","ag":["TAD zonal réseau Aléop - Pays de la Loire"],"lt":0,"dept":"44"}},{"type":"Feature","geometry":{"type":"Point","coordinates":[-2.06646,47.11259]},"properties":{"nom":"HOPITAL - PORNIC","ag":["TAD zonal réseau Aléop - Pays de la Loire"],"lt":0,"dept":"44"}},{"type":"Feature","geometry":{"type":"Point","coordinates":[-2.25679,47.2671]},"properties":{"nom":"HOPITAL - SAINT-NAZAIRE","ag":["TAD zonal réseau Aléop - Pays de la Loire"],"lt":0,"dept":"44"}},{"type":"Feature","geometry":{"type":"Point","coordinates":[-1.54805,47.19554]},"properties":{"nom":"HOPITAL CONFLUENT P3 - NANTES","ag":["TAD zonal réseau Aléop - Pays de la Loire"],"lt":0,"dept":"44"}},{"type":"Feature","geometry":{"type":"Point","coordinates":[-1.54868,47.19503]},"properties":{"nom":"HOPITAL CONFLUENT P6 - REZE","ag":["TAD zonal réseau Aléop - Pays de la Loire"],"lt":0,"dept":"44"}},{"type":"Feature","geometry":{"type":"Point","coordinates":[-1.64013,47.23785]},"properties":{"nom":"HOPITAL LAENNEC - SAINT-HERBLAIN","ag":["TAD zonal réseau Aléop - Pays de la Loire"],"lt":0,"dept":"44"}},{"type":"Feature","geometry":{"type":"Point","coordinates":[-1.81421,47.44389]},"properties":{"nom":"HOTEL DE FRANCE RD 81 - BLAIN","ag":["TAD zonal réseau Aléop - Pays de la Loire"],"lt":0,"dept":"44"}},{"type":"Feature","geometry":{"type":"Point","coordinates":[-1.57644,46.96688]},"properties":{"nom":"HUIT MAI - CORCOUE-SUR-LOGNE","ag":["TAD zonal réseau Aléop - Pays de la Loire"],"lt":0,"dept":"44"}},{"type":"Feature","geometry":{"type":"Point","coordinates":[-2.1537,47.26838]},"properties":{"nom":"IME - SAINT-BREVIN-LES-PINS","ag":["TAD zonal réseau Aléop - Pays de la Loire"],"lt":0,"dept":"44"}},{"type":"Feature","geometry":{"type":"Point","coordinates":[-2.15741,47.23022]},"properties":{"nom":"IMPASSE DES OLIVIERS - SAINT-BREVIN-LES-PINS","ag":["TAD zonal réseau Aléop - Pays de la Loire"],"lt":0,"dept":"44"}},{"type":"Feature","geometry":{"type":"Point","coordinates":[-1.41556,47.49563]},"properties":{"nom":"JOUE-SUR-ERDRE_EHPAD BOCAGE","ag":["TAD zonal réseau Aléop - Pays de la Loire"],"lt":0,"dept":"44"}},{"type":"Feature","geometry":{"type":"Point","coordinates":[-2.01776,47.28308]},"properties":{"nom":"KUHLMANN FLORALIES - PAIMBŒUF","ag":["TAD zonal réseau Aléop - Pays de la Loire"],"lt":0,"dept":"44"}},{"type":"Feature","geometry":{"type":"Point","coordinates":[-1.6823,47.56773]},"properties":{"nom":"L'AUBAUDIERE - VAY","ag":["TAD zonal réseau Aléop - Pays de la Loire"],"lt":0,"dept":"44"}},{"type":"Feature","geometry":{"type":"Point","coordinates":[-1.63125,47.07919]},"properties":{"nom":"L'AUBRAIS - LA CHEVROLIERE","ag":["TAD zonal réseau Aléop - Pays de la Loire"],"lt":0,"dept":"44"}},{"type":"Feature","geometry":{"type":"Point","coordinates":[-1.1902,47.16979]},"properties":{"nom":"L'AUJARDIERE - LA REGRIPPIERE","ag":["TAD zonal réseau Aléop - Pays de la Loire"],"lt":0,"dept":"44"}},{"type":"Feature","geometry":{"type":"Point","coordinates":[-2.00257,47.18087]},"properties":{"nom":"L'AUVIERE - CHAUVE","ag":["TAD zonal réseau Aléop - Pays de la Loire"],"lt":0,"dept":"44"}},{"type":"Feature","geometry":{"type":"Point","coordinates":[-1.3449,47.29007]},"properties":{"nom":"L'EPINE - DIVATTE-SUR-LOIRE (LA CHAPELLE-BASSE-MER)","ag":["TAD zonal réseau Aléop - Pays de la Loire"],"lt":0,"dept":"44"}},{"type":"Feature","geometry":{"type":"Point","coordinates":[-1.70399,47.36952]},"properties":{"nom":"L'EPINE - NOTRE-DAME-DES-LANDES","ag":["TAD zonal réseau Aléop - Pays de la Loire"],"lt":0,"dept":"44"}},{"type":"Feature","geometry":{"type":"Point","coordinates":[-1.72719,46.96834]},"properties":{"nom":"L'ERRIERE - SAINT-ETIENNE-DE-MER-MORTE","ag":["TAD zonal réseau Aléop - Pays de la Loire"],"lt":0,"dept":"44"}},{"type":"Feature","geometry":{"type":"Point","coordinates":[-1.76327,47.06322]},"properties":{"nom":"L'ESPERANCE - SAINT-MARS-DE-COUTAIS","ag":["TAD zonal réseau Aléop - Pays de la Loire"],"lt":0,"dept":"44"}},{"type":"Feature","geometry":{"type":"Point","coordinates":[-1.50187,47.11449]},"properties":{"nom":"L'ESSART MOREAU - LE BIGNON","ag":["TAD zonal réseau Aléop - Pays de la Loire"],"lt":0,"dept":"44"}},{"type":"Feature","geometry":{"type":"Point","coordinates":[-1.72376,47.50255]},"properties":{"nom":"L'ETRICHE - LA GRIGONNAIS","ag":["TAD zonal réseau Aléop - Pays de la Loire"],"lt":0,"dept":"44"}},{"type":"Feature","geometry":{"type":"Point","coordinates":[-1.49651,47.07058]},"properties":{"nom":"L'HOMMEAU - MONTBERT","ag":["TAD zonal réseau Aléop - Pays de la Loire"],"lt":0,"dept":"44"}},{"type":"Feature","geometry":{"type":"Point","coordinates":[-1.81828,47.16252]},"properties":{"nom":"L'HOMMEAU - ROUANS","ag":["TAD zonal réseau Aléop - Pays de la Loire"],"lt":0,"dept":"44"}},{"type":"Feature","geometry":{"type":"Point","coordinates":[-1.48239,47.42494]},"properties":{"nom":"L'ISLE - NORT-SUR-ERDRE","ag":["TAD zonal réseau Aléop - Pays de la Loire"],"lt":0,"dept":"44"}},{"type":"Feature","geometry":{"type":"Point","coordinates":[-1.66828,47.52672]},"properties":{"nom":"L'OCEAN - LA GRIGONNAIS","ag":["TAD zonal réseau Aléop - Pays de la Loire"],"lt":0,"dept":"44"}},{"type":"Feature","geometry":{"type":"Point","coordinates":[-1.64217,47.51794]},"properties":{"nom":"L'OSERAYE - PUCEUL","ag":["TAD zonal réseau Aléop - Pays de la Loire"],"lt":0,"dept":"44"}},{"type":"Feature","geometry":{"type":"Point","coordinates":[-1.57886,47.62795]},"properties":{"nom":"LA  ROULAIS - JANS","ag":["TAD zonal réseau Aléop - Pays de la Loire"],"lt":0,"dept":"44"}},{"type":"Feature","geometry":{"type":"Point","coordinates":[-1.72429,47.29307]},"properties":{"nom":"LA BABINIERE - VIGNEUX-DE-BRETAGNE","ag":["TAD zonal réseau Aléop - Pays de la Loire"],"lt":0,"dept":"44"}},{"type":"Feature","geometry":{"type":"Point","coordinates":[-2.07391,47.17266]},"properties":{"nom":"LA BACONNIERE - PORNIC","ag":["TAD zonal réseau Aléop - Pays de la Loire"],"lt":0,"dept":"44"}},{"type":"Feature","geometry":{"type":"Point","coordinates":[-2.00999,47.12986]},"properties":{"nom":"LA BACONNIERE 2 - CHAUVE","ag":["TAD zonal réseau Aléop - Pays de la Loire"],"lt":0,"dept":"44"}},{"type":"Feature","geometry":{"type":"Point","coordinates":[-1.3767,47.73832]},"properties":{"nom":"LA BAGUAIS - CHATEAUBRIANT","ag":["TAD zonal réseau Aléop - Pays de la Loire"],"lt":0,"dept":"44"}},{"type":"Feature","geometry":{"type":"Point","coordinates":[-1.65483,46.96125]},"properties":{"nom":"LA BALINIERE - CORCOUE-SUR-LOGNE","ag":["TAD zonal réseau Aléop - Pays de la Loire"],"lt":0,"dept":"44"}},{"type":"Feature","geometry":{"type":"Point","coordinates":[-1.59455,47.02513]},"properties":{"nom":"LA BARBATIERE - SAINT-COLOMBAN","ag":["TAD zonal réseau Aléop - Pays de la Loire"],"lt":0,"dept":"44"}},{"type":"Feature","geometry":{"type":"Point","coordinates":[-2.07493,47.25554]},"properties":{"nom":"LA BARILLAIS - CORSEPT","ag":["TAD zonal réseau Aléop - Pays de la Loire"],"lt":0,"dept":"44"}},{"type":"Feature","geometry":{"type":"Point","coordinates":[-1.25996,47.13078]},"properties":{"nom":"LA BARILLERE - MOUZILLON","ag":["TAD zonal réseau Aléop - Pays de la Loire"],"lt":0,"dept":"44"}},{"type":"Feature","geometry":{"type":"Point","coordinates":[-1.48716,47.64278]},"properties":{"nom":"LA BARRE - SAINT-VINCENT-DES-LANDES","ag":["TAD zonal réseau Aléop - Pays de la Loire"],"lt":0,"dept":"44"}},{"type":"Feature","geometry":{"type":"Point","coordinates":[-1.67363,46.97159]},"properties":{"nom":"LA BASSE EGONIERE - LA LIMOUZINIERE","ag":["TAD zonal réseau Aléop - Pays de la Loire"],"lt":0,"dept":"44"}},{"type":"Feature","geometry":{"type":"Point","coordinates":[-1.55097,47.13965]},"properties":{"nom":"LA BAUCHE TUE LOUP - PONT-SAINT-MARTIN","ag":["TAD zonal réseau Aléop - Pays de la Loire"],"lt":0,"dept":"44"}},{"type":"Feature","geometry":{"type":"Point","coordinates":[-1.57119,47.09946]},"properties":{"nom":"LA BELLERIE - LA CHEVROLIERE","ag":["TAD zonal réseau Aléop - Pays de la Loire"],"lt":0,"dept":"44"}},{"type":"Feature","geometry":{"type":"Point","coordinates":[-1.60451,46.95544]},"properties":{"nom":"LA BENATE - CORCOUE-SUR-LOGNE","ag":["TAD zonal réseau Aléop - Pays de la Loire"],"lt":0,"dept":"44"}},{"type":"Feature","geometry":{"type":"Point","coordinates":[-1.53439,47.11332]},"properties":{"nom":"LA BENETIERE - PONT-SAINT-MARTIN","ag":["TAD zonal réseau Aléop - Pays de la Loire"],"lt":0,"dept":"44"}},{"type":"Feature","geometry":{"type":"Point","coordinates":[-1.83031,47.40445]},"properties":{"nom":"LA BENOISTAIS - BOUVRON","ag":["TAD zonal réseau Aléop - Pays de la Loire"],"lt":0,"dept":"44"}},{"type":"Feature","geometry":{"type":"Point","coordinates":[-1.43338,47.36706]},"properties":{"nom":"LA BERANGERIE - SAINT-MARS-DU-DESERT","ag":["TAD zonal réseau Aléop - Pays de la Loire"],"lt":0,"dept":"44"}},{"type":"Feature","geometry":{"type":"Point","coordinates":[-1.36985,47.17327]},"properties":{"nom":"LA BERNARDIERE - LA CHAPELLE-HEULIN","ag":["TAD zonal réseau Aléop - Pays de la Loire"],"lt":0,"dept":"44"}},{"type":"Feature","geometry":{"type":"Point","coordinates":[-2.20939,47.14677]},"properties":{"nom":"LA BERNARDRIE - LA PLAINE-SUR-MER","ag":["TAD zonal réseau Aléop - Pays de la Loire"],"lt":0,"dept":"44"}},{"type":"Feature","geometry":{"type":"Point","coordinates":[-2.08724,47.12895]},"properties":{"nom":"LA BERTHAUDERIE - PORNIC","ag":["TAD zonal réseau Aléop - Pays de la Loire"],"lt":0,"dept":"44"}},{"type":"Feature","geometry":{"type":"Point","coordinates":[-2.08466,47.24515]},"properties":{"nom":"LA BIONNERIE - CORSEPT","ag":["TAD zonal réseau Aléop - Pays de la Loire"],"lt":0,"dept":"44"}},{"type":"Feature","geometry":{"type":"Point","coordinates":[-2.08752,47.10947]},"properties":{"nom":"LA BIROCHERE - PORNIC","ag":["TAD zonal réseau Aléop - Pays de la Loire"],"lt":0,"dept":"44"}},{"type":"Feature","geometry":{"type":"Point","coordinates":[-1.27209,47.20023]},"properties":{"nom":"LA BODINIERE - LE LANDREAU","ag":["TAD zonal réseau Aléop - Pays de la Loire"],"lt":0,"dept":"44"}},{"type":"Feature","geometry":{"type":"Point","coordinates":[-1.76802,47.1126]},"properties":{"nom":"LA BOITELLERIE - PORT-SAINT-PERE","ag":["TAD zonal réseau Aléop - Pays de la Loire"],"lt":0,"dept":"44"}},{"type":"Feature","geometry":{"type":"Point","coordinates":[-1.95237,47.11951]},"properties":{"nom":"LA BOIZONNIERE - CHAUMES-EN-RETZ (ARTHON-EN-RETZ)","ag":["TAD zonal réseau Aléop - Pays de la Loire"],"lt":0,"dept":"44"}},{"type":"Feature","geometry":{"type":"Point","coordinates":[-1.79283,47.16121]},"properties":{"nom":"LA BONFISERIE - PORT-SAINT-PERE","ag":["TAD zonal réseau Aléop - Pays de la Loire"],"lt":0,"dept":"44"}},{"type":"Feature","geometry":{"type":"Point","coordinates":[-1.41741,47.45333]},"properties":{"nom":"LA BONNOEUVRE - LES TOUCHES","ag":["TAD zonal réseau Aléop - Pays de la Loire"],"lt":0,"dept":"44"}},{"type":"Feature","geometry":{"type":"Point","coordinates":[-1.38004,47.73248]},"properties":{"nom":"LA BORDERIE - CHATEAUBRIANT (A)","ag":["TAD zonal réseau Aléop - Pays de la Loire"],"lt":0,"dept":"44"}},{"type":"Feature","geometry":{"type":"Point","coordinates":[-1.37957,47.73151]},"properties":{"nom":"LA BORDERIE - CHATEAUBRIANT (B)","ag":["TAD zonal réseau Aléop - Pays de la Loire"],"lt":0,"dept":"44"}},{"type":"Feature","geometry":{"type":"Point","coordinates":[-1.64909,47.40052]},"properties":{"nom":"LA BOSSE DES LANDES - HERIC","ag":["TAD zonal réseau Aléop - Pays de la Loire"],"lt":0,"dept":"44"}},{"type":"Feature","geometry":{"type":"Point","coordinates":[-1.51895,47.53256]},"properties":{"nom":"LA BOULAIE - ABBARETZ","ag":["TAD zonal réseau Aléop - Pays de la Loire"],"lt":0,"dept":"44"}},{"type":"Feature","geometry":{"type":"Point","coordinates":[-2.06499,47.12688]},"properties":{"nom":"LA BOURRELIERE - PORNIC","ag":["TAD zonal réseau Aléop - Pays de la Loire"],"lt":0,"dept":"44"}},{"type":"Feature","geometry":{"type":"Point","coordinates":[-1.81416,47.0444]},"properties":{"nom":"LA BOURRIERE - MACHECOUL-SAINT-MEME (SAINT-MEME-LE-TENU)","ag":["TAD zonal réseau Aléop - Pays de la Loire"],"lt":0,"dept":"44"}},{"type":"Feature","geometry":{"type":"Point","coordinates":[-1.56148,47.48573]},"properties":{"nom":"LA BOUZENAIE - SAFFRE","ag":["TAD zonal réseau Aléop - Pays de la Loire"],"lt":0,"dept":"44"}},{"type":"Feature","geometry":{"type":"Point","coordinates":[-1.51214,47.08661]},"properties":{"nom":"LA BREIL - LE BIGNON","ag":["TAD zonal réseau Aléop - Pays de la Loire"],"lt":0,"dept":"44"}},{"type":"Feature","geometry":{"type":"Point","coordinates":[-1.40293,47.12208]},"properties":{"nom":"LA BRETONNIERE - MAISDON-SUR-SEVRE","ag":["TAD zonal réseau Aléop - Pays de la Loire"],"lt":0,"dept":"44"}},{"type":"Feature","geometry":{"type":"Point","coordinates":[-1.53079,47.43792]},"properties":{"nom":"LA BRICAUDIERE - NORT-SUR-ERDRE","ag":["TAD zonal réseau Aléop - Pays de la Loire"],"lt":0,"dept":"44"}},{"type":"Feature","geometry":{"type":"Point","coordinates":[-1.76015,46.93593]},"properties":{"nom":"LA BROSSE - PAULX","ag":["TAD zonal réseau Aléop - Pays de la Loire"],"lt":0,"dept":"44"}},{"type":"Feature","geometry":{"type":"Point","coordinates":[-1.98905,47.22771]},"properties":{"nom":"LA BROSSE - SAINT-VIAUD","ag":["TAD zonal réseau Aléop - Pays de la Loire"],"lt":0,"dept":"44"}},{"type":"Feature","geometry":{"type":"Point","coordinates":[-1.53793,47.04798]},"properties":{"nom":"LA BROSSE GASPAILLE - SAINT-COLOMBAN","ag":["TAD zonal réseau Aléop - Pays de la Loire"],"lt":0,"dept":"44"}},{"type":"Feature","geometry":{"type":"Point","coordinates":[-1.61294,47.05459]},"properties":{"nom":"LA BROSSE GUILLOU - SAINT-PHILBERT-DE-GRAND-LIEU","ag":["TAD zonal réseau Aléop - Pays de la Loire"],"lt":0,"dept":"44"}},{"type":"Feature","geometry":{"type":"Point","coordinates":[-1.73175,47.38258]},"properties":{"nom":"LA BUCHERE - NOTRE-DAME-DES-LANDES","ag":["TAD zonal réseau Aléop - Pays de la Loire"],"lt":0,"dept":"44"}},{"type":"Feature","geometry":{"type":"Point","coordinates":[-1.5766,47.07531]},"properties":{"nom":"LA BUCHETIERE - LA CHEVROLIERE","ag":["TAD zonal réseau Aléop - Pays de la Loire"],"lt":0,"dept":"44"}},{"type":"Feature","geometry":{"type":"Point","coordinates":[-1.43539,47.40186]},"properties":{"nom":"LA BUSSONNIERE - PETIT-MARS","ag":["TAD zonal réseau Aléop - Pays de la Loire"],"lt":0,"dept":"44"}},{"type":"Feature","geometry":{"type":"Point","coordinates":[-1.79891,46.99703]},"properties":{"nom":"LA CANTINIERE - MACHECOUL-SAINT-MEME (MACHECOUL)","ag":["TAD zonal réseau Aléop - Pays de la Loire"],"lt":0,"dept":"44"}},{"type":"Feature","geometry":{"type":"Point","coordinates":[-1.89179,47.07238]},"properties":{"nom":"LA CARROUERE - SAINT-HILAIRE-DE-CHALEONS","ag":["TAD zonal réseau Aléop - Pays de la Loire"],"lt":0,"dept":"44"}},{"type":"Feature","geometry":{"type":"Point","coordinates":[-1.86511,47.17833]},"properties":{"nom":"LA CAVERNIERE - ROUANS","ag":["TAD zonal réseau Aléop - Pays de la Loire"],"lt":0,"dept":"44"}},{"type":"Feature","geometry":{"type":"Point","coordinates":[-2.02926,47.20809]},"properties":{"nom":"LA CENSIVE - SAINT-PERE-EN-RETZ","ag":["TAD zonal réseau Aléop - Pays de la Loire"],"lt":0,"dept":"44"}},{"type":"Feature","geometry":{"type":"Point","coordinates":[-1.35466,47.17292]},"properties":{"nom":"LA CERCLERIE - LA CHAPELLE-HEULIN","ag":["TAD zonal réseau Aléop - Pays de la Loire"],"lt":0,"dept":"44"}},{"type":"Feature","geometry":{"type":"Point","coordinates":[-1.82223,47.02628]},"properties":{"nom":"LA CHAGNERIE - MACHECOUL-SAINT-MEME (SAINT-MEME-LE-TENU)","ag":["TAD zonal réseau Aléop - Pays de la Loire"],"lt":0,"dept":"44"}},{"type":"Feature","geometry":{"type":"Point","coordinates":[-1.22321,47.16031]},"properties":{"nom":"LA CHALOUSIERE - VALLET","ag":["TAD zonal réseau Aléop - Pays de la Loire"],"lt":0,"dept":"44"}},{"type":"Feature","geometry":{"type":"Point","coordinates":[-1.32407,47.26093]},"properties":{"nom":"LA CHAMBRE - DIVATTE-SUR-LOIRE (LA CHAPELLE-BASSE-MER)","ag":["TAD zonal réseau Aléop - Pays de la Loire"],"lt":0,"dept":"44"}},{"type":"Feature","geometry":{"type":"Point","coordinates":[-1.99965,47.2757]},"properties":{"nom":"LA CHAMPIONNERIE - SAINT-VIAUD","ag":["TAD zonal réseau Aléop - Pays de la Loire"],"lt":0,"dept":"44"}},{"type":"Feature","geometry":{"type":"Point","coordinates":[-1.91488,47.23786]},"properties":{"nom":"LA CHAMPIONNIERE - FROSSAY","ag":["TAD zonal réseau Aléop - Pays de la Loire"],"lt":0,"dept":"44"}},{"type":"Feature","geometry":{"type":"Point","coordinates":[-1.33484,47.26974]},"properties":{"nom":"LA CHAPELAINE - DIVATTE-SUR-LOIRE (LA CHAPELLE-BASSE-MER)","ag":["TAD zonal réseau Aléop - Pays de la Loire"],"lt":0,"dept":"44"}},{"type":"Feature","geometry":{"type":"Point","coordinates":[-2.23913,47.44961]},"properties":{"nom":"LA CHAPELLE DES M_DENTISTE","ag":["TAD zonal réseau Aléop - Pays de la Loire"],"lt":0,"dept":"44"}},{"type":"Feature","geometry":{"type":"Point","coordinates":[-1.75256,46.9904]},"properties":{"nom":"LA CHAROUILLERE - PAULX","ag":["TAD zonal réseau Aléop - Pays de la Loire"],"lt":0,"dept":"44"}},{"type":"Feature","geometry":{"type":"Point","coordinates":[-1.79507,47.48342]},"properties":{"nom":"LA CHAUSSEE - BLAIN","ag":["TAD zonal réseau Aléop - Pays de la Loire"],"lt":0,"dept":"44"}},{"type":"Feature","geometry":{"type":"Point","coordinates":[-1.44202,47.5746]},"properties":{"nom":"LA CHAUVELAIS - ABBARETZ","ag":["TAD zonal réseau Aléop - Pays de la Loire"],"lt":0,"dept":"44"}},{"type":"Feature","geometry":{"type":"Point","coordinates":[-1.40906,47.26811]},"properties":{"nom":"LA CHEBUETTE - SAINT-JULIEN-DE-CONCELLES","ag":["TAD zonal réseau Aléop - Pays de la Loire"],"lt":0,"dept":"44"}},{"type":"Feature","geometry":{"type":"Point","coordinates":[-1.59606,47.63095]},"properties":{"nom":"LA CHELONNIERE - JANS","ag":["TAD zonal réseau Aléop - Pays de la Loire"],"lt":0,"dept":"44"}},{"type":"Feature","geometry":{"type":"Point","coordinates":[-1.57057,47.73175]},"properties":{"nom":"LA CHEVAUCHEE - SION-LES-MINES","ag":["TAD zonal réseau Aléop - Pays de la Loire"],"lt":0,"dept":"44"}},{"type":"Feature","geometry":{"type":"Point","coordinates":[-2.03309,47.22335]},"properties":{"nom":"LA CLAIE - SAINT-PERE-EN-RETZ","ag":["TAD zonal réseau Aléop - Pays de la Loire"],"lt":0,"dept":"44"}},{"type":"Feature","geometry":{"type":"Point","coordinates":[-1.82208,47.11519]},"properties":{"nom":"LA COCHE - SAINTE-PAZANNE","ag":["TAD zonal réseau Aléop - Pays de la Loire"],"lt":0,"dept":"44"}},{"type":"Feature","geometry":{"type":"Point","coordinates":[-1.36381,47.15493]},"properties":{"nom":"LA COGNARDIERE - LE PALLET","ag":["TAD zonal réseau Aléop - Pays de la Loire"],"lt":0,"dept":"44"}},{"type":"Feature","geometry":{"type":"Point","coordinates":[-1.70449,47.41793]},"properties":{"nom":"LA COINDIERE - HERIC","ag":["TAD zonal réseau Aléop - Pays de la Loire"],"lt":0,"dept":"44"}},{"type":"Feature","geometry":{"type":"Point","coordinates":[-1.24958,47.75359]},"properties":{"nom":"LA COINTERIE - VILLEPOT","ag":["TAD zonal réseau Aléop - Pays de la Loire"],"lt":0,"dept":"44"}},{"type":"Feature","geometry":{"type":"Point","coordinates":[-1.67784,47.61248]},"properties":{"nom":"LA COLLE - MARSAC-SUR-DON","ag":["TAD zonal réseau Aléop - Pays de la Loire"],"lt":0,"dept":"44"}},{"type":"Feature","geometry":{"type":"Point","coordinates":[-1.54748,47.12273]},"properties":{"nom":"LA COLLETTERIE - PONT-SAINT-MARTIN","ag":["TAD zonal réseau Aléop - Pays de la Loire"],"lt":0,"dept":"44"}},{"type":"Feature","geometry":{"type":"Point","coordinates":[-1.73553,47.11123]},"properties":{"nom":"LA COLOMBE - SAINT-MARS-DE-COUTAIS","ag":["TAD zonal réseau Aléop - Pays de la Loire"],"lt":0,"dept":"44"}},{"type":"Feature","geometry":{"type":"Point","coordinates":[-1.66872,47.03482]},"properties":{"nom":"LA COMPOINTERIE - SAINT-PHILBERT-DE-GRAND-LIEU","ag":["TAD zonal réseau Aléop - Pays de la Loire"],"lt":0,"dept":"44"}},{"type":"Feature","geometry":{"type":"Point","coordinates":[-2.00638,47.25286]},"properties":{"nom":"LA CONTENTINAIS - SAINT-VIAUD","ag":["TAD zonal réseau Aléop - Pays de la Loire"],"lt":0,"dept":"44"}},{"type":"Feature","geometry":{"type":"Point","coordinates":[-1.42551,47.57591]},"properties":{"nom":"LA CORBIERE - LA MEILLERAYE-DE-BRETAGNE","ag":["TAD zonal réseau Aléop - Pays de la Loire"],"lt":0,"dept":"44"}},{"type":"Feature","geometry":{"type":"Point","coordinates":[-1.86241,47.4255]},"properties":{"nom":"LA CORNUAIS - BOUVRON","ag":["TAD zonal réseau Aléop - Pays de la Loire"],"lt":0,"dept":"44"}},{"type":"Feature","geometry":{"type":"Point","coordinates":[-1.8593,47.43555]},"properties":{"nom":"LA COUERONNAIS - BOUVRON","ag":["TAD zonal réseau Aléop - Pays de la Loire"],"lt":0,"dept":"44"}},{"type":"Feature","geometry":{"type":"Point","coordinates":[-1.63214,47.00679]},"properties":{"nom":"LA CRESPELIERE - SAINT-PHILBERT-DE-GRAND-LIEU","ag":["TAD zonal réseau Aléop - Pays de la Loire"],"lt":0,"dept":"44"}},{"type":"Feature","geometry":{"type":"Point","coordinates":[-1.36553,47.76038]},"properties":{"nom":"LA CROISERIE - ROUGE","ag":["TAD zonal réseau Aléop - Pays de la Loire"],"lt":0,"dept":"44"}},{"type":"Feature","geometry":{"type":"Point","coordinates":[-2.19173,47.13398]},"properties":{"nom":"LA CROIX BOUTEAU - LA PLAINE-SUR-MER","ag":["TAD zonal réseau Aléop - Pays de la Loire"],"lt":0,"dept":"44"}},{"type":"Feature","geometry":{"type":"Point","coordinates":[-2.02483,47.18092]},"properties":{"nom":"LA CROTERIE - CHAUVE","ag":["TAD zonal réseau Aléop - Pays de la Loire"],"lt":0,"dept":"44"}},{"type":"Feature","geometry":{"type":"Point","coordinates":[-1.96441,47.05031]},"properties":{"nom":"LA CULEE - VILLENEUVE-EN-RETZ (BOURGNEUF-EN-RETZ)","ag":["TAD zonal réseau Aléop - Pays de la Loire"],"lt":0,"dept":"44"}},{"type":"Feature","geometry":{"type":"Point","coordinates":[-2.14643,47.16036]},"properties":{"nom":"LA DALONNERIE - SAINT-MICHEL-CHEF-CHEF","ag":["TAD zonal réseau Aléop - Pays de la Loire"],"lt":0,"dept":"44"}},{"type":"Feature","geometry":{"type":"Point","coordinates":[-1.90911,47.10097]},"properties":{"nom":"LA DAVIERE DES LANDES - SAINT-HILAIRE-DE-CHALEONS","ag":["TAD zonal réseau Aléop - Pays de la Loire"],"lt":0,"dept":"44"}},{"type":"Feature","geometry":{"type":"Point","coordinates":[-2.14136,47.18802]},"properties":{"nom":"LA DAVITERIE  - SAINT-MICHEL-CHEF-CHEF","ag":["TAD zonal réseau Aléop - Pays de la Loire"],"lt":0,"dept":"44"}},{"type":"Feature","geometry":{"type":"Point","coordinates":[-1.4135,47.66257]},"properties":{"nom":"LA DELINAIS - LOUISFERT","ag":["TAD zonal réseau Aléop - Pays de la Loire"],"lt":0,"dept":"44"}},{"type":"Feature","geometry":{"type":"Point","coordinates":[-1.67046,47.41411]},"properties":{"nom":"LA DENAIS - HERIC","ag":["TAD zonal réseau Aléop - Pays de la Loire"],"lt":0,"dept":"44"}},{"type":"Feature","geometry":{"type":"Point","coordinates":[-1.24682,47.10768]},"properties":{"nom":"LA DOURIE - CLISSON","ag":["TAD zonal réseau Aléop - Pays de la Loire"],"lt":0,"dept":"44"}},{"type":"Feature","geometry":{"type":"Point","coordinates":[-1.87004,47.41939]},"properties":{"nom":"LA DRUGE CHEVAUX - BOUVRON","ag":["TAD zonal réseau Aléop - Pays de la Loire"],"lt":0,"dept":"44"}},{"type":"Feature","geometry":{"type":"Point","coordinates":[-1.46056,46.98841]},"properties":{"nom":"LA FALORDIERE - VIEILLEVIGNE","ag":["TAD zonal réseau Aléop - Pays de la Loire"],"lt":0,"dept":"44"}},{"type":"Feature","geometry":{"type":"Point","coordinates":[-1.9471,47.16736]},"properties":{"nom":"LA FEUILLARDAIS - CHAUMES-EN-RETZ (ARTHON-EN-RETZ)","ag":["TAD zonal réseau Aléop - Pays de la Loire"],"lt":0,"dept":"44"}},{"type":"Feature","geometry":{"type":"Point","coordinates":[-1.3614,47.69125]},"properties":{"nom":"LA FEUVRAIS - ERBRAY","ag":["TAD zonal réseau Aléop - Pays de la Loire"],"lt":0,"dept":"44"}},{"type":"Feature","geometry":{"type":"Point","coordinates":[-2.11798,47.13462]},"properties":{"nom":"LA FICAUDIERE HAUT  - PORNIC","ag":["TAD zonal réseau Aléop - Pays de la Loire"],"lt":0,"dept":"44"}},{"type":"Feature","geometry":{"type":"Point","coordinates":[-2.06606,47.10396]},"properties":{"nom":"LA FONTAINE BRETON  - PORNIC","ag":["TAD zonal réseau Aléop - Pays de la Loire"],"lt":0,"dept":"44"}},{"type":"Feature","geometry":{"type":"Point","coordinates":[-1.50535,47.12041]},"properties":{"nom":"LA FORET - LE BIGNON","ag":["TAD zonal réseau Aléop - Pays de la Loire"],"lt":0,"dept":"44"}},{"type":"Feature","geometry":{"type":"Point","coordinates":[-1.4861,47.11595]},"properties":{"nom":"LA FORET EST - LE BIGNON","ag":["TAD zonal réseau Aléop - Pays de la Loire"],"lt":0,"dept":"44"}},{"type":"Feature","geometry":{"type":"Point","coordinates":[-1.51449,47.47555]},"properties":{"nom":"LA FORGE - NORT-SUR-ERDRE","ag":["TAD zonal réseau Aléop - Pays de la Loire"],"lt":0,"dept":"44"}},{"type":"Feature","geometry":{"type":"Point","coordinates":[-1.34849,47.60475]},"properties":{"nom":"LA FORGE NEUVE - MOISDON-LA-RIVIERE","ag":["TAD zonal réseau Aléop - Pays de la Loire"],"lt":0,"dept":"44"}},{"type":"Feature","geometry":{"type":"Point","coordinates":[-1.90615,47.19865]},"properties":{"nom":"LA FOSSE DES PRES - VUE","ag":["TAD zonal réseau Aléop - Pays de la Loire"],"lt":0,"dept":"44"}},{"type":"Feature","geometry":{"type":"Point","coordinates":[-1.43922,47.41174]},"properties":{"nom":"LA FOUCAUDIERE - PETIT-MARS","ag":["TAD zonal réseau Aléop - Pays de la Loire"],"lt":0,"dept":"44"}},{"type":"Feature","geometry":{"type":"Point","coordinates":[-1.48371,47.49084]},"properties":{"nom":"LA FOUQUIERE - NORT-SUR-ERDRE","ag":["TAD zonal réseau Aléop - Pays de la Loire"],"lt":0,"dept":"44"}},{"type":"Feature","geometry":{"type":"Point","coordinates":[-1.75116,47.46538]},"properties":{"nom":"LA FRELAUDAIS - BLAIN","ag":["TAD zonal réseau Aléop - Pays de la Loire"],"lt":0,"dept":"44"}},{"type":"Feature","geometry":{"type":"Point","coordinates":[-1.8098,47.12756]},"properties":{"nom":"LA FROGERIE - PORT-SAINT-PERE","ag":["TAD zonal réseau Aléop - Pays de la Loire"],"lt":0,"dept":"44"}},{"type":"Feature","geometry":{"type":"Point","coordinates":[-1.4636,47.40877]},"properties":{"nom":"LA FURETIERE - PETIT-MARS","ag":["TAD zonal réseau Aléop - Pays de la Loire"],"lt":0,"dept":"44"}},{"type":"Feature","geometry":{"type":"Point","coordinates":[-1.70179,47.51657]},"properties":{"nom":"LA GAGNERIE - LA GRIGONNAIS","ag":["TAD zonal réseau Aléop - Pays de la Loire"],"lt":0,"dept":"44"}},{"type":"Feature","geometry":{"type":"Point","coordinates":[-1.38682,47.57406]},"properties":{"nom":"LA GANNERAIS - LA MEILLERAYE-DE-BRETAGNE","ag":["TAD zonal réseau Aléop - Pays de la Loire"],"lt":0,"dept":"44"}},{"type":"Feature","geometry":{"type":"Point","coordinates":[-1.60655,47.0326]},"properties":{"nom":"LA GAROTERIE - SAINT-PHILBERT-DE-GRAND-LIEU","ag":["TAD zonal réseau Aléop - Pays de la Loire"],"lt":0,"dept":"44"}},{"type":"Feature","geometry":{"type":"Point","coordinates":[-1.5661,46.90029]},"properties":{"nom":"LA GARRELIERE - LEGE","ag":["TAD zonal réseau Aléop - Pays de la Loire"],"lt":0,"dept":"44"}},{"type":"Feature","geometry":{"type":"Point","coordinates":[-1.44514,47.42485]},"properties":{"nom":"LA GASNERIE - PETIT-MARS","ag":["TAD zonal réseau Aléop - Pays de la Loire"],"lt":0,"dept":"44"}},{"type":"Feature","geometry":{"type":"Point","coordinates":[-1.44258,47.66728]},"properties":{"nom":"LA GAUFRIERE-RIFTIERE - LOUISFERT","ag":["TAD zonal réseau Aléop - Pays de la Loire"],"lt":0,"dept":"44"}},{"type":"Feature","geometry":{"type":"Point","coordinates":[-2.15808,47.12114]},"properties":{"nom":"LA GAUVINIERE - PORNIC","ag":["TAD zonal réseau Aléop - Pays de la Loire"],"lt":0,"dept":"44"}},{"type":"Feature","geometry":{"type":"Point","coordinates":[-1.90729,47.38889]},"properties":{"nom":"LA GAVALAIS - BOUVRON","ag":["TAD zonal réseau Aléop - Pays de la Loire"],"lt":0,"dept":"44"}},{"type":"Feature","geometry":{"type":"Point","coordinates":[-2.08179,47.13606]},"properties":{"nom":"LA GELTIERE - PORNIC","ag":["TAD zonal réseau Aléop - Pays de la Loire"],"lt":0,"dept":"44"}},{"type":"Feature","geometry":{"type":"Point","coordinates":[-2.13388,47.14404]},"properties":{"nom":"LA GENIERE  - LA PLAINE-SUR-MER","ag":["TAD zonal réseau Aléop - Pays de la Loire"],"lt":0,"dept":"44"}},{"type":"Feature","geometry":{"type":"Point","coordinates":[-1.29507,47.2891]},"properties":{"nom":"LA GIRAUDIERE - DIVATTE-SUR-LOIRE (BARBECHAT)","ag":["TAD zonal réseau Aléop - Pays de la Loire"],"lt":0,"dept":"44"}},{"type":"Feature","geometry":{"type":"Point","coordinates":[-2.054,47.215]},"properties":{"nom":"LA GIRAUDIERE - SAINT-PERE-EN-RETZ","ag":["TAD zonal réseau Aléop - Pays de la Loire"],"lt":0,"dept":"44"}},{"type":"Feature","geometry":{"type":"Point","coordinates":[-1.3204,47.18328]},"properties":{"nom":"LA GOBINIERE - VALLET","ag":["TAD zonal réseau Aléop - Pays de la Loire"],"lt":0,"dept":"44"}},{"type":"Feature","geometry":{"type":"Point","coordinates":[-2.16201,47.14118]},"properties":{"nom":"LA GOBTRIE - LA PLAINE-SUR-MER","ag":["TAD zonal réseau Aléop - Pays de la Loire"],"lt":0,"dept":"44"}},{"type":"Feature","geometry":{"type":"Point","coordinates":[-1.49767,47.56749]},"properties":{"nom":"LA GODARDAIS - ABBARETZ","ag":["TAD zonal réseau Aléop - Pays de la Loire"],"lt":0,"dept":"44"}},{"type":"Feature","geometry":{"type":"Point","coordinates":[-1.71012,47.11806]},"properties":{"nom":"LA GOHELIERE - SAINT-MARS-DE-COUTAIS","ag":["TAD zonal réseau Aléop - Pays de la Loire"],"lt":0,"dept":"44"}},{"type":"Feature","geometry":{"type":"Point","coordinates":[-2.13721,47.26549]},"properties":{"nom":"LA GRAND-VILLE - SAINT-BREVIN-LES-PINS","ag":["TAD zonal réseau Aléop - Pays de la Loire"],"lt":0,"dept":"44"}},{"type":"Feature","geometry":{"type":"Point","coordinates":[-2.03783,47.26503]},"properties":{"nom":"LA GRANDE ROCHELAIS - SAINT-PERE-EN-RETZ","ag":["TAD zonal réseau Aléop - Pays de la Loire"],"lt":0,"dept":"44"}},{"type":"Feature","geometry":{"type":"Point","coordinates":[-1.66889,47.60697]},"properties":{"nom":"LA GRANDE VALLEE - MARSAC-SUR-DON","ag":["TAD zonal réseau Aléop - Pays de la Loire"],"lt":0,"dept":"44"}},{"type":"Feature","geometry":{"type":"Point","coordinates":[-1.49739,47.04232]},"properties":{"nom":"LA GRANGE A L'ABBE - GENESTON","ag":["TAD zonal réseau Aléop - Pays de la Loire"],"lt":0,"dept":"44"}},{"type":"Feature","geometry":{"type":"Point","coordinates":[-1.68688,47.02247]},"properties":{"nom":"LA GRAVOUILLERIE - SAINT-PHILBERT-DE-GRAND-LIEU","ag":["TAD zonal réseau Aléop - Pays de la Loire"],"lt":0,"dept":"44"}},{"type":"Feature","geometry":{"type":"Point","coordinates":[-1.75484,47.50953]},"properties":{"nom":"LA GREE CHENE MESSE - LE GAVRE","ag":["TAD zonal réseau Aléop - Pays de la Loire"],"lt":0,"dept":"44"}},{"type":"Feature","geometry":{"type":"Point","coordinates":[-1.63293,47.49135]},"properties":{"nom":"LA GREHANDAIE COVOIT - SAFFRE","ag":["TAD zonal réseau Aléop - Pays de la Loire"],"lt":0,"dept":"44"}},{"type":"Feature","geometry":{"type":"Point","coordinates":[-1.62293,47.04694]},"properties":{"nom":"LA GREVE - SAINT-PHILBERT-DE-GRAND-LIEU","ag":["TAD zonal réseau Aléop - Pays de la Loire"],"lt":0,"dept":"44"}},{"type":"Feature","geometry":{"type":"Point","coordinates":[-1.57153,47.39922]},"properties":{"nom":"LA GROHINIERE - CASSON","ag":["TAD zonal réseau Aléop - Pays de la Loire"],"lt":0,"dept":"44"}},{"type":"Feature","geometry":{"type":"Point","coordinates":[-1.66137,46.89261]},"properties":{"nom":"LA GROLLIERE - TOUVOIS","ag":["TAD zonal réseau Aléop - Pays de la Loire"],"lt":0,"dept":"44"}},{"type":"Feature","geometry":{"type":"Point","coordinates":[-1.6316,47.02636]},"properties":{"nom":"LA GRUE - SAINT-PHILBERT-DE-GRAND-LIEU","ag":["TAD zonal réseau Aléop - Pays de la Loire"],"lt":0,"dept":"44"}},{"type":"Feature","geometry":{"type":"Point","coordinates":[-1.78485,47.07641]},"properties":{"nom":"LA GUINANDERIE - SAINT-MARS-DE-COUTAIS","ag":["TAD zonal réseau Aléop - Pays de la Loire"],"lt":0,"dept":"44"}},{"type":"Feature","geometry":{"type":"Point","coordinates":[-1.49771,47.58046]},"properties":{"nom":"LA GUINCHARDAIS - ABBARETZ","ag":["TAD zonal réseau Aléop - Pays de la Loire"],"lt":0,"dept":"44"}},{"type":"Feature","geometry":{"type":"Point","coordinates":[-1.90894,47.17604]},"properties":{"nom":"LA HAMOYERE  - VUE","ag":["TAD zonal réseau Aléop - Pays de la Loire"],"lt":0,"dept":"44"}},{"type":"Feature","geometry":{"type":"Point","coordinates":[-1.39727,47.13905]},"properties":{"nom":"LA HAUTIERE - SAINT-FIACRE-SUR-MAINE","ag":["TAD zonal réseau Aléop - Pays de la Loire"],"lt":0,"dept":"44"}},{"type":"Feature","geometry":{"type":"Point","coordinates":[-1.73682,47.54014]},"properties":{"nom":"LA HERROUINAIS - VAY","ag":["TAD zonal réseau Aléop - Pays de la Loire"],"lt":0,"dept":"44"}},{"type":"Feature","geometry":{"type":"Point","coordinates":[-2.07835,47.27417]},"properties":{"nom":"LA HERSE - CORSEPT","ag":["TAD zonal réseau Aléop - Pays de la Loire"],"lt":0,"dept":"44"}},{"type":"Feature","geometry":{"type":"Point","coordinates":[-1.83178,47.47997]},"properties":{"nom":"LA HUBIAIS - BLAIN","ag":["TAD zonal réseau Aléop - Pays de la Loire"],"lt":0,"dept":"44"}},{"type":"Feature","geometry":{"type":"Point","coordinates":[-1.53265,47.71498]},"properties":{"nom":"LA HUNAUDIERE - SION-LES-MINES","ag":["TAD zonal réseau Aléop - Pays de la Loire"],"lt":0,"dept":"44"}},{"type":"Feature","geometry":{"type":"Point","coordinates":[-2.02987,47.19597]},"properties":{"nom":"LA HURLINE - SAINT-PERE-EN-RETZ","ag":["TAD zonal réseau Aléop - Pays de la Loire"],"lt":0,"dept":"44"}},{"type":"Feature","geometry":{"type":"Point","coordinates":[-1.6984,46.97519]},"properties":{"nom":"LA JACQUETERIE - LA MARNE","ag":["TAD zonal réseau Aléop - Pays de la Loire"],"lt":0,"dept":"44"}},{"type":"Feature","geometry":{"type":"Point","coordinates":[-1.50892,47.10546]},"properties":{"nom":"LA JARRIE - LE BIGNON","ag":["TAD zonal réseau Aléop - Pays de la Loire"],"lt":0,"dept":"44"}},{"type":"Feature","geometry":{"type":"Point","coordinates":[-1.64031,46.93177]},"properties":{"nom":"LA JAUNASSE - CORCOUE-SUR-LOGNE","ag":["TAD zonal réseau Aléop - Pays de la Loire"],"lt":0,"dept":"44"}},{"type":"Feature","geometry":{"type":"Point","coordinates":[-1.80674,47.03491]},"properties":{"nom":"LA JOUE - MACHECOUL-SAINT-MEME (SAINT-MEME-LE-TENU)","ag":["TAD zonal réseau Aléop - Pays de la Loire"],"lt":0,"dept":"44"}},{"type":"Feature","geometry":{"type":"Point","coordinates":[-1.42091,47.68019]},"properties":{"nom":"LA JUMELAIS - LOUISFERT","ag":["TAD zonal réseau Aléop - Pays de la Loire"],"lt":0,"dept":"44"}},{"type":"Feature","geometry":{"type":"Point","coordinates":[-1.73892,47.1213]},"properties":{"nom":"LA JUTIERE - PORT-SAINT-PERE","ag":["TAD zonal réseau Aléop - Pays de la Loire"],"lt":0,"dept":"44"}},{"type":"Feature","geometry":{"type":"Point","coordinates":[-1.695,47.39111]},"properties":{"nom":"LA LANDE - NOTRE-DAME-DES-LANDES","ag":["TAD zonal réseau Aléop - Pays de la Loire"],"lt":0,"dept":"44"}},{"type":"Feature","geometry":{"type":"Point","coordinates":[-1.52038,47.03633]},"properties":{"nom":"LA LANDE - SAINT-COLOMBAN","ag":["TAD zonal réseau Aléop - Pays de la Loire"],"lt":0,"dept":"44"}},{"type":"Feature","geometry":{"type":"Point","coordinates":[-2.1398,47.251]},"properties":{"nom":"LA LANDE MOURON - SAINT-BREVIN-LES-PINS","ag":["TAD zonal réseau Aléop - Pays de la Loire"],"lt":0,"dept":"44"}},{"type":"Feature","geometry":{"type":"Point","coordinates":[-1.59151,47.48639]},"properties":{"nom":"LA LANDELLE - SAFFRE","ag":["TAD zonal réseau Aléop - Pays de la Loire"],"lt":0,"dept":"44"}},{"type":"Feature","geometry":{"type":"Point","coordinates":[-1.29108,47.74056]},"properties":{"nom":"LA LEODIERE - SOUDAN","ag":["TAD zonal réseau Aléop - Pays de la Loire"],"lt":0,"dept":"44"}},{"type":"Feature","geometry":{"type":"Point","coordinates":[-1.46782,47.53255]},"properties":{"nom":"LA LIRAIS - ABBARETZ","ag":["TAD zonal réseau Aléop - Pays de la Loire"],"lt":0,"dept":"44"}},{"type":"Feature","geometry":{"type":"Point","coordinates":[-1.53261,47.09732]},"properties":{"nom":"LA LOIRIERE - LE BIGNON","ag":["TAD zonal réseau Aléop - Pays de la Loire"],"lt":0,"dept":"44"}},{"type":"Feature","geometry":{"type":"Point","coordinates":[-1.78735,47.41489]},"properties":{"nom":"LA MADELEINE - FAY-DE-BRETAGNE","ag":["TAD zonal réseau Aléop - Pays de la Loire"],"lt":0,"dept":"44"}},{"type":"Feature","geometry":{"type":"Point","coordinates":[-1.50659,47.65553]},"properties":{"nom":"LA MAGDELEINE RTE DE DERVAL - SAINT-VINCENT-DES-LANDES","ag":["TAD zonal réseau Aléop - Pays de la Loire"],"lt":0,"dept":"44"}},{"type":"Feature","geometry":{"type":"Point","coordinates":[-1.62453,47.01793]},"properties":{"nom":"LA MAILLERE - SAINT-PHILBERT-DE-GRAND-LIEU","ag":["TAD zonal réseau Aléop - Pays de la Loire"],"lt":0,"dept":"44"}},{"type":"Feature","geometry":{"type":"Point","coordinates":[-1.52411,47.1181]},"properties":{"nom":"LA MAISON ROUGE - LE BIGNON","ag":["TAD zonal réseau Aléop - Pays de la Loire"],"lt":0,"dept":"44"}},{"type":"Feature","geometry":{"type":"Point","coordinates":[-1.42758,47.34609]},"properties":{"nom":"LA MAISONNEUVE - SAINT-MARS-DU-DESERT","ag":["TAD zonal réseau Aléop - Pays de la Loire"],"lt":0,"dept":"44"}},{"type":"Feature","geometry":{"type":"Point","coordinates":[-1.60469,47.39722]},"properties":{"nom":"LA MARCHANDIERE - HERIC","ag":["TAD zonal réseau Aléop - Pays de la Loire"],"lt":0,"dept":"44"}},{"type":"Feature","geometry":{"type":"Point","coordinates":[-1.43674,47.61733]},"properties":{"nom":"LA MASURE - ISSE","ag":["TAD zonal réseau Aléop - Pays de la Loire"],"lt":0,"dept":"44"}},{"type":"Feature","geometry":{"type":"Point","coordinates":[-1.49366,47.0888]},"properties":{"nom":"LA MASURE - LE BIGNON","ag":["TAD zonal réseau Aléop - Pays de la Loire"],"lt":0,"dept":"44"}},{"type":"Feature","geometry":{"type":"Point","coordinates":[-1.18109,47.0583]},"properties":{"nom":"LA MECHINAUDIERE COVOIT - BOUSSAY","ag":["TAD zonal réseau Aléop - Pays de la Loire"],"lt":0,"dept":"44"}},{"type":"Feature","geometry":{"type":"Point","coordinates":[-1.8105,47.39218]},"properties":{"nom":"LA MEIGNELAIS - FAY-DE-BRETAGNE","ag":["TAD zonal réseau Aléop - Pays de la Loire"],"lt":0,"dept":"44"}},{"type":"Feature","geometry":{"type":"Point","coordinates":[-1.64437,46.97972]},"properties":{"nom":"LA MICHELIERE - LA LIMOUZINIERE","ag":["TAD zonal réseau Aléop - Pays de la Loire"],"lt":0,"dept":"44"}},{"type":"Feature","geometry":{"type":"Point","coordinates":[-1.6103,47.10075]},"properties":{"nom":"LA MICHELLERIE - LA CHEVROLIERE","ag":["TAD zonal réseau Aléop - Pays de la Loire"],"lt":0,"dept":"44"}},{"type":"Feature","geometry":{"type":"Point","coordinates":[-1.54173,47.55839]},"properties":{"nom":"LA MINE D'ABBARETZ - ABBARETZ","ag":["TAD zonal réseau Aléop - Pays de la Loire"],"lt":0,"dept":"44"}},{"type":"Feature","geometry":{"type":"Point","coordinates":[-1.47495,47.64315]},"properties":{"nom":"LA MINIERE - SAINT-VINCENT-DES-LANDES","ag":["TAD zonal réseau Aléop - Pays de la Loire"],"lt":0,"dept":"44"}},{"type":"Feature","geometry":{"type":"Point","coordinates":[-1.67758,47.01545]},"properties":{"nom":"LA MOILLANCHERIE - SAINT-PHILBERT-DE-GRAND-LIEU","ag":["TAD zonal réseau Aléop - Pays de la Loire"],"lt":0,"dept":"44"}},{"type":"Feature","geometry":{"type":"Point","coordinates":[-1.53187,47.61073]},"properties":{"nom":"LA MORLAIS - TREFFIEUX","ag":["TAD zonal réseau Aléop - Pays de la Loire"],"lt":0,"dept":"44"}},{"type":"Feature","geometry":{"type":"Point","coordinates":[-1.88553,47.18642]},"properties":{"nom":"LA MORLIERE - ROUANS","ag":["TAD zonal réseau Aléop - Pays de la Loire"],"lt":0,"dept":"44"}},{"type":"Feature","geometry":{"type":"Point","coordinates":[-1.83747,47.08631]},"properties":{"nom":"LA MORTONNERIE  - SAINTE-PAZANNE","ag":["TAD zonal réseau Aléop - Pays de la Loire"],"lt":0,"dept":"44"}},{"type":"Feature","geometry":{"type":"Point","coordinates":[-1.41446,47.77578]},"properties":{"nom":"LA MOTTE - ROUGE","ag":["TAD zonal réseau Aléop - Pays de la Loire"],"lt":0,"dept":"44"}},{"type":"Feature","geometry":{"type":"Point","coordinates":[-1.71505,47.03717]},"properties":{"nom":"LA MUSSAUDERIE - SAINT-LUMINE-DE-COUTAIS","ag":["TAD zonal réseau Aléop - Pays de la Loire"],"lt":0,"dept":"44"}},{"type":"Feature","geometry":{"type":"Point","coordinates":[-1.87881,47.03221]},"properties":{"nom":"LA NOE BRIORD - VILLENEUVE-EN-RETZ (BOURGNEUF-EN-RETZ)","ag":["TAD zonal réseau Aléop - Pays de la Loire"],"lt":0,"dept":"44"}},{"type":"Feature","geometry":{"type":"Point","coordinates":[-1.99716,47.26439]},"properties":{"nom":"LA NOE DES FONTAINES - SAINT-VIAUD","ag":["TAD zonal réseau Aléop - Pays de la Loire"],"lt":0,"dept":"44"}},{"type":"Feature","geometry":{"type":"Point","coordinates":[-1.49642,47.41812]},"properties":{"nom":"LA NOE GUY - NORT-SUR-ERDRE","ag":["TAD zonal réseau Aléop - Pays de la Loire"],"lt":0,"dept":"44"}},{"type":"Feature","geometry":{"type":"Point","coordinates":[-1.4722,47.04028]},"properties":{"nom":"LA NOISETTERIE - MONTBERT","ag":["TAD zonal réseau Aléop - Pays de la Loire"],"lt":0,"dept":"44"}},{"type":"Feature","geometry":{"type":"Point","coordinates":[-2.0305,47.08512]},"properties":{"nom":"LA NOUE FLEURIE - LA BERNERIE-EN-RETZ","ag":["TAD zonal réseau Aléop - Pays de la Loire"],"lt":0,"dept":"44"}},{"type":"Feature","geometry":{"type":"Point","coordinates":[-2.0028,47.16607]},"properties":{"nom":"LA NOULTRIE - CHAUVE","ag":["TAD zonal réseau Aléop - Pays de la Loire"],"lt":0,"dept":"44"}},{"type":"Feature","geometry":{"type":"Point","coordinates":[-1.71798,47.04469]},"properties":{"nom":"LA PADIOLIERE - SAINT-LUMINE-DE-COUTAIS","ag":["TAD zonal réseau Aléop - Pays de la Loire"],"lt":0,"dept":"44"}},{"type":"Feature","geometry":{"type":"Point","coordinates":[-1.69668,47.33231]},"properties":{"nom":"LA PAQUELAIS - VIGNEUX-DE-BRETAGNE","ag":["TAD zonal réseau Aléop - Pays de la Loire"],"lt":0,"dept":"44"}},{"type":"Feature","geometry":{"type":"Point","coordinates":[-1.55267,46.8891]},"properties":{"nom":"LA PEAUDOUERE - LEGE","ag":["TAD zonal réseau Aléop - Pays de la Loire"],"lt":0,"dept":"44"}},{"type":"Feature","geometry":{"type":"Point","coordinates":[-1.74453,47.37778]},"properties":{"nom":"LA PICLOTAIS - NOTRE-DAME-DES-LANDES","ag":["TAD zonal réseau Aléop - Pays de la Loire"],"lt":0,"dept":"44"}},{"type":"Feature","geometry":{"type":"Point","coordinates":[-1.76948,47.08953]},"properties":{"nom":"LA PICOTERIE - SAINT-MARS-DE-COUTAIS","ag":["TAD zonal réseau Aléop - Pays de la Loire"],"lt":0,"dept":"44"}},{"type":"Feature","geometry":{"type":"Point","coordinates":[-1.38516,47.28193]},"properties":{"nom":"LA PIERRE PERCEE - DIVATTE-SUR-LOIRE (LA CHAPELLE-BASSE-MER)","ag":["TAD zonal réseau Aléop - Pays de la Loire"],"lt":0,"dept":"44"}},{"type":"Feature","geometry":{"type":"Point","coordinates":[-2.10274,47.24859]},"properties":{"nom":"LA PILAIS - CORSEPT","ag":["TAD zonal réseau Aléop - Pays de la Loire"],"lt":0,"dept":"44"}},{"type":"Feature","geometry":{"type":"Point","coordinates":[-1.58523,47.37004]},"properties":{"nom":"LA PINSONNIERE - GRANDCHAMP-DES-FONTAINES","ag":["TAD zonal réseau Aléop - Pays de la Loire"],"lt":0,"dept":"44"}},{"type":"Feature","geometry":{"type":"Point","coordinates":[-1.70465,47.03864]},"properties":{"nom":"LA PIRONNIERE - SAINT-LUMINE-DE-COUTAIS","ag":["TAD zonal réseau Aléop - Pays de la Loire"],"lt":0,"dept":"44"}},{"type":"Feature","geometry":{"type":"Point","coordinates":[-2.12655,47.25832]},"properties":{"nom":"LA PITARDAIS - CORSEPT","ag":["TAD zonal réseau Aléop - Pays de la Loire"],"lt":0,"dept":"44"}},{"type":"Feature","geometry":{"type":"Point","coordinates":[-1.58804,46.88258]},"properties":{"nom":"LA PLAISANCE - LEGE","ag":["TAD zonal réseau Aléop - Pays de la Loire"],"lt":0,"dept":"44"}},{"type":"Feature","geometry":{"type":"Point","coordinates":[-1.73947,46.9178]},"properties":{"nom":"LA PLISSONNIERE - SAINT-ETIENNE-DE-MER-MORTE","ag":["TAD zonal réseau Aléop - Pays de la Loire"],"lt":0,"dept":"44"}},{"type":"Feature","geometry":{"type":"Point","coordinates":[-1.44479,47.35156]},"properties":{"nom":"LA PLOTIERE - SAINT-MARS-DU-DESERT","ag":["TAD zonal réseau Aléop - Pays de la Loire"],"lt":0,"dept":"44"}},{"type":"Feature","geometry":{"type":"Point","coordinates":[-2.11289,47.17855]},"properties":{"nom":"LA POELLERIE - SAINT-MICHEL-CHEF-CHEF","ag":["TAD zonal réseau Aléop - Pays de la Loire"],"lt":0,"dept":"44"}},{"type":"Feature","geometry":{"type":"Point","coordinates":[-1.83006,47.18879]},"properties":{"nom":"LA PORCHERIE - ROUANS","ag":["TAD zonal réseau Aléop - Pays de la Loire"],"lt":0,"dept":"44"}},{"type":"Feature","geometry":{"type":"Point","coordinates":[-2.15196,47.1814]},"properties":{"nom":"LA POSTE - SAINT-MICHEL-CHEF-CHEF","ag":["TAD zonal réseau Aléop - Pays de la Loire"],"lt":0,"dept":"44"}},{"type":"Feature","geometry":{"type":"Point","coordinates":[-1.4388,47.1082]},"properties":{"nom":"LA POTERIE - CHATEAU-THEBAUD","ag":["TAD zonal réseau Aléop - Pays de la Loire"],"lt":0,"dept":"44"}},{"type":"Feature","geometry":{"type":"Point","coordinates":[-1.34468,47.0502]},"properties":{"nom":"LA POUITIERE - SAINT-HILAIRE-DE-CLISSON","ag":["TAD zonal réseau Aléop - Pays de la Loire"],"lt":0,"dept":"44"}},{"type":"Feature","geometry":{"type":"Point","coordinates":[-1.24592,47.11417]},"properties":{"nom":"LA POULFRIERE - MOUZILLON","ag":["TAD zonal réseau Aléop - Pays de la Loire"],"lt":0,"dept":"44"}},{"type":"Feature","geometry":{"type":"Point","coordinates":[-2.21166,47.13444]},"properties":{"nom":"LA PREE - PREFAILLES","ag":["TAD zonal réseau Aléop - Pays de la Loire"],"lt":0,"dept":"44"}},{"type":"Feature","geometry":{"type":"Point","coordinates":[-2.15487,47.25925]},"properties":{"nom":"LA PRINAIS - SAINT-BREVIN-LES-PINS","ag":["TAD zonal réseau Aléop - Pays de la Loire"],"lt":0,"dept":"44"}},{"type":"Feature","geometry":{"type":"Point","coordinates":[-2.14681,47.16954]},"properties":{"nom":"LA PRINCETIERE - SAINT-MICHEL-CHEF-CHEF","ag":["TAD zonal réseau Aléop - Pays de la Loire"],"lt":0,"dept":"44"}},{"type":"Feature","geometry":{"type":"Point","coordinates":[-1.96559,47.23103]},"properties":{"nom":"LA RAFFINIERE - FROSSAY","ag":["TAD zonal réseau Aléop - Pays de la Loire"],"lt":0,"dept":"44"}},{"type":"Feature","geometry":{"type":"Point","coordinates":[-1.84627,47.1936]},"properties":{"nom":"LA RAFFINIERE - ROUANS","ag":["TAD zonal réseau Aléop - Pays de la Loire"],"lt":0,"dept":"44"}},{"type":"Feature","geometry":{"type":"Point","coordinates":[-1.65065,46.88351]},"properties":{"nom":"LA RAMBAUDIERE - TOUVOIS","ag":["TAD zonal réseau Aléop - Pays de la Loire"],"lt":0,"dept":"44"}},{"type":"Feature","geometry":{"type":"Point","coordinates":[-1.49771,47.06516]},"properties":{"nom":"LA RAYE - MONTBERT","ag":["TAD zonal réseau Aléop - Pays de la Loire"],"lt":0,"dept":"44"}},{"type":"Feature","geometry":{"type":"Point","coordinates":[-1.45083,47.46763]},"properties":{"nom":"LA REAUTE - LES TOUCHES","ag":["TAD zonal réseau Aléop - Pays de la Loire"],"lt":0,"dept":"44"}},{"type":"Feature","geometry":{"type":"Point","coordinates":[-1.53148,47.40922]},"properties":{"nom":"LA REDALLIERE - NORT-SUR-ERDRE","ag":["TAD zonal réseau Aléop - Pays de la Loire"],"lt":0,"dept":"44"}},{"type":"Feature","geometry":{"type":"Point","coordinates":[-1.6647,47.45023]},"properties":{"nom":"LA REMAUDAIS - HERIC","ag":["TAD zonal réseau Aléop - Pays de la Loire"],"lt":0,"dept":"44"}},{"type":"Feature","geometry":{"type":"Point","coordinates":[-1.41509,46.96123]},"properties":{"nom":"LA RENOULIERE - VIEILLEVIGNE","ag":["TAD zonal réseau Aléop - Pays de la Loire"],"lt":0,"dept":"44"}},{"type":"Feature","geometry":{"type":"Point","coordinates":[-1.75768,47.09356]},"properties":{"nom":"LA RENOURIE - SAINT-MARS-DE-COUTAIS","ag":["TAD zonal réseau Aléop - Pays de la Loire"],"lt":0,"dept":"44"}},{"type":"Feature","geometry":{"type":"Point","coordinates":[-1.63192,47.53249]},"properties":{"nom":"LA RINAIS - PUCEUL","ag":["TAD zonal réseau Aléop - Pays de la Loire"],"lt":0,"dept":"44"}},{"type":"Feature","geometry":{"type":"Point","coordinates":[-1.41883,47.66448]},"properties":{"nom":"LA RIOLAIS - LOUISFERT","ag":["TAD zonal réseau Aléop - Pays de la Loire"],"lt":0,"dept":"44"}},{"type":"Feature","geometry":{"type":"Point","coordinates":[-2.10226,47.20551]},"properties":{"nom":"LA RIVERAIS - SAINT-PERE-EN-RETZ","ag":["TAD zonal réseau Aléop - Pays de la Loire"],"lt":0,"dept":"44"}},{"type":"Feature","geometry":{"type":"Point","coordinates":[-1.75482,46.99859]},"properties":{"nom":"LA RIVIERE - LA MARNE","ag":["TAD zonal réseau Aléop - Pays de la Loire"],"lt":0,"dept":"44"}},{"type":"Feature","geometry":{"type":"Point","coordinates":[-1.65773,46.9226]},"properties":{"nom":"LA RIVIERE - TOUVOIS","ag":["TAD zonal réseau Aléop - Pays de la Loire"],"lt":0,"dept":"44"}},{"type":"Feature","geometry":{"type":"Point","coordinates":[-1.75579,47.54009]},"properties":{"nom":"LA ROBERDAIS - LE GAVRE","ag":["TAD zonal réseau Aléop - Pays de la Loire"],"lt":0,"dept":"44"}},{"type":"Feature","geometry":{"type":"Point","coordinates":[-1.68098,47.68312]},"properties":{"nom":"LA ROBINAIS - DERVAL","ag":["TAD zonal réseau Aléop - Pays de la Loire"],"lt":0,"dept":"44"}},{"type":"Feature","geometry":{"type":"Point","coordinates":[-2.04629,47.09622]},"properties":{"nom":"LA ROGERE - LA BERNERIE-EN-RETZ","ag":["TAD zonal réseau Aléop - Pays de la Loire"],"lt":0,"dept":"44"}},{"type":"Feature","geometry":{"type":"Point","coordinates":[-2.13938,47.22995]},"properties":{"nom":"LA ROLLANDERIE - SAINT-BREVIN-LES-PINS","ag":["TAD zonal réseau Aléop - Pays de la Loire"],"lt":0,"dept":"44"}},{"type":"Feature","geometry":{"type":"Point","coordinates":[-1.65827,47.47799]},"properties":{"nom":"LA ROTTE DES BOIS - LA CHEVALLERAIS","ag":["TAD zonal réseau Aléop - Pays de la Loire"],"lt":0,"dept":"44"}},{"type":"Feature","geometry":{"type":"Point","coordinates":[-2.1533,47.19624]},"properties":{"nom":"LA ROUSSELLERIE - SAINT-MICHEL-CHEF-CHEF","ag":["TAD zonal réseau Aléop - Pays de la Loire"],"lt":0,"dept":"44"}},{"type":"Feature","geometry":{"type":"Point","coordinates":[-1.57781,46.97578]},"properties":{"nom":"LA SALLE - SAINT-COLOMBAN","ag":["TAD zonal réseau Aléop - Pays de la Loire"],"lt":0,"dept":"44"}},{"type":"Feature","geometry":{"type":"Point","coordinates":[-1.93387,47.19234]},"properties":{"nom":"LA SAUVAGEAIS - VUE","ag":["TAD zonal réseau Aléop - Pays de la Loire"],"lt":0,"dept":"44"}},{"type":"Feature","geometry":{"type":"Point","coordinates":[-1.62544,47.57865]},"properties":{"nom":"LA SERVAIS COVOIT - NOZAY","ag":["TAD zonal réseau Aléop - Pays de la Loire"],"lt":0,"dept":"44"}},{"type":"Feature","geometry":{"type":"Point","coordinates":[-1.66979,47.40232]},"properties":{"nom":"LA SERVANTIERE - HERIC","ag":["TAD zonal réseau Aléop - Pays de la Loire"],"lt":0,"dept":"44"}},{"type":"Feature","geometry":{"type":"Point","coordinates":[-1.94749,47.18734]},"properties":{"nom":"LA SICAUDAIS - CHAUMES-EN-RETZ (ARTHON-EN-RETZ)","ag":["TAD zonal réseau Aléop - Pays de la Loire"],"lt":0,"dept":"44"}},{"type":"Feature","geometry":{"type":"Point","coordinates":[-1.63694,46.96518]},"properties":{"nom":"LA SIMAILLE - CORCOUE-SUR-LOGNE","ag":["TAD zonal réseau Aléop - Pays de la Loire"],"lt":0,"dept":"44"}},{"type":"Feature","geometry":{"type":"Point","coordinates":[-1.69907,47.02988]},"properties":{"nom":"LA SOHERIE - SAINT-PHILBERT-DE-GRAND-LIEU","ag":["TAD zonal réseau Aléop - Pays de la Loire"],"lt":0,"dept":"44"}},{"type":"Feature","geometry":{"type":"Point","coordinates":[-1.79263,47.47197]},"properties":{"nom":"LA SUARDAIS - BLAIN","ag":["TAD zonal réseau Aléop - Pays de la Loire"],"lt":0,"dept":"44"}},{"type":"Feature","geometry":{"type":"Point","coordinates":[-1.80095,47.17917]},"properties":{"nom":"LA TANCHERIE - CHEIX-EN-RETZ","ag":["TAD zonal réseau Aléop - Pays de la Loire"],"lt":0,"dept":"44"}},{"type":"Feature","geometry":{"type":"Point","coordinates":[-2.2211,47.15331]},"properties":{"nom":"LA TARA - LA PLAINE-SUR-MER","ag":["TAD zonal réseau Aléop - Pays de la Loire"],"lt":0,"dept":"44"}},{"type":"Feature","geometry":{"type":"Point","coordinates":[-1.64393,47.5667]},"properties":{"nom":"LA TARDIVIERE - NOZAY","ag":["TAD zonal réseau Aléop - Pays de la Loire"],"lt":0,"dept":"44"}},{"type":"Feature","geometry":{"type":"Point","coordinates":[-1.93367,47.09653]},"properties":{"nom":"LA TARTOUZERIE - SAINT-HILAIRE-DE-CHALEONS","ag":["TAD zonal réseau Aléop - Pays de la Loire"],"lt":0,"dept":"44"}},{"type":"Feature","geometry":{"type":"Point","coordinates":[-1.21837,47.68079]},"properties":{"nom":"LA TEILLAIS - JUIGNE-DES-MOUTIERS","ag":["TAD zonal réseau Aléop - Pays de la Loire"],"lt":0,"dept":"44"}},{"type":"Feature","geometry":{"type":"Point","coordinates":[-1.47542,47.0662]},"properties":{"nom":"LA TEILLAIS - MONTBERT","ag":["TAD zonal réseau Aléop - Pays de la Loire"],"lt":0,"dept":"44"}},{"type":"Feature","geometry":{"type":"Point","coordinates":[-1.8645,47.09477]},"properties":{"nom":"LA THIBAUDIERE - SAINT-HILAIRE-DE-CHALEONS","ag":["TAD zonal réseau Aléop - Pays de la Loire"],"lt":0,"dept":"44"}},{"type":"Feature","geometry":{"type":"Point","coordinates":[-1.42573,47.62521]},"properties":{"nom":"LA THIOLAIS - ISSE","ag":["TAD zonal réseau Aléop - Pays de la Loire"],"lt":0,"dept":"44"}},{"type":"Feature","geometry":{"type":"Point","coordinates":[-1.59066,47.0959]},"properties":{"nom":"LA THUILIERE - LA CHEVROLIERE","ag":["TAD zonal réseau Aléop - Pays de la Loire"],"lt":0,"dept":"44"}},{"type":"Feature","geometry":{"type":"Point","coordinates":[-1.82179,47.13733]},"properties":{"nom":"LA TINDIERE - ROUANS","ag":["TAD zonal réseau Aléop - Pays de la Loire"],"lt":0,"dept":"44"}},{"type":"Feature","geometry":{"type":"Point","coordinates":[-1.61298,46.9894]},"properties":{"nom":"LA TOUCHE MONNET - LA LIMOUZINIERE","ag":["TAD zonal réseau Aléop - Pays de la Loire"],"lt":0,"dept":"44"}},{"type":"Feature","geometry":{"type":"Point","coordinates":[-1.55883,47.15373]},"properties":{"nom":"LA TOURNELLE - PONT-SAINT-MARTIN","ag":["TAD zonal réseau Aléop - Pays de la Loire"],"lt":0,"dept":"44"}},{"type":"Feature","geometry":{"type":"Point","coordinates":[-1.30632,47.17303]},"properties":{"nom":"LA TOURNERIE - VALLET","ag":["TAD zonal réseau Aléop - Pays de la Loire"],"lt":0,"dept":"44"}},{"type":"Feature","geometry":{"type":"Point","coordinates":[-1.73306,46.99029]},"properties":{"nom":"LA TREMBLEE - LA MARNE","ag":["TAD zonal réseau Aléop - Pays de la Loire"],"lt":0,"dept":"44"}},{"type":"Feature","geometry":{"type":"Point","coordinates":[-1.73935,47.0383]},"properties":{"nom":"LA TUROILLERIE - SAINT-LUMINE-DE-COUTAIS","ag":["TAD zonal réseau Aléop - Pays de la Loire"],"lt":0,"dept":"44"}},{"type":"Feature","geometry":{"type":"Point","coordinates":[-1.63192,47.06028]},"properties":{"nom":"LA VANNERIE - SAINT-PHILBERT-DE-GRAND-LIEU","ag":["TAD zonal réseau Aléop - Pays de la Loire"],"lt":0,"dept":"44"}},{"type":"Feature","geometry":{"type":"Point","coordinates":[-1.60806,47.41103]},"properties":{"nom":"LA VERDINIERE - HERIC","ag":["TAD zonal réseau Aléop - Pays de la Loire"],"lt":0,"dept":"44"}},{"type":"Feature","geometry":{"type":"Point","coordinates":[-1.5991,47.57343]},"properties":{"nom":"LA VILLATTE - NOZAY","ag":["TAD zonal réseau Aléop - Pays de la Loire"],"lt":0,"dept":"44"}},{"type":"Feature","geometry":{"type":"Point","coordinates":[-1.38292,47.70583]},"properties":{"nom":"LA VILLE EN BOIS - CHATEAUBRIANT","ag":["TAD zonal réseau Aléop - Pays de la Loire"],"lt":0,"dept":"44"}},{"type":"Feature","geometry":{"type":"Point","coordinates":[-1.54549,47.12896]},"properties":{"nom":"LA VINCEE - PONT-SAINT-MARTIN","ag":["TAD zonal réseau Aléop - Pays de la Loire"],"lt":0,"dept":"44"}},{"type":"Feature","geometry":{"type":"Point","coordinates":[-1.71152,47.05393]},"properties":{"nom":"LA VINETTE - SAINT-LUMINE-DE-COUTAIS","ag":["TAD zonal réseau Aléop - Pays de la Loire"],"lt":0,"dept":"44"}},{"type":"Feature","geometry":{"type":"Point","coordinates":[-1.362,47.66838]},"properties":{"nom":"LANDELLES - ERBRAY","ag":["TAD zonal réseau Aléop - Pays de la Loire"],"lt":0,"dept":"44"}},{"type":"Feature","geometry":{"type":"Point","coordinates":[-1.54066,47.45743]},"properties":{"nom":"LANGUIN - NORT-SUR-ERDRE","ag":["TAD zonal réseau Aléop - Pays de la Loire"],"lt":0,"dept":"44"}},{"type":"Feature","geometry":{"type":"Point","coordinates":[-1.82745,47.19698]},"properties":{"nom":"LAUNAY - ROUANS","ag":["TAD zonal réseau Aléop - Pays de la Loire"],"lt":0,"dept":"44"}},{"type":"Feature","geometry":{"type":"Point","coordinates":[-1.71477,47.60824]},"properties":{"nom":"LAUNAY DE BOUIN - MARSAC-SUR-DON","ag":["TAD zonal réseau Aléop - Pays de la Loire"],"lt":0,"dept":"44"}},{"type":"Feature","geometry":{"type":"Point","coordinates":[-1.66191,47.4566]},"properties":{"nom":"LAVAU - LA CHEVALLERAIS","ag":["TAD zonal réseau Aléop - Pays de la Loire"],"lt":0,"dept":"44"}},{"type":"Feature","geometry":{"type":"Point","coordinates":[-1.34634,47.19611]},"properties":{"nom":"LE BAS BRIACE - LE LANDREAU","ag":["TAD zonal réseau Aléop - Pays de la Loire"],"lt":0,"dept":"44"}},{"type":"Feature","geometry":{"type":"Point","coordinates":[-1.40749,47.5835]},"properties":{"nom":"LE BAS FOUY - LA MEILLERAYE-DE-BRETAGNE","ag":["TAD zonal réseau Aléop - Pays de la Loire"],"lt":0,"dept":"44"}},