{"type":"FeatureCollection","features":[{"type":"Feature","geometry":{"type":"Point","coordinates":[1.61227,47.76761]},"properties":{"nom":"Centre Commercial RN152","ag":["Réseau interurbain Rémi","Agrégat des réseaux urbains et interurbains du Centre-Val-de-Loire"],"lt":1,"dept":"45"}},{"type":"Feature","geometry":{"type":"Point","coordinates":[1.61895,47.7867]},"properties":{"nom":"Lycée F. Villon","ag":["Réseau interurbain Rémi","Agrégat des réseaux urbains et interurbains du Centre-Val-de-Loire"],"lt":1,"dept":"45"}},{"type":"Feature","geometry":{"type":"Point","coordinates":[1.62956,47.77944]},"properties":{"nom":"Rue Nationale","ag":["Réseau interurbain Rémi","Agrégat des réseaux urbains et interurbains du Centre-Val-de-Loire"],"lt":1,"dept":"45"}},{"type":"Feature","geometry":{"type":"Point","coordinates":[1.6121,47.76749]},"properties":{"nom":"Centre Commercial RN152","ag":["Réseau interurbain Rémi","Agrégat des réseaux urbains et interurbains du Centre-Val-de-Loire"],"lt":0,"dept":"45"}},{"type":"Feature","geometry":{"type":"Point","coordinates":[1.62905,47.77908]},"properties":{"nom":"Rue Nationale","ag":["Réseau interurbain Rémi","Agrégat des réseaux urbains et interurbains du Centre-Val-de-Loire"],"lt":0,"dept":"45"}},{"type":"Feature","geometry":{"type":"Point","coordinates":[1.63007,47.7798]},"properties":{"nom":"Rue Nationale","ag":["Réseau interurbain Rémi","Agrégat des réseaux urbains et interurbains du Centre-Val-de-Loire"],"lt":0,"dept":"45"}},{"type":"Feature","geometry":{"type":"Point","coordinates":[1.61244,47.76773]},"properties":{"nom":"Centre Commercial RN152","ag":["Réseau interurbain Rémi","Agrégat des réseaux urbains et interurbains du Centre-Val-de-Loire"],"lt":0,"dept":"45"}},{"type":"Feature","geometry":{"type":"Point","coordinates":[2.66219,47.86493]},"properties":{"nom":"Mairie","ag":["Réseau interurbain Rémi","Agrégat des réseaux urbains et interurbains du Centre-Val-de-Loire"],"lt":1,"dept":"45"}},{"type":"Feature","geometry":{"type":"Point","coordinates":[2.57265,47.85675]},"properties":{"nom":"Route de Lorris","ag":["Réseau interurbain Rémi","Agrégat des réseaux urbains et interurbains du Centre-Val-de-Loire"],"lt":1,"dept":"45"}},{"type":"Feature","geometry":{"type":"Point","coordinates":[2.80737,47.90472]},"properties":{"nom":"Mairie/Ecole","ag":["Réseau interurbain Rémi","Agrégat des réseaux urbains et interurbains du Centre-Val-de-Loire"],"lt":1,"dept":"45"}},{"type":"Feature","geometry":{"type":"Point","coordinates":[2.80522,47.91177]},"properties":{"nom":"la Bonne Dame","ag":["Réseau interurbain Rémi","Agrégat des réseaux urbains et interurbains du Centre-Val-de-Loire"],"lt":1,"dept":"45"}},{"type":"Feature","geometry":{"type":"Point","coordinates":[2.80473,47.92207]},"properties":{"nom":"L'Orme au Muet","ag":["Réseau interurbain Rémi","Agrégat des réseaux urbains et interurbains du Centre-Val-de-Loire"],"lt":1,"dept":"45"}},{"type":"Feature","geometry":{"type":"Point","coordinates":[1.95313,47.90617]},"properties":{"nom":"Rabelais","ag":["Réseau interurbain Rémi","Agrégat des réseaux urbains et interurbains du Centre-Val-de-Loire"],"lt":1,"dept":"45"}},{"type":"Feature","geometry":{"type":"Point","coordinates":[2.82201,47.86071]},"properties":{"nom":"Route de Châtillon","ag":["Réseau interurbain Rémi","Agrégat des réseaux urbains et interurbains du Centre-Val-de-Loire"],"lt":1,"dept":"45"}},{"type":"Feature","geometry":{"type":"Point","coordinates":[2.92737,47.85228]},"properties":{"nom":"Place du monument","ag":["Réseau interurbain Rémi","Agrégat des réseaux urbains et interurbains du Centre-Val-de-Loire"],"lt":1,"dept":"45"}},{"type":"Feature","geometry":{"type":"Point","coordinates":[2.86259,47.86642]},"properties":{"nom":"Eglise","ag":["Réseau interurbain Rémi","Agrégat des réseaux urbains et interurbains du Centre-Val-de-Loire"],"lt":1,"dept":"45"}},{"type":"Feature","geometry":{"type":"Point","coordinates":[2.84498,47.82451]},"properties":{"nom":"Mairie","ag":["Réseau interurbain Rémi","Agrégat des réseaux urbains et interurbains du Centre-Val-de-Loire"],"lt":1,"dept":"45"}},{"type":"Feature","geometry":{"type":"Point","coordinates":[2.72928,47.999]},"properties":{"nom":"Perruchot","ag":["Réseau interurbain Rémi","Agrégat des réseaux urbains et interurbains du Centre-Val-de-Loire"],"lt":1,"dept":"45"}},{"type":"Feature","geometry":{"type":"Point","coordinates":[2.73261,47.7946]},"properties":{"nom":"les Perdrix","ag":["Réseau interurbain Rémi","Agrégat des réseaux urbains et interurbains du Centre-Val-de-Loire"],"lt":1,"dept":"45"}},{"type":"Feature","geometry":{"type":"Point","coordinates":[2.46634,47.90813]},"properties":{"nom":"Place de la Petite Forêt","ag":["Réseau interurbain Rémi","Agrégat des réseaux urbains et interurbains du Centre-Val-de-Loire"],"lt":1,"dept":"45"}},{"type":"Feature","geometry":{"type":"Point","coordinates":[2.14714,47.67878]},"properties":{"nom":"Mairie","ag":["Réseau interurbain Rémi","Agrégat des réseaux urbains et interurbains du Centre-Val-de-Loire"],"lt":1,"dept":"45"}},{"type":"Feature","geometry":{"type":"Point","coordinates":[2.91754,47.93233]},"properties":{"nom":"Rue du Général de Gaulle","ag":["Réseau interurbain Rémi","Agrégat des réseaux urbains et interurbains du Centre-Val-de-Loire"],"lt":1,"dept":"45"}},{"type":"Feature","geometry":{"type":"Point","coordinates":[2.72888,47.99756]},"properties":{"nom":"Lycée St-Louis","ag":["Réseau interurbain Rémi","Agrégat des réseaux urbains et interurbains du Centre-Val-de-Loire"],"lt":1,"dept":"45"}},{"type":"Feature","geometry":{"type":"Point","coordinates":[2.45239,47.93865]},"properties":{"nom":"Route de Bellegarde","ag":["Réseau interurbain Rémi","Agrégat des réseaux urbains et interurbains du Centre-Val-de-Loire"],"lt":1,"dept":"45"}},{"type":"Feature","geometry":{"type":"Point","coordinates":[2.00963,47.90061]},"properties":{"nom":"Godet","ag":["Réseau interurbain Rémi","Agrégat des réseaux urbains et interurbains du Centre-Val-de-Loire"],"lt":1,"dept":"45"}},{"type":"Feature","geometry":{"type":"Point","coordinates":[2.65951,47.82017]},"properties":{"nom":"Mairie","ag":["Réseau interurbain Rémi","Agrégat des réseaux urbains et interurbains du Centre-Val-de-Loire"],"lt":1,"dept":"45"}},{"type":"Feature","geometry":{"type":"Point","coordinates":[2.72063,47.78727]},"properties":{"nom":"Rue de l'Etang","ag":["Réseau interurbain Rémi","Agrégat des réseaux urbains et interurbains du Centre-Val-de-Loire"],"lt":1,"dept":"45"}},{"type":"Feature","geometry":{"type":"Point","coordinates":[2.67537,47.79792]},"properties":{"nom":"Eglise","ag":["Réseau interurbain Rémi","Agrégat des réseaux urbains et interurbains du Centre-Val-de-Loire"],"lt":1,"dept":"45"}},{"type":"Feature","geometry":{"type":"Point","coordinates":[2.11253,47.97603]},"properties":{"nom":"Collège","ag":["Réseau interurbain Rémi","Agrégat des réseaux urbains et interurbains du Centre-Val-de-Loire"],"lt":1,"dept":"45"}},{"type":"Feature","geometry":{"type":"Point","coordinates":[1.83559,47.88905]},"properties":{"nom":"Tilleuls","ag":["Réseau interurbain Rémi","Agrégat des réseaux urbains et interurbains du Centre-Val-de-Loire"],"lt":1,"dept":"45"}},{"type":"Feature","geometry":{"type":"Point","coordinates":[1.94157,47.71434]},"properties":{"nom":"Pomme de Pin","ag":["Réseau interurbain Rémi","Agrégat des réseaux urbains et interurbains du Centre-Val-de-Loire"],"lt":1,"dept":"45"}},{"type":"Feature","geometry":{"type":"Point","coordinates":[1.93942,47.90414]},"properties":{"nom":"Saint-Loup","ag":["Réseau interurbain Rémi","Agrégat des réseaux urbains et interurbains du Centre-Val-de-Loire"],"lt":1,"dept":"45"}},{"type":"Feature","geometry":{"type":"Point","coordinates":[2.84523,47.82851]},"properties":{"nom":"Route de la Chapelle","ag":["Réseau interurbain Rémi","Agrégat des réseaux urbains et interurbains du Centre-Val-de-Loire"],"lt":1,"dept":"45"}},{"type":"Feature","geometry":{"type":"Point","coordinates":[2.02416,47.95111]},"properties":{"nom":"Villevert","ag":["Réseau interurbain Rémi","Agrégat des réseaux urbains et interurbains du Centre-Val-de-Loire"],"lt":1,"dept":"45"}},{"type":"Feature","geometry":{"type":"Point","coordinates":[2.02438,47.89716]},"properties":{"nom":"Jean Beaudoin","ag":["Réseau interurbain Rémi","Agrégat des réseaux urbains et interurbains du Centre-Val-de-Loire"],"lt":1,"dept":"45"}},{"type":"Feature","geometry":{"type":"Point","coordinates":[1.75508,47.85944]},"properties":{"nom":"Mairie","ag":["Réseau interurbain Rémi","Agrégat des réseaux urbains et interurbains du Centre-Val-de-Loire"],"lt":1,"dept":"45"}},{"type":"Feature","geometry":{"type":"Point","coordinates":[2.36554,48.1909]},"properties":{"nom":"Farrault","ag":["Réseau interurbain Rémi","Agrégat des réseaux urbains et interurbains du Centre-Val-de-Loire"],"lt":1,"dept":"45"}},{"type":"Feature","geometry":{"type":"Point","coordinates":[1.68867,47.8248]},"properties":{"nom":"Centre de Loisirs","ag":["Réseau interurbain Rémi","Agrégat des réseaux urbains et interurbains du Centre-Val-de-Loire"],"lt":1,"dept":"45"}},{"type":"Feature","geometry":{"type":"Point","coordinates":[2.43766,48.25335]},"properties":{"nom":"Mairie","ag":["Réseau interurbain Rémi","Agrégat des réseaux urbains et interurbains du Centre-Val-de-Loire"],"lt":1,"dept":"45"}},{"type":"Feature","geometry":{"type":"Point","coordinates":[1.68122,47.81902]},"properties":{"nom":"les Coutures","ag":["Réseau interurbain Rémi","Agrégat des réseaux urbains et interurbains du Centre-Val-de-Loire"],"lt":1,"dept":"45"}},{"type":"Feature","geometry":{"type":"Point","coordinates":[2.32634,48.18658]},"properties":{"nom":"Eglise","ag":["Réseau interurbain Rémi","Agrégat des réseaux urbains et interurbains du Centre-Val-de-Loire"],"lt":1,"dept":"45"}},{"type":"Feature","geometry":{"type":"Point","coordinates":[1.67141,47.81141]},"properties":{"nom":"Mairie","ag":["Réseau interurbain Rémi","Agrégat des réseaux urbains et interurbains du Centre-Val-de-Loire"],"lt":1,"dept":"45"}},{"type":"Feature","geometry":{"type":"Point","coordinates":[2.37954,48.19539]},"properties":{"nom":"Mairie/Ecole","ag":["Réseau interurbain Rémi","Agrégat des réseaux urbains et interurbains du Centre-Val-de-Loire"],"lt":1,"dept":"45"}},{"type":"Feature","geometry":{"type":"Point","coordinates":[1.61322,47.81215]},"properties":{"nom":"le Mée","ag":["Réseau interurbain Rémi","Agrégat des réseaux urbains et interurbains du Centre-Val-de-Loire"],"lt":1,"dept":"45"}},{"type":"Feature","geometry":{"type":"Point","coordinates":[2.27202,48.1567]},"properties":{"nom":"Route de Boynes","ag":["Réseau interurbain Rémi","Agrégat des réseaux urbains et interurbains du Centre-Val-de-Loire"],"lt":1,"dept":"45"}},{"type":"Feature","geometry":{"type":"Point","coordinates":[1.68049,47.83264]},"properties":{"nom":"Collège Gaston Couté","ag":["Réseau interurbain Rémi","Agrégat des réseaux urbains et interurbains du Centre-Val-de-Loire"],"lt":1,"dept":"45"}},{"type":"Feature","geometry":{"type":"Point","coordinates":[2.39916,48.11173]},"properties":{"nom":"Diamant Bleu","ag":["Réseau interurbain Rémi","Agrégat des réseaux urbains et interurbains du Centre-Val-de-Loire"],"lt":1,"dept":"45"}},{"type":"Feature","geometry":{"type":"Point","coordinates":[2.43537,48.07158]},"properties":{"nom":"Lycée agricole","ag":["Réseau interurbain Rémi","Agrégat des réseaux urbains et interurbains du Centre-Val-de-Loire"],"lt":1,"dept":"45"}},{"type":"Feature","geometry":{"type":"Point","coordinates":[1.61165,47.76717]},"properties":{"nom":"ZAC Les Portes de Sologne","ag":["Réseau interurbain Rémi","Agrégat des réseaux urbains et interurbains du Centre-Val-de-Loire"],"lt":1,"dept":"45"}},{"type":"Feature","geometry":{"type":"Point","coordinates":[2.73097,48.00023]},"properties":{"nom":"Halte Patis Office du Tourisme","ag":["Réseau interurbain Rémi","Agrégat des réseaux urbains et interurbains du Centre-Val-de-Loire"],"lt":1,"dept":"45"}},{"type":"Feature","geometry":{"type":"Point","coordinates":[2.27693,48.17806]},"properties":{"nom":"Château d'eau","ag":["Réseau interurbain Rémi","Agrégat des réseaux urbains et interurbains du Centre-Val-de-Loire"],"lt":1,"dept":"45"}},{"type":"Feature","geometry":{"type":"Point","coordinates":[1.66196,47.80407]},"properties":{"nom":"les Vallées","ag":["Réseau interurbain Rémi","Agrégat des réseaux urbains et interurbains du Centre-Val-de-Loire"],"lt":1,"dept":"45"}},{"type":"Feature","geometry":{"type":"Point","coordinates":[2.29114,48.1809]},"properties":{"nom":"Beaudrevilliers","ag":["Réseau interurbain Rémi","Agrégat des réseaux urbains et interurbains du Centre-Val-de-Loire"],"lt":1,"dept":"45"}},{"type":"Feature","geometry":{"type":"Point","coordinates":[1.57308,47.82848]},"properties":{"nom":"Mairie","ag":["Réseau interurbain Rémi","Agrégat des réseaux urbains et interurbains du Centre-Val-de-Loire"],"lt":1,"dept":"45"}},{"type":"Feature","geometry":{"type":"Point","coordinates":[2.4245,48.25124]},"properties":{"nom":"Bourg Croix aux Merles","ag":["Réseau interurbain Rémi","Agrégat des réseaux urbains et interurbains du Centre-Val-de-Loire"],"lt":1,"dept":"45"}},{"type":"Feature","geometry":{"type":"Point","coordinates":[2.7332,47.97735]},"properties":{"nom":"Saint Jacques","ag":["Réseau interurbain Rémi","Agrégat des réseaux urbains et interurbains du Centre-Val-de-Loire"],"lt":1,"dept":"45"}},{"type":"Feature","geometry":{"type":"Point","coordinates":[1.89339,47.94036]},"properties":{"nom":"La Vallée","ag":["Réseau interurbain Rémi","Agrégat des réseaux urbains et interurbains du Centre-Val-de-Loire"],"lt":1,"dept":"45"}},{"type":"Feature","geometry":{"type":"Point","coordinates":[2.37595,48.1872]},"properties":{"nom":"Eglise/Ecole","ag":["Réseau interurbain Rémi","Agrégat des réseaux urbains et interurbains du Centre-Val-de-Loire"],"lt":1,"dept":"45"}},{"type":"Feature","geometry":{"type":"Point","coordinates":[1.63483,47.78297]},"properties":{"nom":"Av. d'Orléans","ag":["Réseau interurbain Rémi","Agrégat des réseaux urbains et interurbains du Centre-Val-de-Loire"],"lt":1,"dept":"45"}},{"type":"Feature","geometry":{"type":"Point","coordinates":[2.43011,48.23524]},"properties":{"nom":"Mairie","ag":["Réseau interurbain Rémi","Agrégat des réseaux urbains et interurbains du Centre-Val-de-Loire"],"lt":1,"dept":"45"}},{"type":"Feature","geometry":{"type":"Point","coordinates":[2.09707,47.96446]},"properties":{"nom":"Trois Croix","ag":["Réseau interurbain Rémi","Agrégat des réseaux urbains et interurbains du Centre-Val-de-Loire"],"lt":1,"dept":"45"}},{"type":"Feature","geometry":{"type":"Point","coordinates":[1.63006,47.77528]},"properties":{"nom":"Collège R. Goupil","ag":["Réseau interurbain Rémi","Agrégat des réseaux urbains et interurbains du Centre-Val-de-Loire"],"lt":1,"dept":"45"}},{"type":"Feature","geometry":{"type":"Point","coordinates":[2.26608,48.17702]},"properties":{"nom":"St-Aignan","ag":["Réseau interurbain Rémi","Agrégat des réseaux urbains et interurbains du Centre-Val-de-Loire"],"lt":1,"dept":"45"}},{"type":"Feature","geometry":{"type":"Point","coordinates":[2.10668,47.97473]},"properties":{"nom":"Stade","ag":["Réseau interurbain Rémi","Agrégat des réseaux urbains et interurbains du Centre-Val-de-Loire"],"lt":1,"dept":"45"}},{"type":"Feature","geometry":{"type":"Point","coordinates":[1.62506,47.79823]},"properties":{"nom":"Vernon Eglise","ag":["Réseau interurbain Rémi","Agrégat des réseaux urbains et interurbains du Centre-Val-de-Loire"],"lt":1,"dept":"45"}},{"type":"Feature","geometry":{"type":"Point","coordinates":[2.42317,48.20789]},"properties":{"nom":"Chatillon","ag":["Réseau interurbain Rémi","Agrégat des réseaux urbains et interurbains du Centre-Val-de-Loire"],"lt":1,"dept":"45"}},{"type":"Feature","geometry":{"type":"Point","coordinates":[2.4095,48.20012]},"properties":{"nom":"Mairie/Ecole","ag":["Réseau interurbain Rémi","Agrégat des réseaux urbains et interurbains du Centre-Val-de-Loire"],"lt":1,"dept":"45"}},{"type":"Feature","geometry":{"type":"Point","coordinates":[1.61874,47.78243]},"properties":{"nom":"les Chaussées","ag":["Réseau interurbain Rémi","Agrégat des réseaux urbains et interurbains du Centre-Val-de-Loire"],"lt":1,"dept":"45"}},{"type":"Feature","geometry":{"type":"Point","coordinates":[2.38621,48.19706]},"properties":{"nom":"Auneau","ag":["Réseau interurbain Rémi","Agrégat des réseaux urbains et interurbains du Centre-Val-de-Loire"],"lt":1,"dept":"45"}},{"type":"Feature","geometry":{"type":"Point","coordinates":[1.79724,47.87491]},"properties":{"nom":"les Cigales","ag":["Réseau interurbain Rémi","Agrégat des réseaux urbains et interurbains du Centre-Val-de-Loire"],"lt":1,"dept":"45"}},{"type":"Feature","geometry":{"type":"Point","coordinates":[1.89633,47.90453]},"properties":{"nom":"Les Turbulences","ag":["Réseau interurbain Rémi","Agrégat des réseaux urbains et interurbains du Centre-Val-de-Loire"],"lt":1,"dept":"45"}},{"type":"Feature","geometry":{"type":"Point","coordinates":[2.49729,48.22644]},"properties":{"nom":"Mairie","ag":["Réseau interurbain Rémi","Agrégat des réseaux urbains et interurbains du Centre-Val-de-Loire"],"lt":1,"dept":"45"}},{"type":"Feature","geometry":{"type":"Point","coordinates":[1.86052,47.90247]},"properties":{"nom":"Trois Fontaines","ag":["Réseau interurbain Rémi","Agrégat des réseaux urbains et interurbains du Centre-Val-de-Loire"],"lt":1,"dept":"45"}},{"type":"Feature","geometry":{"type":"Point","coordinates":[2.42572,48.22707]},"properties":{"nom":"Route de Villereau","ag":["Réseau interurbain Rémi","Agrégat des réseaux urbains et interurbains du Centre-Val-de-Loire"],"lt":1,"dept":"45"}},{"type":"Feature","geometry":{"type":"Point","coordinates":[1.91329,47.90467]},"properties":{"nom":"Carré St-Vincent","ag":["Réseau interurbain Rémi","Agrégat des réseaux urbains et interurbains du Centre-Val-de-Loire"],"lt":1,"dept":"45"}},{"type":"Feature","geometry":{"type":"Point","coordinates":[1.79136,47.87278]},"properties":{"nom":"Fourneaux","ag":["Réseau interurbain Rémi","Agrégat des réseaux urbains et interurbains du Centre-Val-de-Loire"],"lt":1,"dept":"45"}},{"type":"Feature","geometry":{"type":"Point","coordinates":[2.49581,48.18641]},"properties":{"nom":"Mairie","ag":["Réseau interurbain Rémi","Agrégat des réseaux urbains et interurbains du Centre-Val-de-Loire"],"lt":1,"dept":"45"}},{"type":"Feature","geometry":{"type":"Point","coordinates":[1.59628,47.80123]},"properties":{"nom":"Mairie","ag":["Réseau interurbain Rémi","Agrégat des réseaux urbains et interurbains du Centre-Val-de-Loire"],"lt":1,"dept":"45"}},{"type":"Feature","geometry":{"type":"Point","coordinates":[2.4957,48.17336]},"properties":{"nom":"Bainvilliers","ag":["Réseau interurbain Rémi","Agrégat des réseaux urbains et interurbains du Centre-Val-de-Loire"],"lt":1,"dept":"45"}},{"type":"Feature","geometry":{"type":"Point","coordinates":[1.66762,47.80854]},"properties":{"nom":"Raimbault","ag":["Réseau interurbain Rémi","Agrégat des réseaux urbains et interurbains du Centre-Val-de-Loire"],"lt":1,"dept":"45"}},{"type":"Feature","geometry":{"type":"Point","coordinates":[1.93749,47.83467]},"properties":{"nom":"Montesquieu","ag":["Réseau interurbain Rémi","Agrégat des réseaux urbains et interurbains du Centre-Val-de-Loire"],"lt":1,"dept":"45"}},{"type":"Feature","geometry":{"type":"Point","coordinates":[2.42435,48.18988]},"properties":{"nom":"Route de Givraines","ag":["Réseau interurbain Rémi","Agrégat des réseaux urbains et interurbains du Centre-Val-de-Loire"],"lt":1,"dept":"45"}},{"type":"Feature","geometry":{"type":"Point","coordinates":[2.00123,47.90238]},"properties":{"nom":"Givroux","ag":["Réseau interurbain Rémi","Agrégat des réseaux urbains et interurbains du Centre-Val-de-Loire"],"lt":1,"dept":"45"}},{"type":"Feature","geometry":{"type":"Point","coordinates":[2.49612,48.05402]},"properties":{"nom":"Eglise","ag":["Réseau interurbain Rémi","Agrégat des réseaux urbains et interurbains du Centre-Val-de-Loire"],"lt":1,"dept":"45"}},{"type":"Feature","geometry":{"type":"Point","coordinates":[2.0525,47.89227]},"properties":{"nom":"Pont aux Moines","ag":["Réseau interurbain Rémi","Agrégat des réseaux urbains et interurbains du Centre-Val-de-Loire"],"lt":1,"dept":"45"}},{"type":"Feature","geometry":{"type":"Point","coordinates":[2.48316,48.08772]},"properties":{"nom":"Juranville Gare","ag":["Réseau interurbain Rémi","Agrégat des réseaux urbains et interurbains du Centre-Val-de-Loire"],"lt":1,"dept":"45"}},{"type":"Feature","geometry":{"type":"Point","coordinates":[2.48341,48.11918]},"properties":{"nom":"Le Vau","ag":["Réseau interurbain Rémi","Agrégat des réseaux urbains et interurbains du Centre-Val-de-Loire"],"lt":1,"dept":"45"}},{"type":"Feature","geometry":{"type":"Point","coordinates":[2.02121,47.76576]},"properties":{"nom":"Rue d'Orléans","ag":["Réseau interurbain Rémi","Agrégat des réseaux urbains et interurbains du Centre-Val-de-Loire"],"lt":1,"dept":"45"}},{"type":"Feature","geometry":{"type":"Point","coordinates":[2.48142,48.10799]},"properties":{"nom":"Chauffour","ag":["Réseau interurbain Rémi","Agrégat des réseaux urbains et interurbains du Centre-Val-de-Loire"],"lt":1,"dept":"45"}},{"type":"Feature","geometry":{"type":"Point","coordinates":[2.04047,47.89401]},"properties":{"nom":"Croix de Reuilly","ag":["Réseau interurbain Rémi","Agrégat des réseaux urbains et interurbains du Centre-Val-de-Loire"],"lt":1,"dept":"45"}},{"type":"Feature","geometry":{"type":"Point","coordinates":[1.9477,47.82009]},"properties":{"nom":"Gare SNCF","ag":["Réseau interurbain Rémi","Agrégat des réseaux urbains et interurbains du Centre-Val-de-Loire"],"lt":1,"dept":"45"}},{"type":"Feature","geometry":{"type":"Point","coordinates":[2.66684,48.01819]},"properties":{"nom":"Eglise","ag":["Réseau interurbain Rémi","Agrégat des réseaux urbains et interurbains du Centre-Val-de-Loire"],"lt":1,"dept":"45"}},{"type":"Feature","geometry":{"type":"Point","coordinates":[1.94773,47.712]},"properties":{"nom":"Frémillon","ag":["Réseau interurbain Rémi","Agrégat des réseaux urbains et interurbains du Centre-Val-de-Loire"],"lt":1,"dept":"45"}},{"type":"Feature","geometry":{"type":"Point","coordinates":[2.63537,48.03964]},"properties":{"nom":"Gare Renards","ag":["Réseau interurbain Rémi","Agrégat des réseaux urbains et interurbains du Centre-Val-de-Loire"],"lt":1,"dept":"45"}},{"type":"Feature","geometry":{"type":"Point","coordinates":[1.94143,47.71959]},"properties":{"nom":"Place Charles de Gaulle","ag":["Réseau interurbain Rémi","Agrégat des réseaux urbains et interurbains du Centre-Val-de-Loire"],"lt":1,"dept":"45"}},{"type":"Feature","geometry":{"type":"Point","coordinates":[2.63099,48.04273]},"properties":{"nom":"Gare Renards","ag":["Réseau interurbain Rémi","Agrégat des réseaux urbains et interurbains du Centre-Val-de-Loire"],"lt":1,"dept":"45"}},{"type":"Feature","geometry":{"type":"Point","coordinates":[2.41539,48.27505]},"properties":{"nom":"Malesherbes Trézan","ag":["Réseau interurbain Rémi","Agrégat des réseaux urbains et interurbains du Centre-Val-de-Loire"],"lt":1,"dept":"45"}},{"type":"Feature","geometry":{"type":"Point","coordinates":[2.48452,48.05992]},"properties":{"nom":"Pavé de Juranville","ag":["Réseau interurbain Rémi","Agrégat des réseaux urbains et interurbains du Centre-Val-de-Loire"],"lt":1,"dept":"45"}},{"type":"Feature","geometry":{"type":"Point","coordinates":[2.08564,48.00135]},"properties":{"nom":"Place de l'Eglise","ag":["Réseau interurbain Rémi","Agrégat des réseaux urbains et interurbains du Centre-Val-de-Loire"],"lt":1,"dept":"45"}},{"type":"Feature","geometry":{"type":"Point","coordinates":[2.2718,48.15874]},"properties":{"nom":"Eglise","ag":["Réseau interurbain Rémi","Agrégat des réseaux urbains et interurbains du Centre-Val-de-Loire"],"lt":1,"dept":"45"}},{"type":"Feature","geometry":{"type":"Point","coordinates":[2.75424,48.01011]},"properties":{"nom":"Lycée-en-Forêt Rte de Paucourt","ag":["Réseau interurbain Rémi","Agrégat des réseaux urbains et interurbains du Centre-Val-de-Loire"],"lt":1,"dept":"45"}},{"type":"Feature","geometry":{"type":"Point","coordinates":[2.04541,47.98786]},"properties":{"nom":"Eglise","ag":["Réseau interurbain Rémi","Agrégat des réseaux urbains et interurbains du Centre-Val-de-Loire"],"lt":1,"dept":"45"}},{"type":"Feature","geometry":{"type":"Point","coordinates":[2.6246,48.04723]},"properties":{"nom":"Rue du Moulin","ag":["Réseau interurbain Rémi","Agrégat des réseaux urbains et interurbains du Centre-Val-de-Loire"],"lt":1,"dept":"45"}},{"type":"Feature","geometry":{"type":"Point","coordinates":[2.60002,48.05405]},"properties":{"nom":"Route de Montargis","ag":["Réseau interurbain Rémi","Agrégat des réseaux urbains et interurbains du Centre-Val-de-Loire"],"lt":1,"dept":"45"}},{"type":"Feature","geometry":{"type":"Point","coordinates":[2.54962,48.07216]},"properties":{"nom":"Eglise/Halle","ag":["Réseau interurbain Rémi","Agrégat des réseaux urbains et interurbains du Centre-Val-de-Loire"],"lt":1,"dept":"45"}},{"type":"Feature","geometry":{"type":"Point","coordinates":[2.03462,47.89493]},"properties":{"nom":"Chartreux","ag":["Réseau interurbain Rémi","Agrégat des réseaux urbains et interurbains du Centre-Val-de-Loire"],"lt":1,"dept":"45"}},{"type":"Feature","geometry":{"type":"Point","coordinates":[2.42733,48.22803]},"properties":{"nom":"Mairie","ag":["Réseau interurbain Rémi","Agrégat des réseaux urbains et interurbains du Centre-Val-de-Loire"],"lt":1,"dept":"45"}},{"type":"Feature","geometry":{"type":"Point","coordinates":[2.53372,48.05613]},"properties":{"nom":"Place St-Aignan","ag":["Réseau interurbain Rémi","Agrégat des réseaux urbains et interurbains du Centre-Val-de-Loire"],"lt":1,"dept":"45"}},{"type":"Feature","geometry":{"type":"Point","coordinates":[1.94684,47.91209]},"properties":{"nom":"LEP G. Brzeska","ag":["Réseau interurbain Rémi","Agrégat des réseaux urbains et interurbains du Centre-Val-de-Loire"],"lt":1,"dept":"45"}},{"type":"Feature","geometry":{"type":"Point","coordinates":[2.08781,48.00945]},"properties":{"nom":"Charmettes","ag":["Réseau interurbain Rémi","Agrégat des réseaux urbains et interurbains du Centre-Val-de-Loire"],"lt":1,"dept":"45"}},{"type":"Feature","geometry":{"type":"Point","coordinates":[2.01729,48.2101]},"properties":{"nom":"Ecole","ag":["Réseau interurbain Rémi","Agrégat des réseaux urbains et interurbains du Centre-Val-de-Loire"],"lt":1,"dept":"45"}},{"type":"Feature","geometry":{"type":"Point","coordinates":[2.56377,47.91055]},"properties":{"nom":"Lotissement la Borde","ag":["Réseau interurbain Rémi","Agrégat des réseaux urbains et interurbains du Centre-Val-de-Loire"],"lt":1,"dept":"45"}},{"type":"Feature","geometry":{"type":"Point","coordinates":[2.20576,48.16423]},"properties":{"nom":"Mairie/Ecole","ag":["Réseau interurbain Rémi","Agrégat des réseaux urbains et interurbains du Centre-Val-de-Loire"],"lt":1,"dept":"45"}},{"type":"Feature","geometry":{"type":"Point","coordinates":[2.51733,47.88194]},"properties":{"nom":"Collège","ag":["Réseau interurbain Rémi","Agrégat des réseaux urbains et interurbains du Centre-Val-de-Loire"],"lt":1,"dept":"45"}},{"type":"Feature","geometry":{"type":"Point","coordinates":[2.03294,48.19016]},"properties":{"nom":"Gueudreville","ag":["Réseau interurbain Rémi","Agrégat des réseaux urbains et interurbains du Centre-Val-de-Loire"],"lt":1,"dept":"45"}},{"type":"Feature","geometry":{"type":"Point","coordinates":[1.74928,48.00692]},"properties":{"nom":"la Mare","ag":["Réseau interurbain Rémi","Agrégat des réseaux urbains et interurbains du Centre-Val-de-Loire"],"lt":1,"dept":"45"}},{"type":"Feature","geometry":{"type":"Point","coordinates":[2.40162,47.81223]},"properties":{"nom":"Mairie","ag":["Réseau interurbain Rémi","Agrégat des réseaux urbains et interurbains du Centre-Val-de-Loire"],"lt":1,"dept":"45"}},{"type":"Feature","geometry":{"type":"Point","coordinates":[2.1799,48.17185]},"properties":{"nom":"Fresnay les Chaumes","ag":["Réseau interurbain Rémi","Agrégat des réseaux urbains et interurbains du Centre-Val-de-Loire"],"lt":1,"dept":"45"}},{"type":"Feature","geometry":{"type":"Point","coordinates":[1.91663,47.89293]},"properties":{"nom":"Eglise","ag":["Réseau interurbain Rémi","Agrégat des réseaux urbains et interurbains du Centre-Val-de-Loire"],"lt":1,"dept":"45"}},{"type":"Feature","geometry":{"type":"Point","coordinates":[1.73925,48.01012]},"properties":{"nom":"Eglise","ag":["Réseau interurbain Rémi","Agrégat des réseaux urbains et interurbains du Centre-Val-de-Loire"],"lt":1,"dept":"45"}},{"type":"Feature","geometry":{"type":"Point","coordinates":[1.92328,47.91225]},"properties":{"nom":"Droits de l'Homme","ag":["Réseau interurbain Rémi","Agrégat des réseaux urbains et interurbains du Centre-Val-de-Loire"],"lt":1,"dept":"45"}},{"type":"Feature","geometry":{"type":"Point","coordinates":[2.18646,48.16943]},"properties":{"nom":"Fresnay R. d Paradis","ag":["Réseau interurbain Rémi","Agrégat des réseaux urbains et interurbains du Centre-Val-de-Loire"],"lt":1,"dept":"45"}},{"type":"Feature","geometry":{"type":"Point","coordinates":[2.01405,47.85146]},"properties":{"nom":"Champvallins","ag":["Réseau interurbain Rémi","Agrégat des réseaux urbains et interurbains du Centre-Val-de-Loire"],"lt":1,"dept":"45"}},{"type":"Feature","geometry":{"type":"Point","coordinates":[1.55111,48.00943]},"properties":{"nom":"Eglise","ag":["Réseau interurbain Rémi","Agrégat des réseaux urbains et interurbains du Centre-Val-de-Loire"],"lt":1,"dept":"45"}},{"type":"Feature","geometry":{"type":"Point","coordinates":[2.26636,47.84611]},"properties":{"nom":"Route de St Martin","ag":["Réseau interurbain Rémi","Agrégat des réseaux urbains et interurbains du Centre-Val-de-Loire"],"lt":1,"dept":"45"}},{"type":"Feature","geometry":{"type":"Point","coordinates":[2.22808,48.16006]},"properties":{"nom":"Morailles","ag":["Réseau interurbain Rémi","Agrégat des réseaux urbains et interurbains du Centre-Val-de-Loire"],"lt":1,"dept":"45"}},{"type":"Feature","geometry":{"type":"Point","coordinates":[2.03422,47.84691]},"properties":{"nom":"Place du 11 Novembre","ag":["Réseau interurbain Rémi","Agrégat des réseaux urbains et interurbains du Centre-Val-de-Loire"],"lt":1,"dept":"45"}},{"type":"Feature","geometry":{"type":"Point","coordinates":[2.36647,47.83188]},"properties":{"nom":"La Fontaine Saint Jacques","ag":["Réseau interurbain Rémi","Agrégat des réseaux urbains et interurbains du Centre-Val-de-Loire"],"lt":1,"dept":"45"}},{"type":"Feature","geometry":{"type":"Point","coordinates":[2.10927,48.16317]},"properties":{"nom":"Rue du Château","ag":["Réseau interurbain Rémi","Agrégat des réseaux urbains et interurbains du Centre-Val-de-Loire"],"lt":1,"dept":"45"}},{"type":"Feature","geometry":{"type":"Point","coordinates":[2.27596,47.80397]},"properties":{"nom":"Eglise","ag":["Réseau interurbain Rémi","Agrégat des réseaux urbains et interurbains du Centre-Val-de-Loire"],"lt":1,"dept":"45"}},{"type":"Feature","geometry":{"type":"Point","coordinates":[1.70602,48.03283]},"properties":{"nom":"Lignerolles","ag":["Réseau interurbain Rémi","Agrégat des réseaux urbains et interurbains du Centre-Val-de-Loire"],"lt":1,"dept":"45"}},{"type":"Feature","geometry":{"type":"Point","coordinates":[2.37843,47.78875]},"properties":{"nom":"Bricomarché","ag":["Réseau interurbain Rémi","Agrégat des réseaux urbains et interurbains du Centre-Val-de-Loire"],"lt":1,"dept":"45"}},{"type":"Feature","geometry":{"type":"Point","coordinates":[2.54344,47.69829]},"properties":{"nom":"Mairie","ag":["Réseau interurbain Rémi","Agrégat des réseaux urbains et interurbains du Centre-Val-de-Loire"],"lt":1,"dept":"45"}},{"type":"Feature","geometry":{"type":"Point","coordinates":[2.07994,47.8532]},"properties":{"nom":"les Pointes","ag":["Réseau interurbain Rémi","Agrégat des réseaux urbains et interurbains du Centre-Val-de-Loire"],"lt":1,"dept":"45"}},{"type":"Feature","geometry":{"type":"Point","coordinates":[1.70109,47.92915]},"properties":{"nom":"Bagatelle","ag":["Réseau interurbain Rémi","Agrégat des réseaux urbains et interurbains du Centre-Val-de-Loire"],"lt":1,"dept":"45"}},{"type":"Feature","geometry":{"type":"Point","coordinates":[2.25792,47.86022]},"properties":{"nom":"les Brosses","ag":["Réseau interurbain Rémi","Agrégat des réseaux urbains et interurbains du Centre-Val-de-Loire"],"lt":1,"dept":"45"}},{"type":"Feature","geometry":{"type":"Point","coordinates":[2.71721,47.50859]},"properties":{"nom":"Salle des Fêtes","ag":["Réseau interurbain Rémi","Agrégat des réseaux urbains et interurbains du Centre-Val-de-Loire"],"lt":1,"dept":"45"}},{"type":"Feature","geometry":{"type":"Point","coordinates":[2.09622,47.85638]},"properties":{"nom":"Mairie","ag":["Réseau interurbain Rémi","Agrégat des réseaux urbains et interurbains du Centre-Val-de-Loire"],"lt":1,"dept":"45"}},{"type":"Feature","geometry":{"type":"Point","coordinates":[1.87423,47.91309]},"properties":{"nom":"Mairie St-Jean-de-la-Ruelle","ag":["Réseau interurbain Rémi","Agrégat des réseaux urbains et interurbains du Centre-Val-de-Loire"],"lt":1,"dept":"45"}},{"type":"Feature","geometry":{"type":"Point","coordinates":[2.54632,47.94845]},"properties":{"nom":"Ecole","ag":["Réseau interurbain Rémi","Agrégat des réseaux urbains et interurbains du Centre-Val-de-Loire"],"lt":1,"dept":"45"}},{"type":"Feature","geometry":{"type":"Point","coordinates":[2.12202,47.86767]},"properties":{"nom":"Bvd Jeanne-d'Arc","ag":["Réseau interurbain Rémi","Agrégat des réseaux urbains et interurbains du Centre-Val-de-Loire"],"lt":1,"dept":"45"}},{"type":"Feature","geometry":{"type":"Point","coordinates":[1.62786,47.98928]},"properties":{"nom":"Nids","ag":["Réseau interurbain Rémi","Agrégat des réseaux urbains et interurbains du Centre-Val-de-Loire"],"lt":1,"dept":"45"}},{"type":"Feature","geometry":{"type":"Point","coordinates":[2.37265,47.77483]},"properties":{"nom":"Mairie","ag":["Réseau interurbain Rémi","Agrégat des réseaux urbains et interurbains du Centre-Val-de-Loire"],"lt":1,"dept":"45"}},{"type":"Feature","geometry":{"type":"Point","coordinates":[2.04169,48.16631]},"properties":{"nom":"Salle des Fêtes","ag":["Réseau interurbain Rémi","Agrégat des réseaux urbains et interurbains du Centre-Val-de-Loire"],"lt":1,"dept":"45"}},{"type":"Feature","geometry":{"type":"Point","coordinates":[2.12287,47.86162]},"properties":{"nom":"Croix Rouge","ag":["Réseau interurbain Rémi","Agrégat des réseaux urbains et interurbains du Centre-Val-de-Loire"],"lt":1,"dept":"45"}},{"type":"Feature","geometry":{"type":"Point","coordinates":[1.77821,48.00087]},"properties":{"nom":"Eglise","ag":["Réseau interurbain Rémi","Agrégat des réseaux urbains et interurbains du Centre-Val-de-Loire"],"lt":1,"dept":"45"}},{"type":"Feature","geometry":{"type":"Point","coordinates":[2.52409,47.91454]},"properties":{"nom":"Salle Polyvalente","ag":["Réseau interurbain Rémi","Agrégat des réseaux urbains et interurbains du Centre-Val-de-Loire"],"lt":1,"dept":"45"}},{"type":"Feature","geometry":{"type":"Point","coordinates":[2.00515,47.93592]},"properties":{"nom":"Grand Bouland","ag":["Réseau interurbain Rémi","Agrégat des réseaux urbains et interurbains du Centre-Val-de-Loire"],"lt":1,"dept":"45"}},{"type":"Feature","geometry":{"type":"Point","coordinates":[2.13081,47.84332]},"properties":{"nom":"la Pataudière","ag":["Réseau interurbain Rémi","Agrégat des réseaux urbains et interurbains du Centre-Val-de-Loire"],"lt":1,"dept":"45"}},{"type":"Feature","geometry":{"type":"Point","coordinates":[1.65171,48.04457]},"properties":{"nom":"Grande Rue","ag":["Réseau interurbain Rémi","Agrégat des réseaux urbains et interurbains du Centre-Val-de-Loire"],"lt":1,"dept":"45"}},{"type":"Feature","geometry":{"type":"Point","coordinates":[2.37448,47.76405]},"properties":{"nom":"Porte de Sologne","ag":["Réseau interurbain Rémi","Agrégat des réseaux urbains et interurbains du Centre-Val-de-Loire"],"lt":1,"dept":"45"}},{"type":"Feature","geometry":{"type":"Point","coordinates":[1.61259,48.03343]},"properties":{"nom":"Mairie","ag":["Réseau interurbain Rémi","Agrégat des réseaux urbains et interurbains du Centre-Val-de-Loire"],"lt":1,"dept":"45"}},{"type":"Feature","geometry":{"type":"Point","coordinates":[2.37019,47.76644]},"properties":{"nom":"St-Germain","ag":["Réseau interurbain Rémi","Agrégat des réseaux urbains et interurbains du Centre-Val-de-Loire"],"lt":1,"dept":"45"}},{"type":"Feature","geometry":{"type":"Point","coordinates":[1.99313,47.92486]},"properties":{"nom":"Rue d'Enfer","ag":["Réseau interurbain Rémi","Agrégat des réseaux urbains et interurbains du Centre-Val-de-Loire"],"lt":1,"dept":"45"}},{"type":"Feature","geometry":{"type":"Point","coordinates":[1.94506,47.84365]},"properties":{"nom":"Recherche Scientifique","ag":["Réseau interurbain Rémi","Agrégat des réseaux urbains et interurbains du Centre-Val-de-Loire"],"lt":1,"dept":"45"}},{"type":"Feature","geometry":{"type":"Point","coordinates":[2.66114,47.54016]},"properties":{"nom":"Eglise","ag":["Réseau interurbain Rémi","Agrégat des réseaux urbains et interurbains du Centre-Val-de-Loire"],"lt":1,"dept":"45"}},{"type":"Feature","geometry":{"type":"Point","coordinates":[1.95193,47.91028]},"properties":{"nom":"la Pointe","ag":["Réseau interurbain Rémi","Agrégat des réseaux urbains et interurbains du Centre-Val-de-Loire"],"lt":1,"dept":"45"}},{"type":"Feature","geometry":{"type":"Point","coordinates":[2.68103,47.64676]},"properties":{"nom":"Mairie/Ecole","ag":["Réseau interurbain Rémi","Agrégat des réseaux urbains et interurbains du Centre-Val-de-Loire"],"lt":1,"dept":"45"}},{"type":"Feature","geometry":{"type":"Point","coordinates":[1.66378,47.93168]},"properties":{"nom":"Mairie","ag":["Réseau interurbain Rémi","Agrégat des réseaux urbains et interurbains du Centre-Val-de-Loire"],"lt":1,"dept":"45"}},{"type":"Feature","geometry":{"type":"Point","coordinates":[2.23745,47.86076]},"properties":{"nom":"Gendarmerie","ag":["Réseau interurbain Rémi","Agrégat des réseaux urbains et interurbains du Centre-Val-de-Loire"],"lt":1,"dept":"45"}},{"type":"Feature","geometry":{"type":"Point","coordinates":[2.62969,47.66515]},"properties":{"nom":"Lucy","ag":["Réseau interurbain Rémi","Agrégat des réseaux urbains et interurbains du Centre-Val-de-Loire"],"lt":1,"dept":"45"}},{"type":"Feature","geometry":{"type":"Point","coordinates":[1.58011,47.92856]},"properties":{"nom":"Eglise","ag":["Réseau interurbain Rémi","Agrégat des réseaux urbains et interurbains du Centre-Val-de-Loire"],"lt":1,"dept":"45"}},{"type":"Feature","geometry":{"type":"Point","coordinates":[2.2285,47.862]},"properties":{"nom":"Croix de Pierre","ag":["Réseau interurbain Rémi","Agrégat des réseaux urbains et interurbains du Centre-Val-de-Loire"],"lt":1,"dept":"45"}},{"type":"Feature","geometry":{"type":"Point","coordinates":[2.73129,47.627]},"properties":{"nom":"Place du Champ de Foire","ag":["Réseau interurbain Rémi","Agrégat des réseaux urbains et interurbains du Centre-Val-de-Loire"],"lt":1,"dept":"45"}},{"type":"Feature","geometry":{"type":"Point","coordinates":[1.61758,47.94832]},"properties":{"nom":"Mairie","ag":["Réseau interurbain Rémi","Agrégat des réseaux urbains et interurbains du Centre-Val-de-Loire"],"lt":1,"dept":"45"}},{"type":"Feature","geometry":{"type":"Point","coordinates":[2.3084,47.81077]},"properties":{"nom":"La Planchette","ag":["Réseau interurbain Rémi","Agrégat des réseaux urbains et interurbains du Centre-Val-de-Loire"],"lt":1,"dept":"45"}},{"type":"Feature","geometry":{"type":"Point","coordinates":[2.71063,47.62409]},"properties":{"nom":"Rigault","ag":["Réseau interurbain Rémi","Agrégat des réseaux urbains et interurbains du Centre-Val-de-Loire"],"lt":1,"dept":"45"}},{"type":"Feature","geometry":{"type":"Point","coordinates":[1.61553,47.93871]},"properties":{"nom":"Saintry","ag":["Réseau interurbain Rémi","Agrégat des réseaux urbains et interurbains du Centre-Val-de-Loire"],"lt":1,"dept":"45"}},{"type":"Feature","geometry":{"type":"Point","coordinates":[2.40518,47.81732]},"properties":{"nom":"Collège","ag":["Réseau interurbain Rémi","Agrégat des réseaux urbains et interurbains du Centre-Val-de-Loire"],"lt":1,"dept":"45"}},{"type":"Feature","geometry":{"type":"Point","coordinates":[2.44249,47.74221]},"properties":{"nom":"Maternelle Primaire","ag":["Réseau interurbain Rémi","Agrégat des réseaux urbains et interurbains du Centre-Val-de-Loire"],"lt":1,"dept":"45"}},{"type":"Feature","geometry":{"type":"Point","coordinates":[1.90555,47.89482]},"properties":{"nom":"Place de la Bascule","ag":["Réseau interurbain Rémi","Agrégat des réseaux urbains et interurbains du Centre-Val-de-Loire"],"lt":1,"dept":"45"}},{"type":"Feature","geometry":{"type":"Point","coordinates":[2.51046,47.76166]},"properties":{"nom":"Croix Saint Jacques","ag":["Réseau interurbain Rémi","Agrégat des réseaux urbains et interurbains du Centre-Val-de-Loire"],"lt":1,"dept":"45"}},{"type":"Feature","geometry":{"type":"Point","coordinates":[2.59805,47.6782]},"properties":{"nom":"Mairie","ag":["Réseau interurbain Rémi","Agrégat des réseaux urbains et interurbains du Centre-Val-de-Loire"],"lt":1,"dept":"45"}},{"type":"Feature","geometry":{"type":"Point","coordinates":[2.46488,47.77649]},"properties":{"nom":"le Boucard","ag":["Réseau interurbain Rémi","Agrégat des réseaux urbains et interurbains du Centre-Val-de-Loire"],"lt":1,"dept":"45"}},{"type":"Feature","geometry":{"type":"Point","coordinates":[2.36441,47.76293]},"properties":{"nom":"le Hameau","ag":["Réseau interurbain Rémi","Agrégat des réseaux urbains et interurbains du Centre-Val-de-Loire"],"lt":1,"dept":"45"}},{"type":"Feature","geometry":{"type":"Point","coordinates":[2.15642,48.09223]},"properties":{"nom":"le Haut du Moulin","ag":["Réseau interurbain Rémi","Agrégat des réseaux urbains et interurbains du Centre-Val-de-Loire"],"lt":1,"dept":"45"}},{"type":"Feature","geometry":{"type":"Point","coordinates":[2.4901,47.72647]},"properties":{"nom":"Route de Gien Ecole","ag":["Réseau interurbain Rémi","Agrégat des réseaux urbains et interurbains du Centre-Val-de-Loire"],"lt":1,"dept":"45"}},{"type":"Feature","geometry":{"type":"Point","coordinates":[2.48049,47.76933]},"properties":{"nom":"Place du Comice","ag":["Réseau interurbain Rémi","Agrégat des réseaux urbains et interurbains du Centre-Val-de-Loire"],"lt":1,"dept":"45"}},{"type":"Feature","geometry":{"type":"Point","coordinates":[2.79087,48.09058]},"properties":{"nom":"Place St-Macé","ag":["Réseau interurbain Rémi","Agrégat des réseaux urbains et interurbains du Centre-Val-de-Loire"],"lt":1,"dept":"45"}},{"type":"Feature","geometry":{"type":"Point","coordinates":[1.98244,48.04079]},"properties":{"nom":"Mairie","ag":["Réseau interurbain Rémi","Agrégat des réseaux urbains et interurbains du Centre-Val-de-Loire"],"lt":1,"dept":"45"}},{"type":"Feature","geometry":{"type":"Point","coordinates":[2.12986,47.83293]},"properties":{"nom":"Villiers D12","ag":["Réseau interurbain Rémi","Agrégat des réseaux urbains et interurbains du Centre-Val-de-Loire"],"lt":1,"dept":"45"}},{"type":"Feature","geometry":{"type":"Point","coordinates":[2.62129,47.68816]},"properties":{"nom":"Faïencerie","ag":["Réseau interurbain Rémi","Agrégat des réseaux urbains et interurbains du Centre-Val-de-Loire"],"lt":1,"dept":"45"}},{"type":"Feature","geometry":{"type":"Point","coordinates":[2.77503,48.10315]},"properties":{"nom":"Isquin","ag":["Réseau interurbain Rémi","Agrégat des réseaux urbains et interurbains du Centre-Val-de-Loire"],"lt":1,"dept":"45"}},{"type":"Feature","geometry":{"type":"Point","coordinates":[1.97947,48.03766]},"properties":{"nom":"Rue Neuve","ag":["Réseau interurbain Rémi","Agrégat des réseaux urbains et interurbains du Centre-Val-de-Loire"],"lt":1,"dept":"45"}},{"type":"Feature","geometry":{"type":"Point","coordinates":[2.24442,47.79367]},"properties":{"nom":"Ecole","ag":["Réseau interurbain Rémi","Agrégat des réseaux urbains et interurbains du Centre-Val-de-Loire"],"lt":1,"dept":"45"}},{"type":"Feature","geometry":{"type":"Point","coordinates":[1.6998,47.94208]},"properties":{"nom":"Rue de la Cave","ag":["Réseau interurbain Rémi","Agrégat des réseaux urbains et interurbains du Centre-Val-de-Loire"],"lt":1,"dept":"45"}},{"type":"Feature","geometry":{"type":"Point","coordinates":[2.26875,47.85634]},"properties":{"nom":"Route de Germigny","ag":["Réseau interurbain Rémi","Agrégat des réseaux urbains et interurbains du Centre-Val-de-Loire"],"lt":1,"dept":"45"}},{"type":"Feature","geometry":{"type":"Point","coordinates":[2.65707,47.658]},"properties":{"nom":"Salle des Fêtes","ag":["Réseau interurbain Rémi","Agrégat des réseaux urbains et interurbains du Centre-Val-de-Loire"],"lt":1,"dept":"45"}},{"type":"Feature","geometry":{"type":"Point","coordinates":[2.13237,47.80333]},"properties":{"nom":"Centre culturel","ag":["Réseau interurbain Rémi","Agrégat des réseaux urbains et interurbains du Centre-Val-de-Loire"],"lt":1,"dept":"45"}},{"type":"Feature","geometry":{"type":"Point","coordinates":[1.67505,47.93339]},"properties":{"nom":"Frévent","ag":["Réseau interurbain Rémi","Agrégat des réseaux urbains et interurbains du Centre-Val-de-Loire"],"lt":1,"dept":"45"}},{"type":"Feature","geometry":{"type":"Point","coordinates":[1.76495,47.93539]},"properties":{"nom":"Place de la Mairie","ag":["Réseau interurbain Rémi","Agrégat des réseaux urbains et interurbains du Centre-Val-de-Loire"],"lt":1,"dept":"45"}},{"type":"Feature","geometry":{"type":"Point","coordinates":[2.19184,47.79398]},"properties":{"nom":"Route d'Orléans","ag":["Réseau interurbain Rémi","Agrégat des réseaux urbains et interurbains du Centre-Val-de-Loire"],"lt":1,"dept":"45"}},{"type":"Feature","geometry":{"type":"Point","coordinates":[2.117,47.8653]},"properties":{"nom":"Stade","ag":["Réseau interurbain Rémi","Agrégat des réseaux urbains et interurbains du Centre-Val-de-Loire"],"lt":1,"dept":"45"}},{"type":"Feature","geometry":{"type":"Point","coordinates":[3.06994,47.99591]},"properties":{"nom":"Jacqueminière Les Comtés","ag":["Réseau interurbain Rémi","Agrégat des réseaux urbains et interurbains du Centre-Val-de-Loire"],"lt":1,"dept":"45"}},{"type":"Feature","geometry":{"type":"Point","coordinates":[1.62948,47.77937]},"properties":{"nom":"Rue Nationale","ag":["Réseau interurbain Rémi","Agrégat des réseaux urbains et interurbains du Centre-Val-de-Loire"],"lt":1,"dept":"45"}},{"type":"Feature","geometry":{"type":"Point","coordinates":[1.89235,47.945]},"properties":{"nom":"Montaran","ag":["Réseau interurbain Rémi","Agrégat des réseaux urbains et interurbains du Centre-Val-de-Loire"],"lt":1,"dept":"45"}},{"type":"Feature","geometry":{"type":"Point","coordinates":[1.70045,47.82712]},"properties":{"nom":"Coll Notre Dame Ec J. de Meung","ag":["Réseau interurbain Rémi","Agrégat des réseaux urbains et interurbains du Centre-Val-de-Loire"],"lt":1,"dept":"45"}},{"type":"Feature","geometry":{"type":"Point","coordinates":[1.69625,47.82797]},"properties":{"nom":"Moulin du Coutelet","ag":["Réseau interurbain Rémi","Agrégat des réseaux urbains et interurbains du Centre-Val-de-Loire"],"lt":1,"dept":"45"}},{"type":"Feature","geometry":{"type":"Point","coordinates":[2.20138,48.29576]},"properties":{"nom":"Rue de Paris","ag":["Réseau interurbain Rémi","Agrégat des réseaux urbains et interurbains du Centre-Val-de-Loire"],"lt":1,"dept":"45"}},{"type":"Feature","geometry":{"type":"Point","coordinates":[1.7721,47.88359]},"properties":{"nom":"Mairie","ag":["Réseau interurbain Rémi","Agrégat des réseaux urbains et interurbains du Centre-Val-de-Loire"],"lt":1,"dept":"45"}},{"type":"Feature","geometry":{"type":"Point","coordinates":[1.89909,47.91581]},"properties":{"nom":"Coligny","ag":["Réseau interurbain Rémi","Agrégat des réseaux urbains et interurbains du Centre-Val-de-Loire"],"lt":1,"dept":"45"}},{"type":"Feature","geometry":{"type":"Point","coordinates":[1.80399,47.87732]},"properties":{"nom":"Pierrelets","ag":["Réseau interurbain Rémi","Agrégat des réseaux urbains et interurbains du Centre-Val-de-Loire"],"lt":1,"dept":"45"}},{"type":"Feature","geometry":{"type":"Point","coordinates":[1.77996,47.96745]},"properties":{"nom":"les Barres","ag":["Réseau interurbain Rémi","Agrégat des réseaux urbains et interurbains du Centre-Val-de-Loire"],"lt":1,"dept":"45"}},{"type":"Feature","geometry":{"type":"Point","coordinates":[1.77195,47.87931]},"properties":{"nom":"Mandrille","ag":["Réseau interurbain Rémi","Agrégat des réseaux urbains et interurbains du Centre-Val-de-Loire"],"lt":1,"dept":"45"}},{"type":"Feature","geometry":{"type":"Point","coordinates":[2.21287,48.26168]},"properties":{"nom":"Grande Rue","ag":["Réseau interurbain Rémi","Agrégat des réseaux urbains et interurbains du Centre-Val-de-Loire"],"lt":1,"dept":"45"}},{"type":"Feature","geometry":{"type":"Point","coordinates":[1.79122,48.05317]},"properties":{"nom":"Mairie","ag":["Réseau interurbain Rémi","Agrégat des réseaux urbains et interurbains du Centre-Val-de-Loire"],"lt":1,"dept":"45"}},{"type":"Feature","geometry":{"type":"Point","coordinates":[1.8598,47.8975]},"properties":{"nom":"Viviane LEP","ag":["Réseau interurbain Rémi","Agrégat des réseaux urbains et interurbains du Centre-Val-de-Loire"],"lt":1,"dept":"45"}},{"type":"Feature","geometry":{"type":"Point","coordinates":[2.24826,48.18816]},"properties":{"nom":"Marie Curie","ag":["Réseau interurbain Rémi","Agrégat des réseaux urbains et interurbains du Centre-Val-de-Loire"],"lt":1,"dept":"45"}},{"type":"Feature","geometry":{"type":"Point","coordinates":[1.83208,47.99843]},"properties":{"nom":"Beaurepaire","ag":["Réseau interurbain Rémi","Agrégat des réseaux urbains et interurbains du Centre-Val-de-Loire"],"lt":1,"dept":"45"}},{"type":"Feature","geometry":{"type":"Point","coordinates":[1.71046,47.83791]},"properties":{"nom":"les Potières","ag":["Réseau interurbain Rémi","Agrégat des réseaux urbains et interurbains du Centre-Val-de-Loire"],"lt":1,"dept":"45"}},{"type":"Feature","geometry":{"type":"Point","coordinates":[2.25149,48.18021]},"properties":{"nom":"St-Eloi","ag":["Réseau interurbain Rémi","Agrégat des réseaux urbains et interurbains du Centre-Val-de-Loire"],"lt":1,"dept":"45"}},{"type":"Feature","geometry":{"type":"Point","coordinates":[2.40641,48.20419]},"properties":{"nom":"Villereau","ag":["Réseau interurbain Rémi","Agrégat des réseaux urbains et interurbains du Centre-Val-de-Loire"],"lt":1,"dept":"45"}},{"type":"Feature","geometry":{"type":"Point","coordinates":[1.88112,47.95059]},"properties":{"nom":"la Médicinerie","ag":["Réseau interurbain Rémi","Agrégat des réseaux urbains et interurbains du Centre-Val-de-Loire"],"lt":1,"dept":"45"}},{"type":"Feature","geometry":{"type":"Point","coordinates":[2.43142,48.22474]},"properties":{"nom":"Pont","ag":["Réseau interurbain Rémi","Agrégat des réseaux urbains et interurbains du Centre-Val-de-Loire"],"lt":1,"dept":"45"}},{"type":"Feature","geometry":{"type":"Point","coordinates":[1.78384,47.98112]},"properties":{"nom":"Eglise SATPS","ag":["Réseau interurbain Rémi","Agrégat des réseaux urbains et interurbains du Centre-Val-de-Loire"],"lt":1,"dept":"45"}},{"type":"Feature","geometry":{"type":"Point","coordinates":[1.738,47.85163]},"properties":{"nom":"Cropet","ag":["Réseau interurbain Rémi","Agrégat des réseaux urbains et interurbains du Centre-Val-de-Loire"],"lt":1,"dept":"45"}},{"type":"Feature","geometry":{"type":"Point","coordinates":[2.46077,48.20578]},"properties":{"nom":"Gare SNCF","ag":["Réseau interurbain Rémi","Agrégat des réseaux urbains et interurbains du Centre-Val-de-Loire"],"lt":1,"dept":"45"}},{"type":"Feature","geometry":{"type":"Point","coordinates":[1.79654,48.0184]},"properties":{"nom":"Eglise","ag":["Réseau interurbain Rémi","Agrégat des réseaux urbains et interurbains du Centre-Val-de-Loire"],"lt":1,"dept":"45"}},{"type":"Feature","geometry":{"type":"Point","coordinates":[1.76661,47.864]},"properties":{"nom":"la Bretagne","ag":["Réseau interurbain Rémi","Agrégat des réseaux urbains et interurbains du Centre-Val-de-Loire"],"lt":1,"dept":"45"}},{"type":"Feature","geometry":{"type":"Point","coordinates":[2.47064,48.20303]},"properties":{"nom":"Promenade du Parc","ag":["Réseau interurbain Rémi","Agrégat des réseaux urbains et interurbains du Centre-Val-de-Loire"],"lt":1,"dept":"45"}},{"type":"Feature","geometry":{"type":"Point","coordinates":[1.73201,48.05917]},"properties":{"nom":"Rue du Bourg","ag":["Réseau interurbain Rémi","Agrégat des réseaux urbains et interurbains du Centre-Val-de-Loire"],"lt":1,"dept":"45"}},{"type":"Feature","geometry":{"type":"Point","coordinates":[1.63537,47.80765]},"properties":{"nom":"Eglise","ag":["Réseau interurbain Rémi","Agrégat des réseaux urbains et interurbains du Centre-Val-de-Loire"],"lt":1,"dept":"45"}},{"type":"Feature","geometry":{"type":"Point","coordinates":[1.80284,48.03671]},"properties":{"nom":"Trogny","ag":["Réseau interurbain Rémi","Agrégat des réseaux urbains et interurbains du Centre-Val-de-Loire"],"lt":1,"dept":"45"}},{"type":"Feature","geometry":{"type":"Point","coordinates":[1.83219,47.92098]},"properties":{"nom":"Lycée M. Genevoix","ag":["Réseau interurbain Rémi","Agrégat des réseaux urbains et interurbains du Centre-Val-de-Loire"],"lt":1,"dept":"45"}},{"type":"Feature","geometry":{"type":"Point","coordinates":[1.83979,47.89203]},"properties":{"nom":"Montaux","ag":["Réseau interurbain Rémi","Agrégat des réseaux urbains et interurbains du Centre-Val-de-Loire"],"lt":1,"dept":"45"}},{"type":"Feature","geometry":{"type":"Point","coordinates":[1.8022,47.89423]},"properties":{"nom":"Prenay","ag":["Réseau interurbain Rémi","Agrégat des réseaux urbains et interurbains du Centre-Val-de-Loire"],"lt":1,"dept":"45"}},{"type":"Feature","geometry":{"type":"Point","coordinates":[2.38237,47.79653]},"properties":{"nom":"Place de la Plaine","ag":["Réseau interurbain Rémi","Agrégat des réseaux urbains et interurbains du Centre-Val-de-Loire"],"lt":1,"dept":"45"}},{"type":"Feature","geometry":{"type":"Point","coordinates":[1.65068,47.84301]},"properties":{"nom":"Rue du Bourg","ag":["Réseau interurbain Rémi","Agrégat des réseaux urbains et interurbains du Centre-Val-de-Loire"],"lt":1,"dept":"45"}},{"type":"Feature","geometry":{"type":"Point","coordinates":[2.60157,47.92281]},"properties":{"nom":"Place de l'Eglise","ag":["Réseau interurbain Rémi","Agrégat des réseaux urbains et interurbains du Centre-Val-de-Loire"],"lt":1,"dept":"45"}},{"type":"Feature","geometry":{"type":"Point","coordinates":[2.22179,47.86651]},"properties":{"nom":"Collège Jean Joudiou","ag":["Réseau interurbain Rémi","Agrégat des réseaux urbains et interurbains du Centre-Val-de-Loire"],"lt":1,"dept":"45"}},{"type":"Feature","geometry":{"type":"Point","coordinates":[1.65986,47.84176]},"properties":{"nom":"Rue Robert Goupil","ag":["Réseau interurbain Rémi","Agrégat des réseaux urbains et interurbains du Centre-Val-de-Loire"],"lt":1,"dept":"45"}},{"type":"Feature","geometry":{"type":"Point","coordinates":[2.52061,47.76078]},"properties":{"nom":"Mairie","ag":["Réseau interurbain Rémi","Agrégat des réseaux urbains et interurbains du Centre-Val-de-Loire"],"lt":1,"dept":"45"}},{"type":"Feature","geometry":{"type":"Point","coordinates":[1.69835,48.00027]},"properties":{"nom":"Rue de Châteaudun","ag":["Réseau interurbain Rémi","Agrégat des réseaux urbains et interurbains du Centre-Val-de-Loire"],"lt":1,"dept":"45"}},{"type":"Feature","geometry":{"type":"Point","coordinates":[2.51404,47.88788]},"properties":{"nom":"Place du Mail","ag":["Réseau interurbain Rémi","Agrégat des réseaux urbains et interurbains du Centre-Val-de-Loire"],"lt":1,"dept":"45"}},{"type":"Feature","geometry":{"type":"Point","coordinates":[2.06325,47.88836]},"properties":{"nom":"la Paix D 960","ag":["Réseau interurbain Rémi","Agrégat des réseaux urbains et interurbains du Centre-Val-de-Loire"],"lt":1,"dept":"45"}},{"type":"Feature","geometry":{"type":"Point","coordinates":[1.68045,47.98135]},"properties":{"nom":"Eglise","ag":["Réseau interurbain Rémi","Agrégat des réseaux urbains et interurbains du Centre-Val-de-Loire"],"lt":1,"dept":"45"}},{"type":"Feature","geometry":{"type":"Point","coordinates":[2.47943,47.76641]},"properties":{"nom":"Rue Sadi Carnot","ag":["Réseau interurbain Rémi","Agrégat des réseaux urbains et interurbains du Centre-Val-de-Loire"],"lt":1,"dept":"45"}},{"type":"Feature","geometry":{"type":"Point","coordinates":[2.28476,47.78809]},"properties":{"nom":"Bouteille","ag":["Réseau interurbain Rémi","Agrégat des réseaux urbains et interurbains du Centre-Val-de-Loire"],"lt":1,"dept":"45"}},{"type":"Feature","geometry":{"type":"Point","coordinates":[1.69481,47.96391]},"properties":{"nom":"Eglise","ag":["Réseau interurbain Rémi","Agrégat des réseaux urbains et interurbains du Centre-Val-de-Loire"],"lt":1,"dept":"45"}},{"type":"Feature","geometry":{"type":"Point","coordinates":[1.5941,48.02641]},"properties":{"nom":"Villiers","ag":["Réseau interurbain Rémi","Agrégat des réseaux urbains et interurbains du Centre-Val-de-Loire"],"lt":1,"dept":"45"}},{"type":"Feature","geometry":{"type":"Point","coordinates":[2.55433,47.93587]},"properties":{"nom":"Pt Romaison","ag":["Réseau interurbain Rémi","Agrégat des réseaux urbains et interurbains du Centre-Val-de-Loire"],"lt":1,"dept":"45"}},{"type":"Feature","geometry":{"type":"Point","coordinates":[2.12318,47.86564]},"properties":{"nom":"Boulevard Carnot","ag":["Réseau interurbain Rémi","Agrégat des réseaux urbains et interurbains du Centre-Val-de-Loire"],"lt":1,"dept":"45"}},{"type":"Feature","geometry":{"type":"Point","coordinates":[1.63005,48.0105]},"properties":{"nom":"Relais St-Jacques","ag":["Réseau interurbain Rémi","Agrégat des réseaux urbains et interurbains du Centre-Val-de-Loire"],"lt":1,"dept":"45"}},{"type":"Feature","geometry":{"type":"Point","coordinates":[1.69544,48.04771]},"properties":{"nom":"Place des Halles","ag":["Réseau interurbain Rémi","Agrégat des réseaux urbains et interurbains du Centre-Val-de-Loire"],"lt":1,"dept":"45"}},{"type":"Feature","geometry":{"type":"Point","coordinates":[1.83701,47.98869]},"properties":{"nom":"Mairie","ag":["Réseau interurbain Rémi","Agrégat des réseaux urbains et interurbains du Centre-Val-de-Loire"],"lt":1,"dept":"45"}},{"type":"Feature","geometry":{"type":"Point","coordinates":[1.70238,47.89321]},"properties":{"nom":"Mairie","ag":["Réseau interurbain Rémi","Agrégat des réseaux urbains et interurbains du Centre-Val-de-Loire"],"lt":1,"dept":"45"}},{"type":"Feature","geometry":{"type":"Point","coordinates":[2.2288,48.20498]},"properties":{"nom":"Bouzonville en B. Mairie","ag":["Réseau interurbain Rémi","Agrégat des réseaux urbains et interurbains du Centre-Val-de-Loire"],"lt":1,"dept":"45"}},{"type":"Feature","geometry":{"type":"Point","coordinates":[1.84557,47.98429]},"properties":{"nom":"le Coudreau","ag":["Réseau interurbain Rémi","Agrégat des réseaux urbains et interurbains du Centre-Val-de-Loire"],"lt":1,"dept":"45"}},{"type":"Feature","geometry":{"type":"Point","coordinates":[1.62871,47.8915]},"properties":{"nom":"Eglise","ag":["Réseau interurbain Rémi","Agrégat des réseaux urbains et interurbains du Centre-Val-de-Loire"],"lt":1,"dept":"45"}},{"type":"Feature","geometry":{"type":"Point","coordinates":[2.22903,48.22745]},"properties":{"nom":"Lolainville RD921","ag":["Réseau interurbain Rémi","Agrégat des réseaux urbains et interurbains du Centre-Val-de-Loire"],"lt":1,"dept":"45"}},{"type":"Feature","geometry":{"type":"Point","coordinates":[1.78598,47.88924]},"properties":{"nom":"la Chapelle","ag":["Réseau interurbain Rémi","Agrégat des réseaux urbains et interurbains du Centre-Val-de-Loire"],"lt":1,"dept":"45"}},{"type":"Feature","geometry":{"type":"Point","coordinates":[2.23874,48.20513]},"properties":{"nom":"Bouzonville en B. J. Deere","ag":["Réseau interurbain Rémi","Agrégat des réseaux urbains et interurbains du Centre-Val-de-Loire"],"lt":1,"dept":"45"}},{"type":"Feature","geometry":{"type":"Point","coordinates":[1.81718,47.94282]},"properties":{"nom":"Mairie","ag":["Réseau interurbain Rémi","Agrégat des réseaux urbains et interurbains du Centre-Val-de-Loire"],"lt":1,"dept":"45"}},{"type":"Feature","geometry":{"type":"Point","coordinates":[2.50991,47.88938]},"properties":{"nom":"Musée de la Résistance","ag":["Réseau interurbain Rémi","Agrégat des réseaux urbains et interurbains du Centre-Val-de-Loire"],"lt":1,"dept":"45"}},{"type":"Feature","geometry":{"type":"Point","coordinates":[1.8082,47.9883]},"properties":{"nom":"Janvry","ag":["Réseau interurbain Rémi","Agrégat des réseaux urbains et interurbains du Centre-Val-de-Loire"],"lt":1,"dept":"45"}},{"type":"Feature","geometry":{"type":"Point","coordinates":[2.03629,48.23881]},"properties":{"nom":"Eglise","ag":["Réseau interurbain Rémi","Agrégat des réseaux urbains et interurbains du Centre-Val-de-Loire"],"lt":1,"dept":"45"}},{"type":"Feature","geometry":{"type":"Point","coordinates":[1.98681,48.25687]},"properties":{"nom":"Place de la Mairie","ag":["Réseau interurbain Rémi","Agrégat des réseaux urbains et interurbains du Centre-Val-de-Loire"],"lt":1,"dept":"45"}},{"type":"Feature","geometry":{"type":"Point","coordinates":[2.49249,47.6204]},"properties":{"nom":"Place du Monument","ag":["Réseau interurbain Rémi","Agrégat des réseaux urbains et interurbains du Centre-Val-de-Loire"],"lt":1,"dept":"45"}},{"type":"Feature","geometry":{"type":"Point","coordinates":[1.97999,48.16965]},"properties":{"nom":"Hameau de Chaussy","ag":["Réseau interurbain Rémi","Agrégat des réseaux urbains et interurbains du Centre-Val-de-Loire"],"lt":1,"dept":"45"}},{"type":"Feature","geometry":{"type":"Point","coordinates":[2.0087,48.10765]},"properties":{"nom":"Halle/Ecole","ag":["Réseau interurbain Rémi","Agrégat des réseaux urbains et interurbains du Centre-Val-de-Loire"],"lt":1,"dept":"45"}},{"type":"Feature","geometry":{"type":"Point","coordinates":[2.10606,48.23142]},"properties":{"nom":"Eglise","ag":["Réseau interurbain Rémi","Agrégat des réseaux urbains et interurbains du Centre-Val-de-Loire"],"lt":1,"dept":"45"}},{"type":"Feature","geometry":{"type":"Point","coordinates":[1.87442,48.02613]},"properties":{"nom":"Mairie","ag":["Réseau interurbain Rémi","Agrégat des réseaux urbains et interurbains du Centre-Val-de-Loire"],"lt":1,"dept":"45"}},{"type":"Feature","geometry":{"type":"Point","coordinates":[2.03016,48.27055]},"properties":{"nom":"Place de la Mairie","ag":["Réseau interurbain Rémi","Agrégat des réseaux urbains et interurbains du Centre-Val-de-Loire"],"lt":1,"dept":"45"}},{"type":"Feature","geometry":{"type":"Point","coordinates":[1.8828,47.98581]},"properties":{"nom":"Mairie","ag":["Réseau interurbain Rémi","Agrégat des réseaux urbains et interurbains du Centre-Val-de-Loire"],"lt":1,"dept":"45"}},{"type":"Feature","geometry":{"type":"Point","coordinates":[2.81401,47.95561]},"properties":{"nom":"la Pierre du Carreau","ag":["Réseau interurbain Rémi","Agrégat des réseaux urbains et interurbains du Centre-Val-de-Loire"],"lt":1,"dept":"45"}},{"type":"Feature","geometry":{"type":"Point","coordinates":[2.0998,48.27627]},"properties":{"nom":"Mairie/Ecole","ag":["Réseau interurbain Rémi","Agrégat des réseaux urbains et interurbains du Centre-Val-de-Loire"],"lt":1,"dept":"45"}},{"type":"Feature","geometry":{"type":"Point","coordinates":[1.69775,47.77487]},"properties":{"nom":"Porteau","ag":["Réseau interurbain Rémi","Agrégat des réseaux urbains et interurbains du Centre-Val-de-Loire"],"lt":1,"dept":"45"}},{"type":"Feature","geometry":{"type":"Point","coordinates":[1.99062,48.06951]},"properties":{"nom":"Eglise","ag":["Réseau interurbain Rémi","Agrégat des réseaux urbains et interurbains du Centre-Val-de-Loire"],"lt":1,"dept":"45"}},{"type":"Feature","geometry":{"type":"Point","coordinates":[2.84209,47.5597]},"properties":{"nom":"Gare/Ecole","ag":["Réseau interurbain Rémi","Agrégat des réseaux urbains et interurbains du Centre-Val-de-Loire"],"lt":1,"dept":"45"}},{"type":"Feature","geometry":{"type":"Point","coordinates":[2.74381,48.00649]},"properties":{"nom":"Gare Sncf","ag":["Réseau interurbain Rémi","Agrégat des réseaux urbains et interurbains du Centre-Val-de-Loire"],"lt":1,"dept":"45"}},{"type":"Feature","geometry":{"type":"Point","coordinates":[2.80369,47.95845]},"properties":{"nom":"Moulin Plateau","ag":["Réseau interurbain Rémi","Agrégat des réseaux urbains et interurbains du Centre-Val-de-Loire"],"lt":1,"dept":"45"}},{"type":"Feature","geometry":{"type":"Point","coordinates":[2.04331,48.16095]},"properties":{"nom":"Eglise","ag":["Réseau interurbain Rémi","Agrégat des réseaux urbains et interurbains du Centre-Val-de-Loire"],"lt":1,"dept":"45"}},{"type":"Feature","geometry":{"type":"Point","coordinates":[2.7333,47.64628]},"properties":{"nom":"Gare SNCF","ag":["Réseau interurbain Rémi","Agrégat des réseaux urbains et interurbains du Centre-Val-de-Loire"],"lt":1,"dept":"45"}},{"type":"Feature","geometry":{"type":"Point","coordinates":[2.84076,47.95304]},"properties":{"nom":"Place de la Gare","ag":["Réseau interurbain Rémi","Agrégat des réseaux urbains et interurbains du Centre-Val-de-Loire"],"lt":1,"dept":"45"}},{"type":"Feature","geometry":{"type":"Point","coordinates":[1.87862,48.08063]},"properties":{"nom":"Route d'Orléans","ag":["Réseau interurbain Rémi","Agrégat des réseaux urbains et interurbains du Centre-Val-de-Loire"],"lt":1,"dept":"45"}},{"type":"Feature","geometry":{"type":"Point","coordinates":[2.81878,47.54284]},"properties":{"nom":"Salle des Fêtes","ag":["Réseau interurbain Rémi","Agrégat des réseaux urbains et interurbains du Centre-Val-de-Loire"],"lt":1,"dept":"45"}},{"type":"Feature","geometry":{"type":"Point","coordinates":[3.0739,47.9702]},"properties":{"nom":"Ecole","ag":["Réseau interurbain Rémi","Agrégat des réseaux urbains et interurbains du Centre-Val-de-Loire"],"lt":1,"dept":"45"}},{"type":"Feature","geometry":{"type":"Point","coordinates":[1.8914,47.95341]},"properties":{"nom":"Debacq","ag":["Réseau interurbain Rémi","Agrégat des réseaux urbains et interurbains du Centre-Val-de-Loire"],"lt":1,"dept":"45"}},{"type":"Feature","geometry":{"type":"Point","coordinates":[2.72488,47.6517]},"properties":{"nom":"Clos de Beauvoir","ag":["Réseau interurbain Rémi","Agrégat des réseaux urbains et interurbains du Centre-Val-de-Loire"],"lt":1,"dept":"45"}},{"type":"Feature","geometry":{"type":"Point","coordinates":[3.04851,47.94383]},"properties":{"nom":"Ecole du Haut","ag":["Réseau interurbain Rémi","Agrégat des réseaux urbains et interurbains du Centre-Val-de-Loire"],"lt":1,"dept":"45"}},{"type":"Feature","geometry":{"type":"Point","coordinates":[1.90354,47.91951]},"properties":{"nom":"Libération","ag":["Réseau interurbain Rémi","Agrégat des réseaux urbains et interurbains du Centre-Val-de-Loire"],"lt":1,"dept":"45"}},{"type":"Feature","geometry":{"type":"Point","coordinates":[2.79122,47.59412]},"properties":{"nom":"Grande Rue","ag":["Réseau interurbain Rémi","Agrégat des réseaux urbains et interurbains du Centre-Val-de-Loire"],"lt":1,"dept":"45"}},{"type":"Feature","geometry":{"type":"Point","coordinates":[2.98062,47.93924]},"properties":{"nom":"la Gare","ag":["Réseau interurbain Rémi","Agrégat des réseaux urbains et interurbains du Centre-Val-de-Loire"],"lt":1,"dept":"45"}},{"type":"Feature","geometry":{"type":"Point","coordinates":[2.78535,47.58974]},"properties":{"nom":"Monument","ag":["Réseau interurbain Rémi","Agrégat des réseaux urbains et interurbains du Centre-Val-de-Loire"],"lt":1,"dept":"45"}},{"type":"Feature","geometry":{"type":"Point","coordinates":[2.92488,47.93171]},"properties":{"nom":"Av. Charles Roux","ag":["Réseau interurbain Rémi","Agrégat des réseaux urbains et interurbains du Centre-Val-de-Loire"],"lt":1,"dept":"45"}},{"type":"Feature","geometry":{"type":"Point","coordinates":[1.79915,47.84608]},"properties":{"nom":"Eglise de Mareau","ag":["Réseau interurbain Rémi","Agrégat des réseaux urbains et interurbains du Centre-Val-de-Loire"],"lt":1,"dept":"45"}},{"type":"Feature","geometry":{"type":"Point","coordinates":[2.75348,47.59235]},"properties":{"nom":"Rue de Champault","ag":["Réseau interurbain Rémi","Agrégat des réseaux urbains et interurbains du Centre-Val-de-Loire"],"lt":1,"dept":"45"}},{"type":"Feature","geometry":{"type":"Point","coordinates":[2.73695,47.64037]},"properties":{"nom":"Henri IV/Thiebaut","ag":["Réseau interurbain Rémi","Agrégat des réseaux urbains et interurbains du Centre-Val-de-Loire"],"lt":1,"dept":"45"}},{"type":"Feature","geometry":{"type":"Point","coordinates":[1.67448,47.75677]},"properties":{"nom":"Clos de la Cave","ag":["Réseau interurbain Rémi","Agrégat des réseaux urbains et interurbains du Centre-Val-de-Loire"],"lt":1,"dept":"45"}},{"type":"Feature","geometry":{"type":"Point","coordinates":[2.17696,48.20678]},"properties":{"nom":"Ecole","ag":["Réseau interurbain Rémi","Agrégat des réseaux urbains et interurbains du Centre-Val-de-Loire"],"lt":1,"dept":"45"}},{"type":"Feature","geometry":{"type":"Point","coordinates":[2.21716,48.06561]},"properties":{"nom":"Mairie","ag":["Réseau interurbain Rémi","Agrégat des réseaux urbains et interurbains du Centre-Val-de-Loire"],"lt":1,"dept":"45"}},{"type":"Feature","geometry":{"type":"Point","coordinates":[2.08788,48.22389]},"properties":{"nom":"Eglise","ag":["Réseau interurbain Rémi","Agrégat des réseaux urbains et interurbains du Centre-Val-de-Loire"],"lt":1,"dept":"45"}},{"type":"Feature","geometry":{"type":"Point","coordinates":[2.11164,48.18189]},"properties":{"nom":"Mairie","ag":["Réseau interurbain Rémi","Agrégat des réseaux urbains et interurbains du Centre-Val-de-Loire"],"lt":1,"dept":"45"}},{"type":"Feature","geometry":{"type":"Point","coordinates":[2.76521,47.89662]},"properties":{"nom":"Bourg","ag":["Réseau interurbain Rémi","Agrégat des réseaux urbains et interurbains du Centre-Val-de-Loire"],"lt":1,"dept":"45"}},{"type":"Feature","geometry":{"type":"Point","coordinates":[2.41416,48.29376]},"properties":{"nom":"Malesherbes Bibliothèque","ag":["Réseau interurbain Rémi","Agrégat des réseaux urbains et interurbains du Centre-Val-de-Loire"],"lt":1,"dept":"45"}},{"type":"Feature","geometry":{"type":"Point","coordinates":[1.93937,48.11133]},"properties":{"nom":"Salle des Fêtes","ag":["Réseau interurbain Rémi","Agrégat des réseaux urbains et interurbains du Centre-Val-de-Loire"],"lt":1,"dept":"45"}},{"type":"Feature","geometry":{"type":"Point","coordinates":[2.73336,47.64442]},"properties":{"nom":"Emaux","ag":["Réseau interurbain Rémi","Agrégat des réseaux urbains et interurbains du Centre-Val-de-Loire"],"lt":1,"dept":"45"}},{"type":"Feature","geometry":{"type":"Point","coordinates":[2.41164,48.29633]},"properties":{"nom":"Malesherbes Collège","ag":["Réseau interurbain Rémi","Agrégat des réseaux urbains et interurbains du Centre-Val-de-Loire"],"lt":1,"dept":"45"}},{"type":"Feature","geometry":{"type":"Point","coordinates":[2.11039,48.11203]},"properties":{"nom":"Mairie","ag":["Réseau interurbain Rémi","Agrégat des réseaux urbains et interurbains du Centre-Val-de-Loire"],"lt":1,"dept":"45"}},{"type":"Feature","geometry":{"type":"Point","coordinates":[2.73008,47.64722]},"properties":{"nom":"Hôpital St-Jean","ag":["Réseau interurbain Rémi","Agrégat des réseaux urbains et interurbains du Centre-Val-de-Loire"],"lt":1,"dept":"45"}},{"type":"Feature","geometry":{"type":"Point","coordinates":[2.3733,48.27231]},"properties":{"nom":"Coudray Ecole","ag":["Réseau interurbain Rémi","Agrégat des réseaux urbains et interurbains du Centre-Val-de-Loire"],"lt":1,"dept":"45"}},{"type":"Feature","geometry":{"type":"Point","coordinates":[2.85157,47.94707]},"properties":{"nom":"Eglise/Ecole","ag":["Réseau interurbain Rémi","Agrégat des réseaux urbains et interurbains du Centre-Val-de-Loire"],"lt":1,"dept":"45"}},{"type":"Feature","geometry":{"type":"Point","coordinates":[2.74314,47.63492]},"properties":{"nom":"Hôtel du Midi","ag":["Réseau interurbain Rémi","Agrégat des réseaux urbains et interurbains du Centre-Val-de-Loire"],"lt":1,"dept":"45"}},{"type":"Feature","geometry":{"type":"Point","coordinates":[2.28338,48.22213]},"properties":{"nom":"Mairie/Ecole","ag":["Réseau interurbain Rémi","Agrégat des réseaux urbains et interurbains du Centre-Val-de-Loire"],"lt":1,"dept":"45"}},{"type":"Feature","geometry":{"type":"Point","coordinates":[2.11239,48.12204]},"properties":{"nom":"Mairie","ag":["Réseau interurbain Rémi","Agrégat des réseaux urbains et interurbains du Centre-Val-de-Loire"],"lt":1,"dept":"45"}},{"type":"Feature","geometry":{"type":"Point","coordinates":[2.6334,47.69885]},"properties":{"nom":"Lycées","ag":["Réseau interurbain Rémi","Agrégat des réseaux urbains et interurbains du Centre-Val-de-Loire"],"lt":1,"dept":"45"}},{"type":"Feature","geometry":{"type":"Point","coordinates":[2.25984,48.21781]},"properties":{"nom":"Fresne","ag":["Réseau interurbain Rémi","Agrégat des réseaux urbains et interurbains du Centre-Val-de-Loire"],"lt":1,"dept":"45"}},{"type":"Feature","geometry":{"type":"Point","coordinates":[2.81756,47.54176]},"properties":{"nom":"Al. des Tilleuls","ag":["Réseau interurbain Rémi","Agrégat des réseaux urbains et interurbains du Centre-Val-de-Loire"],"lt":1,"dept":"45"}},{"type":"Feature","geometry":{"type":"Point","coordinates":[2.26473,48.21132]},"properties":{"nom":"Moncharville","ag":["Réseau interurbain Rémi","Agrégat des réseaux urbains et interurbains du Centre-Val-de-Loire"],"lt":1,"dept":"45"}},{"type":"Feature","geometry":{"type":"Point","coordinates":[2.81247,47.54487]},"properties":{"nom":"le Marteau","ag":["Réseau interurbain Rémi","Agrégat des réseaux urbains et interurbains du Centre-Val-de-Loire"],"lt":1,"dept":"45"}},{"type":"Feature","geometry":{"type":"Point","coordinates":[2.40876,48.29479]},"properties":{"nom":"Malesherbes Gymnase","ag":["Réseau interurbain Rémi","Agrégat des réseaux urbains et interurbains du Centre-Val-de-Loire"],"lt":1,"dept":"45"}},{"type":"Feature","geometry":{"type":"Point","coordinates":[2.74779,47.63099]},"properties":{"nom":"Rond Point de Lattre","ag":["Réseau interurbain Rémi","Agrégat des réseaux urbains et interurbains du Centre-Val-de-Loire"],"lt":1,"dept":"45"}},{"type":"Feature","geometry":{"type":"Point","coordinates":[2.40339,48.29764]},"properties":{"nom":"Malesherbes Jean Cocteau","ag":["Réseau interurbain Rémi","Agrégat des réseaux urbains et interurbains du Centre-Val-de-Loire"],"lt":1,"dept":"45"}},{"type":"Feature","geometry":{"type":"Point","coordinates":[2.7669,47.6012]},"properties":{"nom":"les Combles","ag":["Réseau interurbain Rémi","Agrégat des réseaux urbains et interurbains du Centre-Val-de-Loire"],"lt":1,"dept":"45"}},{"type":"Feature","geometry":{"type":"Point","coordinates":[2.34338,48.23802]},"properties":{"nom":"Manchecourt Bourg","ag":["Réseau interurbain Rémi","Agrégat des réseaux urbains et interurbains du Centre-Val-de-Loire"],"lt":1,"dept":"45"}},{"type":"Feature","geometry":{"type":"Point","coordinates":[2.75762,47.58835]},"properties":{"nom":"Gendarmerie","ag":["Réseau interurbain Rémi","Agrégat des réseaux urbains et interurbains du Centre-Val-de-Loire"],"lt":1,"dept":"45"}},{"type":"Feature","geometry":{"type":"Point","coordinates":[2.32819,48.24138]},"properties":{"nom":"Manchecourt Douzonville","ag":["Réseau interurbain Rémi","Agrégat des réseaux urbains et interurbains du Centre-Val-de-Loire"],"lt":1,"dept":"45"}},{"type":"Feature","geometry":{"type":"Point","coordinates":[2.03489,47.9573]},"properties":{"nom":"Maison Rouge","ag":["Réseau interurbain Rémi","Agrégat des réseaux urbains et interurbains du Centre-Val-de-Loire"],"lt":1,"dept":"45"}},{"type":"Feature","geometry":{"type":"Point","coordinates":[1.96941,48.13766]},"properties":{"nom":"Place du Château d'Eau","ag":["Réseau interurbain Rémi","Agrégat des réseaux urbains et interurbains du Centre-Val-de-Loire"],"lt":1,"dept":"45"}},{"type":"Feature","geometry":{"type":"Point","coordinates":[1.93447,48.13353]},"properties":{"nom":"Mairie","ag":["Réseau interurbain Rémi","Agrégat des réseaux urbains et interurbains du Centre-Val-de-Loire"],"lt":1,"dept":"45"}},{"type":"Feature","geometry":{"type":"Point","coordinates":[2.06572,48.12475]},"properties":{"nom":"Eglise","ag":["Réseau interurbain Rémi","Agrégat des réseaux urbains et interurbains du Centre-Val-de-Loire"],"lt":1,"dept":"45"}},{"type":"Feature","geometry":{"type":"Point","coordinates":[1.91598,48.06042]},"properties":{"nom":"Rue de la Mairie","ag":["Réseau interurbain Rémi","Agrégat des réseaux urbains et interurbains du Centre-Val-de-Loire"],"lt":1,"dept":"45"}},{"type":"Feature","geometry":{"type":"Point","coordinates":[1.93163,48.1553]},"properties":{"nom":"Place de la Forge","ag":["Réseau interurbain Rémi","Agrégat des réseaux urbains et interurbains du Centre-Val-de-Loire"],"lt":1,"dept":"45"}},{"type":"Feature","geometry":{"type":"Point","coordinates":[2.62482,47.83697]},"properties":{"nom":"la Place","ag":["Réseau interurbain Rémi","Agrégat des réseaux urbains et interurbains du Centre-Val-de-Loire"],"lt":1,"dept":"45"}},{"type":"Feature","geometry":{"type":"Point","coordinates":[2.32897,48.28238]},"properties":{"nom":"Orveau Bellesauve Place du 14 Juillet","ag":["Réseau interurbain Rémi","Agrégat des réseaux urbains et interurbains du Centre-Val-de-Loire"],"lt":1,"dept":"45"}},{"type":"Feature","geometry":{"type":"Point","coordinates":[2.76751,48.07425]},"properties":{"nom":"la Cressonnière","ag":["Réseau interurbain Rémi","Agrégat des réseaux urbains et interurbains du Centre-Val-de-Loire"],"lt":1,"dept":"45"}},{"type":"Feature","geometry":{"type":"Point","coordinates":[2.63367,47.68625]},"properties":{"nom":"Rue Thiers","ag":["Réseau interurbain Rémi","Agrégat des réseaux urbains et interurbains du Centre-Val-de-Loire"],"lt":1,"dept":"45"}},{"type":"Feature","geometry":{"type":"Point","coordinates":[2.44451,47.88623]},"properties":{"nom":"Mairie/Ecole","ag":["Réseau interurbain Rémi","Agrégat des réseaux urbains et interurbains du Centre-Val-de-Loire"],"lt":1,"dept":"45"}},{"type":"Feature","geometry":{"type":"Point","coordinates":[2.61221,47.69553]},"properties":{"nom":"Riaudine","ag":["Réseau interurbain Rémi","Agrégat des réseaux urbains et interurbains du Centre-Val-de-Loire"],"lt":1,"dept":"45"}},{"type":"Feature","geometry":{"type":"Point","coordinates":[2.5965,47.89317]},"properties":{"nom":"Mairie/Ecole","ag":["Réseau interurbain Rémi","Agrégat des réseaux urbains et interurbains du Centre-Val-de-Loire"],"lt":1,"dept":"45"}},{"type":"Feature","geometry":{"type":"Point","coordinates":[2.76241,48.05349]},"properties":{"nom":"Puy la Laude","ag":["Réseau interurbain Rémi","Agrégat des réseaux urbains et interurbains du Centre-Val-de-Loire"],"lt":1,"dept":"45"}},{"type":"Feature","geometry":{"type":"Point","coordinates":[2.19303,48.13254]},"properties":{"nom":"Salle Polyvalente","ag":["Réseau interurbain Rémi","Agrégat des réseaux urbains et interurbains du Centre-Val-de-Loire"],"lt":1,"dept":"45"}},{"type":"Feature","geometry":{"type":"Point","coordinates":[2.58333,47.71383]},"properties":{"nom":"Rue de l'Eglise","ag":["Réseau interurbain Rémi","Agrégat des réseaux urbains et interurbains du Centre-Val-de-Loire"],"lt":1,"dept":"45"}},{"type":"Feature","geometry":{"type":"Point","coordinates":[2.77853,48.09244]},"properties":{"nom":"Château d'Eau","ag":["Réseau interurbain Rémi","Agrégat des réseaux urbains et interurbains du Centre-Val-de-Loire"],"lt":1,"dept":"45"}},{"type":"Feature","geometry":{"type":"Point","coordinates":[2.19667,48.12795]},"properties":{"nom":"la Bretonnière","ag":["Réseau interurbain Rémi","Agrégat des réseaux urbains et interurbains du Centre-Val-de-Loire"],"lt":1,"dept":"45"}},{"type":"Feature","geometry":{"type":"Point","coordinates":[2.63275,47.69063]},"properties":{"nom":"Gien-Hôpital","ag":["Réseau interurbain Rémi","Agrégat des réseaux urbains et interurbains du Centre-Val-de-Loire"],"lt":1,"dept":"45"}},{"type":"Feature","geometry":{"type":"Point","coordinates":[2.24112,48.16579]},"properties":{"nom":"Collège Simone Veil","ag":["Réseau interurbain Rémi","Agrégat des réseaux urbains et interurbains du Centre-Val-de-Loire"],"lt":1,"dept":"45"}},{"type":"Feature","geometry":{"type":"Point","coordinates":[2.77552,48.14819]},"properties":{"nom":"Av. Michel Bossé","ag":["Réseau interurbain Rémi","Agrégat des réseaux urbains et interurbains du Centre-Val-de-Loire"],"lt":1,"dept":"45"}},{"type":"Feature","geometry":{"type":"Point","coordinates":[3.08576,48.00148]},"properties":{"nom":"Jacqueminière la Pâturette","ag":["Réseau interurbain Rémi","Agrégat des réseaux urbains et interurbains du Centre-Val-de-Loire"],"lt":1,"dept":"45"}},{"type":"Feature","geometry":{"type":"Point","coordinates":[1.91623,47.93144]},"properties":{"nom":"Belle Cycliste","ag":["Réseau interurbain Rémi","Agrégat des réseaux urbains et interurbains du Centre-Val-de-Loire"],"lt":1,"dept":"45"}},{"type":"Feature","geometry":{"type":"Point","coordinates":[2.76674,48.13835]},"properties":{"nom":"Borne Miliaire","ag":["Réseau interurbain Rémi","Agrégat des réseaux urbains et interurbains du Centre-Val-de-Loire"],"lt":1,"dept":"45"}},{"type":"Feature","geometry":{"type":"Point","coordinates":[2.77123,48.00141]},"properties":{"nom":"Rd Pt Schweitzer","ag":["Réseau interurbain Rémi","Agrégat des réseaux urbains et interurbains du Centre-Val-de-Loire"],"lt":1,"dept":"45"}},{"type":"Feature","geometry":{"type":"Point","coordinates":[2.18208,48.05578]},"properties":{"nom":"Gallerand","ag":["Réseau interurbain Rémi","Agrégat des réseaux urbains et interurbains du Centre-Val-de-Loire"],"lt":1,"dept":"45"}},{"type":"Feature","geometry":{"type":"Point","coordinates":[1.86482,47.88051]},"properties":{"nom":"Quinze Pierres","ag":["Réseau interurbain Rémi","Agrégat des réseaux urbains et interurbains du Centre-Val-de-Loire"],"lt":1,"dept":"45"}},{"type":"Feature","geometry":{"type":"Point","coordinates":[2.78633,48.14068]},"properties":{"nom":"Saint Séverin","ag":["Réseau interurbain Rémi","Agrégat des réseaux urbains et interurbains du Centre-Val-de-Loire"],"lt":1,"dept":"45"}},{"type":"Feature","geometry":{"type":"Point","coordinates":[2.13475,48.0719]},"properties":{"nom":"Place de Romand","ag":["Réseau interurbain Rémi","Agrégat des réseaux urbains et interurbains du Centre-Val-de-Loire"],"lt":1,"dept":"45"}},{"type":"Feature","geometry":{"type":"Point","coordinates":[1.89588,47.88937]},"properties":{"nom":"Candolle Charles Péguy","ag":["Réseau interurbain Rémi","Agrégat des réseaux urbains et interurbains du Centre-Val-de-Loire"],"lt":1,"dept":"45"}},{"type":"Feature","geometry":{"type":"Point","coordinates":[2.76808,48.14446]},"properties":{"nom":"Salle des Fêtes","ag":["Réseau interurbain Rémi","Agrégat des réseaux urbains et interurbains du Centre-Val-de-Loire"],"lt":1,"dept":"45"}},{"type":"Feature","geometry":{"type":"Point","coordinates":[3.0054,48.03354]},"properties":{"nom":"la Maltournée","ag":["Réseau interurbain Rémi","Agrégat des réseaux urbains et interurbains du Centre-Val-de-Loire"],"lt":1,"dept":"45"}},{"type":"Feature","geometry":{"type":"Point","coordinates":[2.13429,48.07348]},"properties":{"nom":"la Rouche","ag":["Réseau interurbain Rémi","Agrégat des réseaux urbains et interurbains du Centre-Val-de-Loire"],"lt":1,"dept":"45"}},{"type":"Feature","geometry":{"type":"Point","coordinates":[2.79389,47.93664]},"properties":{"nom":"Moulin de Tour","ag":["Réseau interurbain Rémi","Agrégat des réseaux urbains et interurbains du Centre-Val-de-Loire"],"lt":1,"dept":"45"}},{"type":"Feature","geometry":{"type":"Point","coordinates":[2.91085,48.02793]},"properties":{"nom":"le Bois des Cranes","ag":["Réseau interurbain Rémi","Agrégat des réseaux urbains et interurbains du Centre-Val-de-Loire"],"lt":1,"dept":"45"}},{"type":"Feature","geometry":{"type":"Point","coordinates":[2.09425,48.0699]},"properties":{"nom":"Ronville","ag":["Réseau interurbain Rémi","Agrégat des réseaux urbains et interurbains du Centre-Val-de-Loire"],"lt":1,"dept":"45"}},{"type":"Feature","geometry":{"type":"Point","coordinates":[1.7132,47.78881]},"properties":{"nom":"Bel Air","ag":["Réseau interurbain Rémi","Agrégat des réseaux urbains et interurbains du Centre-Val-de-Loire"],"lt":1,"dept":"45"}},{"type":"Feature","geometry":{"type":"Point","coordinates":[3.05701,48.037]},"properties":{"nom":"La Gare","ag":["Réseau interurbain Rémi","Agrégat des réseaux urbains et interurbains du Centre-Val-de-Loire"],"lt":1,"dept":"45"}},{"type":"Feature","geometry":{"type":"Point","coordinates":[1.99965,48.06036]},"properties":{"nom":"le Poteau","ag":["Réseau interurbain Rémi","Agrégat des réseaux urbains et interurbains du Centre-Val-de-Loire"],"lt":1,"dept":"45"}},{"type":"Feature","geometry":{"type":"Point","coordinates":[1.71524,47.79777]},"properties":{"nom":"Mairie","ag":["Réseau interurbain Rémi","Agrégat des réseaux urbains et interurbains du Centre-Val-de-Loire"],"lt":1,"dept":"45"}},{"type":"Feature","geometry":{"type":"Point","coordinates":[2.63334,47.68614]},"properties":{"nom":"Puy de Dôme","ag":["Réseau interurbain Rémi","Agrégat des réseaux urbains et interurbains du Centre-Val-de-Loire"],"lt":1,"dept":"45"}},{"type":"Feature","geometry":{"type":"Point","coordinates":[2.25792,47.79165]},"properties":{"nom":"Hauts Monts","ag":["Réseau interurbain Rémi","Agrégat des réseaux urbains et interurbains du Centre-Val-de-Loire"],"lt":1,"dept":"45"}},{"type":"Feature","geometry":{"type":"Point","coordinates":[2.02679,48.04032]},"properties":{"nom":"Place","ag":["Réseau interurbain Rémi","Agrégat des réseaux urbains et interurbains du Centre-Val-de-Loire"],"lt":1,"dept":"45"}},{"type":"Feature","geometry":{"type":"Point","coordinates":[2.20034,47.79531]},"properties":{"nom":"Eglise","ag":["Réseau interurbain Rémi","Agrégat des réseaux urbains et interurbains du Centre-Val-de-Loire"],"lt":1,"dept":"45"}},{"type":"Feature","geometry":{"type":"Point","coordinates":[1.93775,47.83074]},"properties":{"nom":"Paul Langevin","ag":["Réseau interurbain Rémi","Agrégat des réseaux urbains et interurbains du Centre-Val-de-Loire"],"lt":1,"dept":"45"}},{"type":"Feature","geometry":{"type":"Point","coordinates":[2.70513,47.90104]},"properties":{"nom":"Eglise","ag":["Réseau interurbain Rémi","Agrégat des réseaux urbains et interurbains du Centre-Val-de-Loire"],"lt":1,"dept":"45"}},{"type":"Feature","geometry":{"type":"Point","coordinates":[2.70489,47.8815]},"properties":{"nom":"Place du Patis","ag":["Réseau interurbain Rémi","Agrégat des réseaux urbains et interurbains du Centre-Val-de-Loire"],"lt":1,"dept":"45"}},{"type":"Feature","geometry":{"type":"Point","coordinates":[2.32204,48.30955]},"properties":{"nom":"Nangeville Mairie","ag":["Réseau interurbain Rémi","Agrégat des réseaux urbains et interurbains du Centre-Val-de-Loire"],"lt":1,"dept":"45"}},{"type":"Feature","geometry":{"type":"Point","coordinates":[2.39229,48.24396]},"properties":{"nom":"Labrosse Mairie","ag":["Réseau interurbain Rémi","Agrégat des réseaux urbains et interurbains du Centre-Val-de-Loire"],"lt":1,"dept":"45"}},{"type":"Feature","geometry":{"type":"Point","coordinates":[2.74961,47.88089]},"properties":{"nom":"Mairie","ag":["Réseau interurbain Rémi","Agrégat des réseaux urbains et interurbains du Centre-Val-de-Loire"],"lt":1,"dept":"45"}},{"type":"Feature","geometry":{"type":"Point","coordinates":[2.74046,47.85244]},"properties":{"nom":"Monument","ag":["Réseau interurbain Rémi","Agrégat des réseaux urbains et interurbains du Centre-Val-de-Loire"],"lt":1,"dept":"45"}},{"type":"Feature","geometry":{"type":"Point","coordinates":[2.92297,48.14705]},"properties":{"nom":"Bourg Eglise","ag":["Réseau interurbain Rémi","Agrégat des réseaux urbains et interurbains du Centre-Val-de-Loire"],"lt":1,"dept":"45"}},{"type":"Feature","geometry":{"type":"Point","coordinates":[2.84706,48.01794]},"properties":{"nom":"Mairie","ag":["Réseau interurbain Rémi","Agrégat des réseaux urbains et interurbains du Centre-Val-de-Loire"],"lt":1,"dept":"45"}},{"type":"Feature","geometry":{"type":"Point","coordinates":[2.9359,48.05051]},"properties":{"nom":"Eglise","ag":["Réseau interurbain Rémi","Agrégat des réseaux urbains et interurbains du Centre-Val-de-Loire"],"lt":1,"dept":"45"}},{"type":"Feature","geometry":{"type":"Point","coordinates":[2.89465,48.01172]},"properties":{"nom":"Eglise","ag":["Réseau interurbain Rémi","Agrégat des réseaux urbains et interurbains du Centre-Val-de-Loire"],"lt":1,"dept":"45"}},{"type":"Feature","geometry":{"type":"Point","coordinates":[2.05362,48.07209]},"properties":{"nom":"Cimetière","ag":["Réseau interurbain Rémi","Agrégat des réseaux urbains et interurbains du Centre-Val-de-Loire"],"lt":1,"dept":"45"}},{"type":"Feature","geometry":{"type":"Point","coordinates":[2.6613,48.07629]},"properties":{"nom":"Mairie/Ecole","ag":["Réseau interurbain Rémi","Agrégat des réseaux urbains et interurbains du Centre-Val-de-Loire"],"lt":1,"dept":"45"}},{"type":"Feature","geometry":{"type":"Point","coordinates":[2.92572,48.00454]},"properties":{"nom":"la Bardinerie","ag":["Réseau interurbain Rémi","Agrégat des réseaux urbains et interurbains du Centre-Val-de-Loire"],"lt":1,"dept":"45"}},{"type":"Feature","geometry":{"type":"Point","coordinates":[2.05709,48.06603]},"properties":{"nom":"Collège","ag":["Réseau interurbain Rémi","Agrégat des réseaux urbains et interurbains du Centre-Val-de-Loire"],"lt":1,"dept":"45"}},{"type":"Feature","geometry":{"type":"Point","coordinates":[1.70994,47.79444]},"properties":{"nom":"Rue Francis Carret","ag":["Réseau interurbain Rémi","Agrégat des réseaux urbains et interurbains du Centre-Val-de-Loire"],"lt":1,"dept":"45"}},{"type":"Feature","geometry":{"type":"Point","coordinates":[2.96452,48.00449]},"properties":{"nom":"Mairie/Ecole","ag":["Réseau interurbain Rémi","Agrégat des réseaux urbains et interurbains du Centre-Val-de-Loire"],"lt":1,"dept":"45"}},{"type":"Feature","geometry":{"type":"Point","coordinates":[2.04791,48.06661]},"properties":{"nom":"Stade","ag":["Réseau interurbain Rémi","Agrégat des réseaux urbains et interurbains du Centre-Val-de-Loire"],"lt":1,"dept":"45"}},{"type":"Feature","geometry":{"type":"Point","coordinates":[2.72824,47.99292]},"properties":{"nom":"LEP J. Verdier Cifam","ag":["Réseau interurbain Rémi","Agrégat des réseaux urbains et interurbains du Centre-Val-de-Loire"],"lt":1,"dept":"45"}},{"type":"Feature","geometry":{"type":"Point","coordinates":[2.05594,48.05283]},"properties":{"nom":"Rive du Bois","ag":["Réseau interurbain Rémi","Agrégat des réseaux urbains et interurbains du Centre-Val-de-Loire"],"lt":1,"dept":"45"}},{"type":"Feature","geometry":{"type":"Point","coordinates":[1.75596,47.82119]},"properties":{"nom":"Mairie","ag":["Réseau interurbain Rémi","Agrégat des réseaux urbains et interurbains du Centre-Val-de-Loire"],"lt":1,"dept":"45"}},{"type":"Feature","geometry":{"type":"Point","coordinates":[2.63577,47.69897]},"properties":{"nom":"Gare SNCF","ag":["Réseau interurbain Rémi","Agrégat des réseaux urbains et interurbains du Centre-Val-de-Loire"],"lt":1,"dept":"45"}},{"type":"Feature","geometry":{"type":"Point","coordinates":[2.04814,48.06794]},"properties":{"nom":"Stade Pichardière","ag":["Réseau interurbain Rémi","Agrégat des réseaux urbains et interurbains du Centre-Val-de-Loire"],"lt":1,"dept":"45"}},{"type":"Feature","geometry":{"type":"Point","coordinates":[1.76821,47.82976]},"properties":{"nom":"Gué du Roi","ag":["Réseau interurbain Rémi","Agrégat des réseaux urbains et interurbains du Centre-Val-de-Loire"],"lt":1,"dept":"45"}},{"type":"Feature","geometry":{"type":"Point","coordinates":[2.73815,47.85275]},"properties":{"nom":"Gare SNCF","ag":["Réseau interurbain Rémi","Agrégat des réseaux urbains et interurbains du Centre-Val-de-Loire"],"lt":1,"dept":"45"}},{"type":"Feature","geometry":{"type":"Point","coordinates":[2.2162,48.12026]},"properties":{"nom":"Mairie","ag":["Réseau interurbain Rémi","Agrégat des réseaux urbains et interurbains du Centre-Val-de-Loire"],"lt":1,"dept":"45"}},{"type":"Feature","geometry":{"type":"Point","coordinates":[1.75106,47.81648]},"properties":{"nom":"Ardoux","ag":["Réseau interurbain Rémi","Agrégat des réseaux urbains et interurbains du Centre-Val-de-Loire"],"lt":1,"dept":"45"}},{"type":"Feature","geometry":{"type":"Point","coordinates":[1.94027,47.82401]},"properties":{"nom":"Buffon","ag":["Réseau interurbain Rémi","Agrégat des réseaux urbains et interurbains du Centre-Val-de-Loire"],"lt":1,"dept":"45"}},{"type":"Feature","geometry":{"type":"Point","coordinates":[2.24839,48.1671]},"properties":{"nom":"Gendarmerie","ag":["Réseau interurbain Rémi","Agrégat des réseaux urbains et interurbains du Centre-Val-de-Loire"],"lt":1,"dept":"45"}},{"type":"Feature","geometry":{"type":"Point","coordinates":[1.80423,47.81871]},"properties":{"nom":"Mairie","ag":["Réseau interurbain Rémi","Agrégat des réseaux urbains et interurbains du Centre-Val-de-Loire"],"lt":1,"dept":"45"}},{"type":"Feature","geometry":{"type":"Point","coordinates":[2.25433,48.18119]},"properties":{"nom":"Lyc Duhamel Dumoncea","ag":["Réseau interurbain Rémi","Agrégat des réseaux urbains et interurbains du Centre-Val-de-Loire"],"lt":1,"dept":"45"}},{"type":"Feature","geometry":{"type":"Point","coordinates":[1.68916,47.76803]},"properties":{"nom":"Route de Blois","ag":["Réseau interurbain Rémi","Agrégat des réseaux urbains et interurbains du Centre-Val-de-Loire"],"lt":1,"dept":"45"}},{"type":"Feature","geometry":{"type":"Point","coordinates":[2.62938,47.67979]},"properties":{"nom":"Berry","ag":["Réseau interurbain Rémi","Agrégat des réseaux urbains et interurbains du Centre-Val-de-Loire"],"lt":1,"dept":"45"}},{"type":"Feature","geometry":{"type":"Point","coordinates":[2.25386,48.17196]},"properties":{"nom":"Mail Sud","ag":["Réseau interurbain Rémi","Agrégat des réseaux urbains et interurbains du Centre-Val-de-Loire"],"lt":1,"dept":"45"}},{"type":"Feature","geometry":{"type":"Point","coordinates":[1.9535,48.08562]},"properties":{"nom":"Eglise","ag":["Réseau interurbain Rémi","Agrégat des réseaux urbains et interurbains du Centre-Val-de-Loire"],"lt":1,"dept":"45"}},{"type":"Feature","geometry":{"type":"Point","coordinates":[1.79786,47.83289]},"properties":{"nom":"le Bréau","ag":["Réseau interurbain Rémi","Agrégat des réseaux urbains et interurbains du Centre-Val-de-Loire"],"lt":1,"dept":"45"}},{"type":"Feature","geometry":{"type":"Point","coordinates":[2.18857,48.10299]},"properties":{"nom":"Eglise/Ecole","ag":["Réseau interurbain Rémi","Agrégat des réseaux urbains et interurbains du Centre-Val-de-Loire"],"lt":1,"dept":"45"}},{"type":"Feature","geometry":{"type":"Point","coordinates":[1.76147,47.82469]},"properties":{"nom":"Château d'Eau","ag":["Réseau interurbain Rémi","Agrégat des réseaux urbains et interurbains du Centre-Val-de-Loire"],"lt":1,"dept":"45"}},{"type":"Feature","geometry":{"type":"Point","coordinates":[1.72933,47.80393]},"properties":{"nom":"Maison de retraite","ag":["Réseau interurbain Rémi","Agrégat des réseaux urbains et interurbains du Centre-Val-de-Loire"],"lt":1,"dept":"45"}},{"type":"Feature","geometry":{"type":"Point","coordinates":[1.94177,47.83616]},"properties":{"nom":"Paul Gauguin","ag":["Réseau interurbain Rémi","Agrégat des réseaux urbains et interurbains du Centre-Val-de-Loire"],"lt":1,"dept":"45"}},{"type":"Feature","geometry":{"type":"Point","coordinates":[2.91061,47.96656]},"properties":{"nom":"Salle des Fêtes","ag":["Réseau interurbain Rémi","Agrégat des réseaux urbains et interurbains du Centre-Val-de-Loire"],"lt":1,"dept":"45"}},{"type":"Feature","geometry":{"type":"Point","coordinates":[2.89461,48.06292]},"properties":{"nom":"Mairie/Ecole","ag":["Réseau interurbain Rémi","Agrégat des réseaux urbains et interurbains du Centre-Val-de-Loire"],"lt":1,"dept":"45"}},{"type":"Feature","geometry":{"type":"Point","coordinates":[2.88022,48.03696]},"properties":{"nom":"Mairie","ag":["Réseau interurbain Rémi","Agrégat des réseaux urbains et interurbains du Centre-Val-de-Loire"],"lt":1,"dept":"45"}},{"type":"Feature","geometry":{"type":"Point","coordinates":[2.92194,48.05931]},"properties":{"nom":"Bourg","ag":["Réseau interurbain Rémi","Agrégat des réseaux urbains et interurbains du Centre-Val-de-Loire"],"lt":1,"dept":"45"}},{"type":"Feature","geometry":{"type":"Point","coordinates":[2.64282,47.90777]},"properties":{"nom":"Eglise","ag":["Réseau interurbain Rémi","Agrégat des réseaux urbains et interurbains du Centre-Val-de-Loire"],"lt":1,"dept":"45"}},{"type":"Feature","geometry":{"type":"Point","coordinates":[2.96072,48.05325]},"properties":{"nom":"Mairie/Ecole","ag":["Réseau interurbain Rémi","Agrégat des réseaux urbains et interurbains du Centre-Val-de-Loire"],"lt":1,"dept":"45"}},{"type":"Feature","geometry":{"type":"Point","coordinates":[2.94003,48.08221]},"properties":{"nom":"Mairie","ag":["Réseau interurbain Rémi","Agrégat des réseaux urbains et interurbains du Centre-Val-de-Loire"],"lt":1,"dept":"45"}},{"type":"Feature","geometry":{"type":"Point","coordinates":[2.34101,47.96424]},"properties":{"nom":"Mairie","ag":["Réseau interurbain Rémi","Agrégat des réseaux urbains et interurbains du Centre-Val-de-Loire"],"lt":1,"dept":"45"}},{"type":"Feature","geometry":{"type":"Point","coordinates":[2.30057,47.95599]},"properties":{"nom":"Salle communale","ag":["Réseau interurbain Rémi","Agrégat des réseaux urbains et interurbains du Centre-Val-de-Loire"],"lt":1,"dept":"45"}},{"type":"Feature","geometry":{"type":"Point","coordinates":[2.32674,48.02322]},"properties":{"nom":"Eglise","ag":["Réseau interurbain Rémi","Agrégat des réseaux urbains et interurbains du Centre-Val-de-Loire"],"lt":1,"dept":"45"}},{"type":"Feature","geometry":{"type":"Point","coordinates":[2.94787,48.12456]},"properties":{"nom":"Ecole","ag":["Réseau interurbain Rémi","Agrégat des réseaux urbains et interurbains du Centre-Val-de-Loire"],"lt":1,"dept":"45"}},{"type":"Feature","geometry":{"type":"Point","coordinates":[1.90775,47.92627]},"properties":{"nom":"Gare SNCF","ag":["Réseau interurbain Rémi","Agrégat des réseaux urbains et interurbains du Centre-Val-de-Loire"],"lt":1,"dept":"45"}},{"type":"Feature","geometry":{"type":"Point","coordinates":[2.42971,48.07099]},"properties":{"nom":"la poste","ag":["Réseau interurbain Rémi","Agrégat des réseaux urbains et interurbains du Centre-Val-de-Loire"],"lt":1,"dept":"45"}},{"type":"Feature","geometry":{"type":"Point","coordinates":[2.82867,48.07932]},"properties":{"nom":"Salle Polyvalente","ag":["Réseau interurbain Rémi","Agrégat des réseaux urbains et interurbains du Centre-Val-de-Loire"],"lt":1,"dept":"45"}},{"type":"Feature","geometry":{"type":"Point","coordinates":[2.73213,47.9652]},"properties":{"nom":"le Chesnoy","ag":["Réseau interurbain Rémi","Agrégat des réseaux urbains et interurbains du Centre-Val-de-Loire"],"lt":1,"dept":"45"}},{"type":"Feature","geometry":{"type":"Point","coordinates":[2.7101,47.99078]},"properties":{"nom":"Villemandeur Mairie","ag":["Réseau interurbain Rémi","Agrégat des réseaux urbains et interurbains du Centre-Val-de-Loire"],"lt":1,"dept":"45"}},{"type":"Feature","geometry":{"type":"Point","coordinates":[1.99197,47.90455]},"properties":{"nom":"Bionne Combleux Route","ag":["Réseau interurbain Rémi","Agrégat des réseaux urbains et interurbains du Centre-Val-de-Loire"],"lt":1,"dept":"45"}},{"type":"Feature","geometry":{"type":"Point","coordinates":[2.38298,48.03567]},"properties":{"nom":"Place du Champ de Foire","ag":["Réseau interurbain Rémi","Agrégat des réseaux urbains et interurbains du Centre-Val-de-Loire"],"lt":1,"dept":"45"}},{"type":"Feature","geometry":{"type":"Point","coordinates":[2.62409,47.99385]},"properties":{"nom":"Ancienne Gare","ag":["Réseau interurbain Rémi","Agrégat des réseaux urbains et interurbains du Centre-Val-de-Loire"],"lt":1,"dept":"45"}},{"type":"Feature","geometry":{"type":"Point","coordinates":[1.93405,47.88047]},"properties":{"nom":"Saint-Denis","ag":["Réseau interurbain Rémi","Agrégat des réseaux urbains et interurbains du Centre-Val-de-Loire"],"lt":1,"dept":"45"}},{"type":"Feature","geometry":{"type":"Point","coordinates":[2.38686,48.03653]},"properties":{"nom":"Ecole","ag":["Réseau interurbain Rémi","Agrégat des réseaux urbains et interurbains du Centre-Val-de-Loire"],"lt":1,"dept":"45"}},