{"type":"FeatureCollection","features":[{"type":"Feature","geometry":{"type":"Point","coordinates":[-0.59601,47.51153]},"properties":{"nom":"Avrillé - Ardenne","ag":["Réseau urbain Irigo"],"lt":0,"dept":"49"}},{"type":"Feature","geometry":{"type":"Point","coordinates":[-0.58637,47.50365]},"properties":{"nom":"Acacias","ag":["Réseau urbain Irigo","Agrégat des réseaux urbains et interurbains des Pays de la Loire"],"lt":0,"dept":"49"}},{"type":"Feature","geometry":{"type":"Point","coordinates":[-0.55646,47.45217]},"properties":{"nom":"Bamako","ag":["Réseau urbain Irigo"],"lt":0,"dept":"49"}},{"type":"Feature","geometry":{"type":"Point","coordinates":[-0.59166,47.50869]},"properties":{"nom":"Bascule","ag":["Réseau urbain Irigo","Agrégat des réseaux urbains et interurbains des Pays de la Loire"],"lt":0,"dept":"49"}},{"type":"Feature","geometry":{"type":"Point","coordinates":[-0.54938,47.47934]},"properties":{"nom":"Berges de Maine","ag":["Réseau urbain Irigo","Agrégat des réseaux urbains et interurbains des Pays de la Loire"],"lt":0,"dept":"49"}},{"type":"Feature","geometry":{"type":"Point","coordinates":[-0.57469,47.49422]},"properties":{"nom":"Terra Botanica","ag":["Réseau urbain Irigo","Agrégat des réseaux urbains et interurbains des Pays de la Loire"],"lt":0,"dept":"49"}},{"type":"Feature","geometry":{"type":"Point","coordinates":[-0.58316,47.49961]},"properties":{"nom":"Bois du Roy","ag":["Réseau urbain Irigo"],"lt":0,"dept":"49"}},{"type":"Feature","geometry":{"type":"Point","coordinates":[-0.55523,47.48689]},"properties":{"nom":"Capucins","ag":["Réseau urbain Irigo","Agrégat des réseaux urbains et interurbains des Pays de la Loire"],"lt":0,"dept":"49"}},{"type":"Feature","geometry":{"type":"Point","coordinates":[-0.54605,47.47419]},"properties":{"nom":"Centre de Congrès","ag":["Réseau urbain Irigo","Agrégat des réseaux urbains et interurbains des Pays de la Loire"],"lt":0,"dept":"49"}},{"type":"Feature","geometry":{"type":"Point","coordinates":[-0.54976,47.46899]},"properties":{"nom":"Foch-Maison Bleue","ag":["Réseau urbain Irigo","Agrégat des réseaux urbains et interurbains des Pays de la Loire"],"lt":0,"dept":"49"}},{"type":"Feature","geometry":{"type":"Point","coordinates":[-0.55266,47.46682]},"properties":{"nom":"Foch-Haras","ag":["Réseau urbain Irigo","Agrégat des réseaux urbains et interurbains des Pays de la Loire"],"lt":0,"dept":"49"}},{"type":"Feature","geometry":{"type":"Point","coordinates":[-0.54679,47.4717]},"properties":{"nom":"Hôtel de Ville","ag":["Réseau urbain Irigo","Agrégat des réseaux urbains et interurbains des Pays de la Loire"],"lt":0,"dept":"49"}},{"type":"Feature","geometry":{"type":"Point","coordinates":[-0.55416,47.48139]},"properties":{"nom":"CHU-Hôpital","ag":["Réseau urbain Irigo"],"lt":0,"dept":"49"}},{"type":"Feature","geometry":{"type":"Point","coordinates":[-0.56042,47.49215]},"properties":{"nom":"Hauts de St-Aubin","ag":["Réseau urbain Irigo","Agrégat des réseaux urbains et interurbains des Pays de la Loire"],"lt":0,"dept":"49"}},{"type":"Feature","geometry":{"type":"Point","coordinates":[-0.56293,47.44861]},"properties":{"nom":"Jean XXIII","ag":["Réseau urbain Irigo","Agrégat des réseaux urbains et interurbains des Pays de la Loire"],"lt":0,"dept":"49"}},{"type":"Feature","geometry":{"type":"Point","coordinates":[-0.55219,47.49047]},"properties":{"nom":"Jean Moulin","ag":["Réseau urbain Irigo","Agrégat des réseaux urbains et interurbains des Pays de la Loire"],"lt":0,"dept":"49"}},{"type":"Feature","geometry":{"type":"Point","coordinates":[-0.56233,47.44507]},"properties":{"nom":"Jean Vilar","ag":["Réseau urbain Irigo","Agrégat des réseaux urbains et interurbains des Pays de la Loire"],"lt":0,"dept":"49"}},{"type":"Feature","geometry":{"type":"Point","coordinates":[-0.55472,47.46081]},"properties":{"nom":"La Fayette","ag":["Réseau urbain Irigo","Agrégat des réseaux urbains et interurbains des Pays de la Loire"],"lt":0,"dept":"49"}},{"type":"Feature","geometry":{"type":"Point","coordinates":[-0.55546,47.46447]},"properties":{"nom":"Les Gares","ag":["Réseau urbain Irigo","Agrégat des réseaux urbains et interurbains des Pays de la Loire"],"lt":0,"dept":"49"}},{"type":"Feature","geometry":{"type":"Point","coordinates":[-0.58005,47.49571]},"properties":{"nom":"Plateau Mayenne","ag":["Réseau urbain Irigo","Agrégat des réseaux urbains et interurbains des Pays de la Loire"],"lt":0,"dept":"49"}},{"type":"Feature","geometry":{"type":"Point","coordinates":[-0.58954,47.50651]},"properties":{"nom":"St-Gilles","ag":["Réseau urbain Irigo","Agrégat des réseaux urbains et interurbains des Pays de la Loire"],"lt":0,"dept":"49"}},{"type":"Feature","geometry":{"type":"Point","coordinates":[-0.55404,47.45668]},"properties":{"nom":"Strasbourg","ag":["Réseau urbain Irigo","Agrégat des réseaux urbains et interurbains des Pays de la Loire"],"lt":0,"dept":"49"}},{"type":"Feature","geometry":{"type":"Point","coordinates":[-0.55067,47.47614]},"properties":{"nom":"St-Serge Université","ag":["Réseau urbain Irigo","Agrégat des réseaux urbains et interurbains des Pays de la Loire"],"lt":0,"dept":"49"}},{"type":"Feature","geometry":{"type":"Point","coordinates":[-0.56717,47.49246]},"properties":{"nom":"Verneau","ag":["Réseau urbain Irigo","Agrégat des réseaux urbains et interurbains des Pays de la Loire"],"lt":0,"dept":"49"}},{"type":"Feature","geometry":{"type":"Point","coordinates":[-0.58633,47.50368]},"properties":{"nom":"Acacias","ag":["Réseau urbain Irigo","Agrégat des réseaux urbains et interurbains des Pays de la Loire"],"lt":0,"dept":"49"}},{"type":"Feature","geometry":{"type":"Point","coordinates":[-0.55403,47.4439]},"properties":{"nom":"Roseraie","ag":["Réseau urbain Irigo","Agrégat des réseaux urbains et interurbains des Pays de la Loire"],"lt":0,"dept":"49"}},{"type":"Feature","geometry":{"type":"Point","coordinates":[-0.55637,47.45211]},"properties":{"nom":"Bamako","ag":["Réseau urbain Irigo","Agrégat des réseaux urbains et interurbains des Pays de la Loire"],"lt":0,"dept":"49"}},{"type":"Feature","geometry":{"type":"Point","coordinates":[-0.59149,47.50878]},"properties":{"nom":"Bascule","ag":["Réseau urbain Irigo","Agrégat des réseaux urbains et interurbains des Pays de la Loire"],"lt":0,"dept":"49"}},{"type":"Feature","geometry":{"type":"Point","coordinates":[-0.54937,47.47944]},"properties":{"nom":"Berges de Maine","ag":["Réseau urbain Irigo","Agrégat des réseaux urbains et interurbains des Pays de la Loire"],"lt":0,"dept":"49"}},{"type":"Feature","geometry":{"type":"Point","coordinates":[-0.57485,47.49419]},"properties":{"nom":"Terra Botanica","ag":["Réseau urbain Irigo","Agrégat des réseaux urbains et interurbains des Pays de la Loire"],"lt":0,"dept":"49"}},{"type":"Feature","geometry":{"type":"Point","coordinates":[-0.58305,47.49966]},"properties":{"nom":"Bois du Roy","ag":["Réseau urbain Irigo","Agrégat des réseaux urbains et interurbains des Pays de la Loire"],"lt":0,"dept":"49"}},{"type":"Feature","geometry":{"type":"Point","coordinates":[-0.55514,47.48682]},"properties":{"nom":"Capucins","ag":["Réseau urbain Irigo","Agrégat des réseaux urbains et interurbains des Pays de la Loire"],"lt":0,"dept":"49"}},{"type":"Feature","geometry":{"type":"Point","coordinates":[-0.5461,47.47427]},"properties":{"nom":"Centre de Congrès","ag":["Réseau urbain Irigo","Agrégat des réseaux urbains et interurbains des Pays de la Loire"],"lt":0,"dept":"49"}},{"type":"Feature","geometry":{"type":"Point","coordinates":[-0.54966,47.46893]},"properties":{"nom":"Foch-Maison Bleue","ag":["Réseau urbain Irigo","Agrégat des réseaux urbains et interurbains des Pays de la Loire"],"lt":0,"dept":"49"}},{"type":"Feature","geometry":{"type":"Point","coordinates":[-0.55257,47.46675]},"properties":{"nom":"Foch-Haras","ag":["Réseau urbain Irigo","Agrégat des réseaux urbains et interurbains des Pays de la Loire"],"lt":0,"dept":"49"}},{"type":"Feature","geometry":{"type":"Point","coordinates":[-0.54667,47.47166]},"properties":{"nom":"Hôtel de Ville","ag":["Réseau urbain Irigo","Agrégat des réseaux urbains et interurbains des Pays de la Loire"],"lt":0,"dept":"49"}},{"type":"Feature","geometry":{"type":"Point","coordinates":[-0.55405,47.48132]},"properties":{"nom":"CHU-Hôpital","ag":["Réseau urbain Irigo","Agrégat des réseaux urbains et interurbains des Pays de la Loire"],"lt":0,"dept":"49"}},{"type":"Feature","geometry":{"type":"Point","coordinates":[-0.56046,47.49224]},"properties":{"nom":"Hauts de St-Aubin","ag":["Réseau urbain Irigo","Agrégat des réseaux urbains et interurbains des Pays de la Loire"],"lt":0,"dept":"49"}},{"type":"Feature","geometry":{"type":"Point","coordinates":[-0.56284,47.44855]},"properties":{"nom":"Jean XXIII","ag":["Réseau urbain Irigo","Agrégat des réseaux urbains et interurbains des Pays de la Loire"],"lt":0,"dept":"49"}},{"type":"Feature","geometry":{"type":"Point","coordinates":[-0.55207,47.49043]},"properties":{"nom":"Jean Moulin","ag":["Réseau urbain Irigo","Agrégat des réseaux urbains et interurbains des Pays de la Loire"],"lt":0,"dept":"49"}},{"type":"Feature","geometry":{"type":"Point","coordinates":[-0.56225,47.44488]},"properties":{"nom":"Jean Vilar","ag":["Réseau urbain Irigo","Agrégat des réseaux urbains et interurbains des Pays de la Loire"],"lt":0,"dept":"49"}},{"type":"Feature","geometry":{"type":"Point","coordinates":[-0.55461,47.46083]},"properties":{"nom":"La Fayette","ag":["Réseau urbain Irigo","Agrégat des réseaux urbains et interurbains des Pays de la Loire"],"lt":0,"dept":"49"}},{"type":"Feature","geometry":{"type":"Point","coordinates":[-0.55541,47.46449]},"properties":{"nom":"Les Gares","ag":["Réseau urbain Irigo","Agrégat des réseaux urbains et interurbains des Pays de la Loire"],"lt":0,"dept":"49"}},{"type":"Feature","geometry":{"type":"Point","coordinates":[-0.57994,47.49576]},"properties":{"nom":"Plateau Mayenne","ag":["Réseau urbain Irigo","Agrégat des réseaux urbains et interurbains des Pays de la Loire"],"lt":0,"dept":"49"}},{"type":"Feature","geometry":{"type":"Point","coordinates":[-0.58897,47.50624]},"properties":{"nom":"St-Gilles","ag":["Réseau urbain Irigo","Agrégat des réseaux urbains et interurbains des Pays de la Loire"],"lt":0,"dept":"49"}},{"type":"Feature","geometry":{"type":"Point","coordinates":[-0.55406,47.45752]},"properties":{"nom":"Strasbourg","ag":["Réseau urbain Irigo","Agrégat des réseaux urbains et interurbains des Pays de la Loire"],"lt":0,"dept":"49"}},{"type":"Feature","geometry":{"type":"Point","coordinates":[-0.55069,47.47625]},"properties":{"nom":"St-Serge Université","ag":["Réseau urbain Irigo","Agrégat des réseaux urbains et interurbains des Pays de la Loire"],"lt":0,"dept":"49"}},{"type":"Feature","geometry":{"type":"Point","coordinates":[-0.56732,47.49251]},"properties":{"nom":"Verneau","ag":["Réseau urbain Irigo"],"lt":0,"dept":"49"}},{"type":"Feature","geometry":{"type":"Point","coordinates":[-0.62663,47.4637]},"properties":{"nom":"AMIPI","ag":["Réseau urbain Irigo","Agrégat des réseaux urbains et interurbains des Pays de la Loire"],"lt":0,"dept":"49"}},{"type":"Feature","geometry":{"type":"Point","coordinates":[-0.62667,47.46378]},"properties":{"nom":"AMIPI","ag":["Réseau urbain Irigo","Agrégat des réseaux urbains et interurbains des Pays de la Loire"],"lt":0,"dept":"49"}},{"type":"Feature","geometry":{"type":"Point","coordinates":[-0.68841,47.4813]},"properties":{"nom":"Avicenne","ag":["Réseau urbain Irigo","Agrégat des réseaux urbains et interurbains des Pays de la Loire"],"lt":0,"dept":"49"}},{"type":"Feature","geometry":{"type":"Point","coordinates":[-0.68887,47.48127]},"properties":{"nom":"Avicenne","ag":["Réseau urbain Irigo","Agrégat des réseaux urbains et interurbains des Pays de la Loire"],"lt":0,"dept":"49"}},{"type":"Feature","geometry":{"type":"Point","coordinates":[-0.55914,47.46743]},"properties":{"nom":"Académie","ag":["Réseau urbain Irigo","Agrégat des réseaux urbains et interurbains des Pays de la Loire"],"lt":0,"dept":"49"}},{"type":"Feature","geometry":{"type":"Point","coordinates":[-0.55869,47.46843]},"properties":{"nom":"Académie","ag":["Réseau urbain Irigo","Agrégat des réseaux urbains et interurbains des Pays de la Loire"],"lt":0,"dept":"49"}},{"type":"Feature","geometry":{"type":"Point","coordinates":[-0.60505,47.50495]},"properties":{"nom":"Adézière","ag":["Réseau urbain Irigo","Agrégat des réseaux urbains et interurbains des Pays de la Loire"],"lt":0,"dept":"49"}},{"type":"Feature","geometry":{"type":"Point","coordinates":[-0.43965,47.47326]},"properties":{"nom":"Aigrefoin","ag":["Réseau urbain Irigo","Agrégat des réseaux urbains et interurbains des Pays de la Loire"],"lt":0,"dept":"49"}},{"type":"Feature","geometry":{"type":"Point","coordinates":[-0.5485,47.4645]},"properties":{"nom":"André Leroy","ag":["Réseau urbain Irigo","Agrégat des réseaux urbains et interurbains des Pays de la Loire"],"lt":0,"dept":"49"}},{"type":"Feature","geometry":{"type":"Point","coordinates":[-0.53875,47.44953]},"properties":{"nom":"Allard","ag":["Réseau urbain Irigo"],"lt":0,"dept":"49"}},{"type":"Feature","geometry":{"type":"Point","coordinates":[-0.5387,47.4489]},"properties":{"nom":"Allard","ag":["Réseau urbain Irigo","Agrégat des réseaux urbains et interurbains des Pays de la Loire"],"lt":0,"dept":"49"}},{"type":"Feature","geometry":{"type":"Point","coordinates":[-0.59995,47.52792]},"properties":{"nom":"Allemagne","ag":["Réseau urbain Irigo","Agrégat des réseaux urbains et interurbains des Pays de la Loire"],"lt":0,"dept":"49"}},{"type":"Feature","geometry":{"type":"Point","coordinates":[-0.60192,47.52667]},"properties":{"nom":"Allemagne","ag":["Réseau urbain Irigo","Agrégat des réseaux urbains et interurbains des Pays de la Loire"],"lt":0,"dept":"49"}},{"type":"Feature","geometry":{"type":"Point","coordinates":[-0.50264,47.44512]},"properties":{"nom":"Allumettes","ag":["Réseau urbain Irigo"],"lt":0,"dept":"49"}},{"type":"Feature","geometry":{"type":"Point","coordinates":[-0.50232,47.44527]},"properties":{"nom":"Allumettes","ag":["Réseau urbain Irigo","Agrégat des réseaux urbains et interurbains des Pays de la Loire"],"lt":0,"dept":"49"}},{"type":"Feature","geometry":{"type":"Point","coordinates":[-0.61374,47.53132]},"properties":{"nom":"Anatole France","ag":["Réseau urbain Irigo","Agrégat des réseaux urbains et interurbains des Pays de la Loire"],"lt":0,"dept":"49"}},{"type":"Feature","geometry":{"type":"Point","coordinates":[-0.61372,47.53109]},"properties":{"nom":"Anatole France","ag":["Réseau urbain Irigo","Agrégat des réseaux urbains et interurbains des Pays de la Loire"],"lt":0,"dept":"49"}},{"type":"Feature","geometry":{"type":"Point","coordinates":[-0.46801,47.52667]},"properties":{"nom":"André Bruel","ag":["Réseau urbain Irigo","Agrégat des réseaux urbains et interurbains des Pays de la Loire"],"lt":0,"dept":"49"}},{"type":"Feature","geometry":{"type":"Point","coordinates":[-0.46812,47.52659]},"properties":{"nom":"André Bruel","ag":["Réseau urbain Irigo","Agrégat des réseaux urbains et interurbains des Pays de la Loire"],"lt":0,"dept":"49"}},{"type":"Feature","geometry":{"type":"Point","coordinates":[-0.38755,47.46157]},"properties":{"nom":"Grand Launay","ag":["Réseau urbain Irigo"],"lt":0,"dept":"49"}},{"type":"Feature","geometry":{"type":"Point","coordinates":[-0.38811,47.46129]},"properties":{"nom":"Grand Launay","ag":["Réseau urbain Irigo","Agrégat des réseaux urbains et interurbains des Pays de la Loire"],"lt":0,"dept":"49"}},{"type":"Feature","geometry":{"type":"Point","coordinates":[-0.3977,47.4565]},"properties":{"nom":"Andard Mairie","ag":["Réseau urbain Irigo"],"lt":0,"dept":"49"}},{"type":"Feature","geometry":{"type":"Point","coordinates":[-0.39818,47.45654]},"properties":{"nom":"Andard Mairie","ag":["Réseau urbain Irigo","Agrégat des réseaux urbains et interurbains des Pays de la Loire"],"lt":0,"dept":"49"}},{"type":"Feature","geometry":{"type":"Point","coordinates":[-0.37896,47.46794]},"properties":{"nom":"Rezeau","ag":["Réseau urbain Irigo","Agrégat des réseaux urbains et interurbains des Pays de la Loire"],"lt":0,"dept":"49"}},{"type":"Feature","geometry":{"type":"Point","coordinates":[-0.53777,47.46356]},"properties":{"nom":"Anne Frank","ag":["Réseau urbain Irigo","Agrégat des réseaux urbains et interurbains des Pays de la Loire"],"lt":0,"dept":"49"}},{"type":"Feature","geometry":{"type":"Point","coordinates":[-0.53777,47.46347]},"properties":{"nom":"Anne Frank","ag":["Réseau urbain Irigo","Agrégat des réseaux urbains et interurbains des Pays de la Loire"],"lt":0,"dept":"49"}},{"type":"Feature","geometry":{"type":"Point","coordinates":[-0.54903,47.46463]},"properties":{"nom":"André Leroy","ag":["Réseau urbain Irigo","Agrégat des réseaux urbains et interurbains des Pays de la Loire"],"lt":0,"dept":"49"}},{"type":"Feature","geometry":{"type":"Point","coordinates":[-0.54825,47.46466]},"properties":{"nom":"André Leroy","ag":["Réseau urbain Irigo","Agrégat des réseaux urbains et interurbains des Pays de la Loire"],"lt":0,"dept":"49"}},{"type":"Feature","geometry":{"type":"Point","coordinates":[-0.55392,47.44401]},"properties":{"nom":"Roseraie","ag":["Réseau urbain Irigo","Agrégat des réseaux urbains et interurbains des Pays de la Loire"],"lt":0,"dept":"49"}},{"type":"Feature","geometry":{"type":"Point","coordinates":[-0.55367,47.44378]},"properties":{"nom":"Roseraie","ag":["Réseau urbain Irigo","Agrégat des réseaux urbains et interurbains des Pays de la Loire"],"lt":0,"dept":"49"}},{"type":"Feature","geometry":{"type":"Point","coordinates":[-0.54656,47.4452]},"properties":{"nom":"Appentis","ag":["Réseau urbain Irigo","Agrégat des réseaux urbains et interurbains des Pays de la Loire"],"lt":0,"dept":"49"}},{"type":"Feature","geometry":{"type":"Point","coordinates":[-0.54627,47.44549]},"properties":{"nom":"Appentis","ag":["Réseau urbain Irigo"],"lt":0,"dept":"49"}},{"type":"Feature","geometry":{"type":"Point","coordinates":[-0.56554,47.49341]},"properties":{"nom":"AquaVita","ag":["Réseau urbain Irigo","Agrégat des réseaux urbains et interurbains des Pays de la Loire"],"lt":0,"dept":"49"}},{"type":"Feature","geometry":{"type":"Point","coordinates":[-0.56529,47.4934]},"properties":{"nom":"AquaVita","ag":["Réseau urbain Irigo","Agrégat des réseaux urbains et interurbains des Pays de la Loire"],"lt":0,"dept":"49"}},{"type":"Feature","geometry":{"type":"Point","coordinates":[-0.61507,47.46302]},"properties":{"nom":"Aliénor d'Aquitaine","ag":["Réseau urbain Irigo","Agrégat des réseaux urbains et interurbains des Pays de la Loire"],"lt":0,"dept":"49"}},{"type":"Feature","geometry":{"type":"Point","coordinates":[-0.56553,47.4935]},"properties":{"nom":"AquaVita","ag":["Réseau urbain Irigo","Agrégat des réseaux urbains et interurbains des Pays de la Loire"],"lt":0,"dept":"49"}},{"type":"Feature","geometry":{"type":"Point","coordinates":[-0.54443,47.44939]},"properties":{"nom":"Arboretum","ag":["Réseau urbain Irigo","Agrégat des réseaux urbains et interurbains des Pays de la Loire"],"lt":0,"dept":"49"}},{"type":"Feature","geometry":{"type":"Point","coordinates":[-0.54414,47.44932]},"properties":{"nom":"Arboretum","ag":["Réseau urbain Irigo","Agrégat des réseaux urbains et interurbains des Pays de la Loire"],"lt":0,"dept":"49"}},{"type":"Feature","geometry":{"type":"Point","coordinates":[-0.51659,47.50721]},"properties":{"nom":"Arcades","ag":["Réseau urbain Irigo","Agrégat des réseaux urbains et interurbains des Pays de la Loire"],"lt":0,"dept":"49"}},{"type":"Feature","geometry":{"type":"Point","coordinates":[-0.51686,47.50693]},"properties":{"nom":"Arcades","ag":["Réseau urbain Irigo","Agrégat des réseaux urbains et interurbains des Pays de la Loire"],"lt":0,"dept":"49"}},{"type":"Feature","geometry":{"type":"Point","coordinates":[-0.51978,47.47108]},"properties":{"nom":"Arceau","ag":["Réseau urbain Irigo","Agrégat des réseaux urbains et interurbains des Pays de la Loire"],"lt":0,"dept":"49"}},{"type":"Feature","geometry":{"type":"Point","coordinates":[-0.51984,47.47097]},"properties":{"nom":"Arceau","ag":["Réseau urbain Irigo","Agrégat des réseaux urbains et interurbains des Pays de la Loire"],"lt":0,"dept":"49"}},{"type":"Feature","geometry":{"type":"Point","coordinates":[-0.5317,47.46399]},"properties":{"nom":"Arobase","ag":["Réseau urbain Irigo","Agrégat des réseaux urbains et interurbains des Pays de la Loire"],"lt":0,"dept":"49"}},{"type":"Feature","geometry":{"type":"Point","coordinates":[-0.53155,47.46459]},"properties":{"nom":"Arobase","ag":["Réseau urbain Irigo","Agrégat des réseaux urbains et interurbains des Pays de la Loire"],"lt":0,"dept":"49"}},{"type":"Feature","geometry":{"type":"Point","coordinates":[-0.61095,47.43405]},"properties":{"nom":"Artaud","ag":["Réseau urbain Irigo","Agrégat des réseaux urbains et interurbains des Pays de la Loire"],"lt":0,"dept":"49"}},{"type":"Feature","geometry":{"type":"Point","coordinates":[-0.61089,47.43334]},"properties":{"nom":"Artaud","ag":["Réseau urbain Irigo","Agrégat des réseaux urbains et interurbains des Pays de la Loire"],"lt":0,"dept":"49"}},{"type":"Feature","geometry":{"type":"Point","coordinates":[-0.52838,47.44148]},"properties":{"nom":"Athlétis","ag":["Réseau urbain Irigo","Agrégat des réseaux urbains et interurbains des Pays de la Loire"],"lt":0,"dept":"49"}},{"type":"Feature","geometry":{"type":"Point","coordinates":[-0.52813,47.44165]},"properties":{"nom":"Athlétis","ag":["Réseau urbain Irigo","Agrégat des réseaux urbains et interurbains des Pays de la Loire"],"lt":0,"dept":"49"}},{"type":"Feature","geometry":{"type":"Point","coordinates":[-0.63225,47.48303]},"properties":{"nom":"L'Atoll","ag":["Réseau urbain Irigo"],"lt":0,"dept":"49"}},{"type":"Feature","geometry":{"type":"Point","coordinates":[-0.4959,47.46156]},"properties":{"nom":"Aubépine","ag":["Réseau urbain Irigo","Agrégat des réseaux urbains et interurbains des Pays de la Loire"],"lt":0,"dept":"49"}},{"type":"Feature","geometry":{"type":"Point","coordinates":[-0.49598,47.46171]},"properties":{"nom":"Aubépine","ag":["Réseau urbain Irigo"],"lt":0,"dept":"49"}},{"type":"Feature","geometry":{"type":"Point","coordinates":[-0.47853,47.53791]},"properties":{"nom":"Auberderie","ag":["Réseau urbain Irigo","Agrégat des réseaux urbains et interurbains des Pays de la Loire"],"lt":0,"dept":"49"}},{"type":"Feature","geometry":{"type":"Point","coordinates":[-0.47869,47.53789]},"properties":{"nom":"Auberderie","ag":["Réseau urbain Irigo"],"lt":0,"dept":"49"}},{"type":"Feature","geometry":{"type":"Point","coordinates":[-0.66769,47.51575]},"properties":{"nom":"Aubriais","ag":["Réseau urbain Irigo","Agrégat des réseaux urbains et interurbains des Pays de la Loire"],"lt":0,"dept":"49"}},{"type":"Feature","geometry":{"type":"Point","coordinates":[-0.66793,47.5158]},"properties":{"nom":"Aubriais","ag":["Réseau urbain Irigo","Agrégat des réseaux urbains et interurbains des Pays de la Loire"],"lt":0,"dept":"49"}},{"type":"Feature","geometry":{"type":"Point","coordinates":[-0.55207,47.44098]},"properties":{"nom":"Aubry","ag":["Réseau urbain Irigo","Agrégat des réseaux urbains et interurbains des Pays de la Loire"],"lt":0,"dept":"49"}},{"type":"Feature","geometry":{"type":"Point","coordinates":[-0.55223,47.44184]},"properties":{"nom":"Aubry","ag":["Réseau urbain Irigo","Agrégat des réseaux urbains et interurbains des Pays de la Loire"],"lt":0,"dept":"49"}},{"type":"Feature","geometry":{"type":"Point","coordinates":[-0.43999,47.58684]},"properties":{"nom":"Aulnaies","ag":["Réseau urbain Irigo"],"lt":0,"dept":"49"}},{"type":"Feature","geometry":{"type":"Point","coordinates":[-0.43994,47.58675]},"properties":{"nom":"Aulnaies","ag":["Réseau urbain Irigo","Agrégat des réseaux urbains et interurbains des Pays de la Loire"],"lt":0,"dept":"49"}},{"type":"Feature","geometry":{"type":"Point","coordinates":[-0.49289,47.58745]},"properties":{"nom":"Aulnerie","ag":["Réseau urbain Irigo","Agrégat des réseaux urbains et interurbains des Pays de la Loire"],"lt":0,"dept":"49"}},{"type":"Feature","geometry":{"type":"Point","coordinates":[-0.52866,47.43151]},"properties":{"nom":"Authion","ag":["Réseau urbain Irigo","Agrégat des réseaux urbains et interurbains des Pays de la Loire"],"lt":0,"dept":"49"}},{"type":"Feature","geometry":{"type":"Point","coordinates":[-0.52847,47.43146]},"properties":{"nom":"Authion","ag":["Réseau urbain Irigo","Agrégat des réseaux urbains et interurbains des Pays de la Loire"],"lt":0,"dept":"49"}},{"type":"Feature","geometry":{"type":"Point","coordinates":[-0.6094,47.52291]},"properties":{"nom":"Autriche","ag":["Réseau urbain Irigo","Agrégat des réseaux urbains et interurbains des Pays de la Loire"],"lt":0,"dept":"49"}},{"type":"Feature","geometry":{"type":"Point","coordinates":[-0.60996,47.52298]},"properties":{"nom":"Autriche","ag":["Réseau urbain Irigo","Agrégat des réseaux urbains et interurbains des Pays de la Loire"],"lt":0,"dept":"49"}},{"type":"Feature","geometry":{"type":"Point","coordinates":[-0.53006,47.4902]},"properties":{"nom":"Auvergne","ag":["Réseau urbain Irigo","Agrégat des réseaux urbains et interurbains des Pays de la Loire"],"lt":0,"dept":"49"}},{"type":"Feature","geometry":{"type":"Point","coordinates":[-0.53082,47.48951]},"properties":{"nom":"Auvergne","ag":["Réseau urbain Irigo","Agrégat des réseaux urbains et interurbains des Pays de la Loire"],"lt":0,"dept":"49"}},{"type":"Feature","geometry":{"type":"Point","coordinates":[-0.43702,47.45689]},"properties":{"nom":"Avaloup","ag":["Réseau urbain Irigo","Agrégat des réseaux urbains et interurbains des Pays de la Loire"],"lt":0,"dept":"49"}},{"type":"Feature","geometry":{"type":"Point","coordinates":[-0.5948,47.52821]},"properties":{"nom":"Avenue de l'Europe","ag":["Réseau urbain Irigo","Agrégat des réseaux urbains et interurbains des Pays de la Loire"],"lt":0,"dept":"49"}},{"type":"Feature","geometry":{"type":"Point","coordinates":[-0.59578,47.52795]},"properties":{"nom":"Avenue de l'Europe","ag":["Réseau urbain Irigo","Agrégat des réseaux urbains et interurbains des Pays de la Loire"],"lt":0,"dept":"49"}},{"type":"Feature","geometry":{"type":"Point","coordinates":[-0.38427,47.42491]},"properties":{"nom":"Bas Chemin","ag":["Réseau urbain Irigo"],"lt":0,"dept":"49"}},{"type":"Feature","geometry":{"type":"Point","coordinates":[-0.43342,47.46785]},"properties":{"nom":"Bachouasne","ag":["Réseau urbain Irigo","Agrégat des réseaux urbains et interurbains des Pays de la Loire"],"lt":0,"dept":"49"}},{"type":"Feature","geometry":{"type":"Point","coordinates":[-0.43336,47.46777]},"properties":{"nom":"Bachouasne","ag":["Réseau urbain Irigo","Agrégat des réseaux urbains et interurbains des Pays de la Loire"],"lt":0,"dept":"49"}},{"type":"Feature","geometry":{"type":"Point","coordinates":[-0.48295,47.45343]},"properties":{"nom":"Bahonneau","ag":["Réseau urbain Irigo","Agrégat des réseaux urbains et interurbains des Pays de la Loire"],"lt":0,"dept":"49"}},{"type":"Feature","geometry":{"type":"Point","coordinates":[-0.48324,47.45319]},"properties":{"nom":"Bahonneau","ag":["Réseau urbain Irigo","Agrégat des réseaux urbains et interurbains des Pays de la Loire"],"lt":0,"dept":"49"}},{"type":"Feature","geometry":{"type":"Point","coordinates":[-0.59482,47.50512]},"properties":{"nom":"Basse Lande","ag":["Réseau urbain Irigo","Agrégat des réseaux urbains et interurbains des Pays de la Loire"],"lt":0,"dept":"49"}},{"type":"Feature","geometry":{"type":"Point","coordinates":[-0.59535,47.50546]},"properties":{"nom":"Basse Lande","ag":["Réseau urbain Irigo","Agrégat des réseaux urbains et interurbains des Pays de la Loire"],"lt":0,"dept":"49"}},{"type":"Feature","geometry":{"type":"Point","coordinates":[-0.5118,47.48552]},"properties":{"nom":"Banchais","ag":["Réseau urbain Irigo","Agrégat des réseaux urbains et interurbains des Pays de la Loire"],"lt":0,"dept":"49"}},{"type":"Feature","geometry":{"type":"Point","coordinates":[-0.51216,47.4853]},"properties":{"nom":"Banchais","ag":["Réseau urbain Irigo","Agrégat des réseaux urbains et interurbains des Pays de la Loire"],"lt":0,"dept":"49"}},{"type":"Feature","geometry":{"type":"Point","coordinates":[-0.51247,47.48582]},"properties":{"nom":"Banchais","ag":["Réseau urbain Irigo","Agrégat des réseaux urbains et interurbains des Pays de la Loire"],"lt":0,"dept":"49"}},{"type":"Feature","geometry":{"type":"Point","coordinates":[-0.51237,47.486]},"properties":{"nom":"Banchais","ag":["Réseau urbain Irigo","Agrégat des réseaux urbains et interurbains des Pays de la Loire"],"lt":0,"dept":"49"}},{"type":"Feature","geometry":{"type":"Point","coordinates":[-0.52517,47.40087]},"properties":{"nom":"Barboterie","ag":["Réseau urbain Irigo","Agrégat des réseaux urbains et interurbains des Pays de la Loire"],"lt":0,"dept":"49"}},{"type":"Feature","geometry":{"type":"Point","coordinates":[-0.52477,47.40047]},"properties":{"nom":"Barboterie","ag":["Réseau urbain Irigo","Agrégat des réseaux urbains et interurbains des Pays de la Loire"],"lt":0,"dept":"49"}},{"type":"Feature","geometry":{"type":"Point","coordinates":[-0.56393,47.48372]},"properties":{"nom":"Barra","ag":["Réseau urbain Irigo","Agrégat des réseaux urbains et interurbains des Pays de la Loire"],"lt":0,"dept":"49"}},{"type":"Feature","geometry":{"type":"Point","coordinates":[-0.56373,47.48382]},"properties":{"nom":"Barra","ag":["Réseau urbain Irigo","Agrégat des réseaux urbains et interurbains des Pays de la Loire"],"lt":0,"dept":"49"}},{"type":"Feature","geometry":{"type":"Point","coordinates":[-0.67745,47.57379]},"properties":{"nom":"Basse Chesnaie","ag":["Réseau urbain Irigo","Agrégat des réseaux urbains et interurbains des Pays de la Loire"],"lt":0,"dept":"49"}},{"type":"Feature","geometry":{"type":"Point","coordinates":[-0.38425,47.42501]},"properties":{"nom":"Bas Chemin","ag":["Réseau urbain Irigo","Agrégat des réseaux urbains et interurbains des Pays de la Loire"],"lt":0,"dept":"49"}},{"type":"Feature","geometry":{"type":"Point","coordinates":[-0.67744,47.5739]},"properties":{"nom":"Basse Chesnaie","ag":["Réseau urbain Irigo","Agrégat des réseaux urbains et interurbains des Pays de la Loire"],"lt":0,"dept":"49"}},{"type":"Feature","geometry":{"type":"Point","coordinates":[-0.47448,47.51532]},"properties":{"nom":"Bas Mortier","ag":["Réseau urbain Irigo","Agrégat des réseaux urbains et interurbains des Pays de la Loire"],"lt":0,"dept":"49"}},{"type":"Feature","geometry":{"type":"Point","coordinates":[-0.47462,47.51537]},"properties":{"nom":"Bas Mortier","ag":["Réseau urbain Irigo","Agrégat des réseaux urbains et interurbains des Pays de la Loire"],"lt":0,"dept":"49"}},{"type":"Feature","geometry":{"type":"Point","coordinates":[-0.57931,47.53939]},"properties":{"nom":"Baudon","ag":["Réseau urbain Irigo","Agrégat des réseaux urbains et interurbains des Pays de la Loire"],"lt":0,"dept":"49"}},{"type":"Feature","geometry":{"type":"Point","coordinates":[-0.57939,47.53929]},"properties":{"nom":"Baudon","ag":["Réseau urbain Irigo","Agrégat des réseaux urbains et interurbains des Pays de la Loire"],"lt":0,"dept":"49"}},{"type":"Feature","geometry":{"type":"Point","coordinates":[-0.50672,47.43771]},"properties":{"nom":"Baudrairie","ag":["Réseau urbain Irigo","Agrégat des réseaux urbains et interurbains des Pays de la Loire"],"lt":0,"dept":"49"}},{"type":"Feature","geometry":{"type":"Point","coordinates":[-0.5071,47.43791]},"properties":{"nom":"Baudrairie","ag":["Réseau urbain Irigo","Agrégat des réseaux urbains et interurbains des Pays de la Loire"],"lt":0,"dept":"49"}},{"type":"Feature","geometry":{"type":"Point","coordinates":[-0.35169,47.50339]},"properties":{"nom":"Château Briançon","ag":["Réseau urbain Irigo","Agrégat des réseaux urbains et interurbains des Pays de la Loire"],"lt":0,"dept":"49"}},{"type":"Feature","geometry":{"type":"Point","coordinates":[-0.35151,47.50348]},"properties":{"nom":"Château Briançon","ag":["Réseau urbain Irigo","Agrégat des réseaux urbains et interurbains des Pays de la Loire"],"lt":0,"dept":"49"}},{"type":"Feature","geometry":{"type":"Point","coordinates":[-0.31832,47.49937]},"properties":{"nom":"Bauné Centre","ag":["Réseau urbain Irigo","Agrégat des réseaux urbains et interurbains des Pays de la Loire"],"lt":0,"dept":"49"}},{"type":"Feature","geometry":{"type":"Point","coordinates":[-0.31861,47.4994]},"properties":{"nom":"Bauné Centre","ag":["Réseau urbain Irigo"],"lt":0,"dept":"49"}},{"type":"Feature","geometry":{"type":"Point","coordinates":[-0.52831,47.52825]},"properties":{"nom":"Bellebranche","ag":["Réseau urbain Irigo","Agrégat des réseaux urbains et interurbains des Pays de la Loire"],"lt":0,"dept":"49"}},{"type":"Feature","geometry":{"type":"Point","coordinates":[-0.52831,47.52813]},"properties":{"nom":"Bellebranche","ag":["Réseau urbain Irigo","Agrégat des réseaux urbains et interurbains des Pays de la Loire"],"lt":0,"dept":"49"}},{"type":"Feature","geometry":{"type":"Point","coordinates":[-0.62517,47.47031]},"properties":{"nom":"Haute Roche","ag":["Réseau urbain Irigo","Agrégat des réseaux urbains et interurbains des Pays de la Loire"],"lt":0,"dept":"49"}},{"type":"Feature","geometry":{"type":"Point","coordinates":[-0.43667,47.49546]},"properties":{"nom":"Beaulieu","ag":["Réseau urbain Irigo","Agrégat des réseaux urbains et interurbains des Pays de la Loire"],"lt":0,"dept":"49"}},{"type":"Feature","geometry":{"type":"Point","coordinates":[-0.43703,47.49553]},"properties":{"nom":"Beaulieu","ag":["Réseau urbain Irigo","Agrégat des réseaux urbains et interurbains des Pays de la Loire"],"lt":0,"dept":"49"}},{"type":"Feature","geometry":{"type":"Point","coordinates":[-0.51052,47.45154]},"properties":{"nom":"Beaumanoir","ag":["Réseau urbain Irigo","Agrégat des réseaux urbains et interurbains des Pays de la Loire"],"lt":0,"dept":"49"}},{"type":"Feature","geometry":{"type":"Point","coordinates":[-0.51072,47.45131]},"properties":{"nom":"Beaumanoir","ag":["Réseau urbain Irigo","Agrégat des réseaux urbains et interurbains des Pays de la Loire"],"lt":0,"dept":"49"}},{"type":"Feature","geometry":{"type":"Point","coordinates":[-0.55949,47.474]},"properties":{"nom":"Beaurepaire","ag":["Réseau urbain Irigo","Agrégat des réseaux urbains et interurbains des Pays de la Loire"],"lt":0,"dept":"49"}},{"type":"Feature","geometry":{"type":"Point","coordinates":[-0.55965,47.47399]},"properties":{"nom":"Beaurepaire","ag":["Réseau urbain Irigo"],"lt":0,"dept":"49"}},{"type":"Feature","geometry":{"type":"Point","coordinates":[-0.55126,47.45168]},"properties":{"nom":"Beauval","ag":["Réseau urbain Irigo","Agrégat des réseaux urbains et interurbains des Pays de la Loire"],"lt":0,"dept":"49"}},{"type":"Feature","geometry":{"type":"Point","coordinates":[-0.55043,47.4514]},"properties":{"nom":"Beauval","ag":["Réseau urbain Irigo"],"lt":0,"dept":"49"}},{"type":"Feature","geometry":{"type":"Point","coordinates":[-0.622,47.53884]},"properties":{"nom":"Becker","ag":["Réseau urbain Irigo"],"lt":0,"dept":"49"}},{"type":"Feature","geometry":{"type":"Point","coordinates":[-0.62218,47.53882]},"properties":{"nom":"Becker","ag":["Réseau urbain Irigo","Agrégat des réseaux urbains et interurbains des Pays de la Loire"],"lt":0,"dept":"49"}},{"type":"Feature","geometry":{"type":"Point","coordinates":[-0.39332,47.50136]},"properties":{"nom":"Bedaudière","ag":["Réseau urbain Irigo","Agrégat des réseaux urbains et interurbains des Pays de la Loire"],"lt":0,"dept":"49"}},{"type":"Feature","geometry":{"type":"Point","coordinates":[-0.39402,47.50144]},"properties":{"nom":"Bedaudière","ag":["Réseau urbain Irigo","Agrégat des réseaux urbains et interurbains des Pays de la Loire"],"lt":0,"dept":"49"}},{"type":"Feature","geometry":{"type":"Point","coordinates":[-0.55265,47.45011]},"properties":{"nom":"Bédier","ag":["Réseau urbain Irigo","Agrégat des réseaux urbains et interurbains des Pays de la Loire"],"lt":0,"dept":"49"}},{"type":"Feature","geometry":{"type":"Point","coordinates":[-0.55276,47.44991]},"properties":{"nom":"Bédier","ag":["Réseau urbain Irigo","Agrégat des réseaux urbains et interurbains des Pays de la Loire"],"lt":0,"dept":"49"}},{"type":"Feature","geometry":{"type":"Point","coordinates":[-0.60697,47.52984]},"properties":{"nom":"Bel Air","ag":["Réseau urbain Irigo","Agrégat des réseaux urbains et interurbains des Pays de la Loire"],"lt":0,"dept":"49"}},{"type":"Feature","geometry":{"type":"Point","coordinates":[-0.6073,47.52991]},"properties":{"nom":"Bel Air","ag":["Réseau urbain Irigo","Agrégat des réseaux urbains et interurbains des Pays de la Loire"],"lt":0,"dept":"49"}},{"type":"Feature","geometry":{"type":"Point","coordinates":[-0.53744,47.4717]},"properties":{"nom":"Maison des Arts","ag":["Réseau urbain Irigo","Agrégat des réseaux urbains et interurbains des Pays de la Loire"],"lt":0,"dept":"49"}},{"type":"Feature","geometry":{"type":"Point","coordinates":[-0.53775,47.47185]},"properties":{"nom":"Maison des Arts","ag":["Réseau urbain Irigo","Agrégat des réseaux urbains et interurbains des Pays de la Loire"],"lt":0,"dept":"49"}},{"type":"Feature","geometry":{"type":"Point","coordinates":[-0.68441,47.48237]},"properties":{"nom":"Bellangerie","ag":["Réseau urbain Irigo","Agrégat des réseaux urbains et interurbains des Pays de la Loire"],"lt":0,"dept":"49"}},{"type":"Feature","geometry":{"type":"Point","coordinates":[-0.68489,47.4822]},"properties":{"nom":"Bellangerie","ag":["Réseau urbain Irigo","Agrégat des réseaux urbains et interurbains des Pays de la Loire"],"lt":0,"dept":"49"}},{"type":"Feature","geometry":{"type":"Point","coordinates":[-0.50688,47.4482]},"properties":{"nom":"Bellevue","ag":["Réseau urbain Irigo","Agrégat des réseaux urbains et interurbains des Pays de la Loire"],"lt":0,"dept":"49"}},{"type":"Feature","geometry":{"type":"Point","coordinates":[-0.301,47.4206]},"properties":{"nom":"Bellenoue","ag":["Réseau urbain Irigo","Agrégat des réseaux urbains et interurbains des Pays de la Loire"],"lt":0,"dept":"49"}},{"type":"Feature","geometry":{"type":"Point","coordinates":[-0.55677,47.42704]},"properties":{"nom":"Bel Oeil","ag":["Réseau urbain Irigo","Agrégat des réseaux urbains et interurbains des Pays de la Loire"],"lt":0,"dept":"49"}},{"type":"Feature","geometry":{"type":"Point","coordinates":[-0.55666,47.42669]},"properties":{"nom":"Bel Oeil","ag":["Réseau urbain Irigo","Agrégat des réseaux urbains et interurbains des Pays de la Loire"],"lt":0,"dept":"49"}},{"type":"Feature","geometry":{"type":"Point","coordinates":[-0.52775,47.42843]},"properties":{"nom":"Belle Poule","ag":["Réseau urbain Irigo","Agrégat des réseaux urbains et interurbains des Pays de la Loire"],"lt":0,"dept":"49"}},{"type":"Feature","geometry":{"type":"Point","coordinates":[-0.52715,47.42789]},"properties":{"nom":"Belle Poule","ag":["Réseau urbain Irigo","Agrégat des réseaux urbains et interurbains des Pays de la Loire"],"lt":0,"dept":"49"}},{"type":"Feature","geometry":{"type":"Point","coordinates":[-0.50797,47.44785]},"properties":{"nom":"Bellevue","ag":["Réseau urbain Irigo","Agrégat des réseaux urbains et interurbains des Pays de la Loire"],"lt":0,"dept":"49"}},{"type":"Feature","geometry":{"type":"Point","coordinates":[-0.60963,47.54117]},"properties":{"nom":"Béné","ag":["Réseau urbain Irigo"],"lt":0,"dept":"49"}},{"type":"Feature","geometry":{"type":"Point","coordinates":[-0.60946,47.54112]},"properties":{"nom":"Béné","ag":["Réseau urbain Irigo","Agrégat des réseaux urbains et interurbains des Pays de la Loire"],"lt":0,"dept":"49"}},{"type":"Feature","geometry":{"type":"Point","coordinates":[-0.54417,47.47995]},"properties":{"nom":"Besnardières","ag":["Réseau urbain Irigo","Agrégat des réseaux urbains et interurbains des Pays de la Loire"],"lt":0,"dept":"49"}},{"type":"Feature","geometry":{"type":"Point","coordinates":[-0.58923,47.49736]},"properties":{"nom":"Beurrière","ag":["Réseau urbain Irigo","Agrégat des réseaux urbains et interurbains des Pays de la Loire"],"lt":0,"dept":"49"}},{"type":"Feature","geometry":{"type":"Point","coordinates":[-0.58954,47.49757]},"properties":{"nom":"Beurrière","ag":["Réseau urbain Irigo","Agrégat des réseaux urbains et interurbains des Pays de la Loire"],"lt":0,"dept":"49"}},{"type":"Feature","geometry":{"type":"Point","coordinates":[-0.53933,47.58472]},"properties":{"nom":"Biais","ag":["Réseau urbain Irigo","Agrégat des réseaux urbains et interurbains des Pays de la Loire"],"lt":0,"dept":"49"}},{"type":"Feature","geometry":{"type":"Point","coordinates":[-0.53943,47.58478]},"properties":{"nom":"Biais","ag":["Réseau urbain Irigo","Agrégat des réseaux urbains et interurbains des Pays de la Loire"],"lt":0,"dept":"49"}},{"type":"Feature","geometry":{"type":"Point","coordinates":[-0.56467,47.4793]},"properties":{"nom":"Bichon","ag":["Réseau urbain Irigo","Agrégat des réseaux urbains et interurbains des Pays de la Loire"],"lt":0,"dept":"49"}},{"type":"Feature","geometry":{"type":"Point","coordinates":[-0.56419,47.47873]},"properties":{"nom":"Bichon","ag":["Réseau urbain Irigo","Agrégat des réseaux urbains et interurbains des Pays de la Loire"],"lt":0,"dept":"49"}},{"type":"Feature","geometry":{"type":"Point","coordinates":[-0.56485,47.47933]},"properties":{"nom":"Bichon","ag":["Réseau urbain Irigo","Agrégat des réseaux urbains et interurbains des Pays de la Loire"],"lt":0,"dept":"49"}},{"type":"Feature","geometry":{"type":"Point","coordinates":[-0.56364,47.47924]},"properties":{"nom":"Bichon","ag":["Réseau urbain Irigo","Agrégat des réseaux urbains et interurbains des Pays de la Loire"],"lt":0,"dept":"49"}},{"type":"Feature","geometry":{"type":"Point","coordinates":[-0.54331,47.45752]},"properties":{"nom":"Blandeau","ag":["Réseau urbain Irigo","Agrégat des réseaux urbains et interurbains des Pays de la Loire"],"lt":0,"dept":"49"}},{"type":"Feature","geometry":{"type":"Point","coordinates":[-0.54322,47.45739]},"properties":{"nom":"Blandeau","ag":["Réseau urbain Irigo","Agrégat des réseaux urbains et interurbains des Pays de la Loire"],"lt":0,"dept":"49"}},{"type":"Feature","geometry":{"type":"Point","coordinates":[-0.56344,47.48614]},"properties":{"nom":"Blériot","ag":["Réseau urbain Irigo","Agrégat des réseaux urbains et interurbains des Pays de la Loire"],"lt":0,"dept":"49"}},{"type":"Feature","geometry":{"type":"Point","coordinates":[-0.56364,47.48597]},"properties":{"nom":"Blériot","ag":["Réseau urbain Irigo","Agrégat des réseaux urbains et interurbains des Pays de la Loire"],"lt":0,"dept":"49"}},{"type":"Feature","geometry":{"type":"Point","coordinates":[-0.43407,47.52741]},"properties":{"nom":"Blitourne","ag":["Réseau urbain Irigo","Agrégat des réseaux urbains et interurbains des Pays de la Loire"],"lt":0,"dept":"49"}},{"type":"Feature","geometry":{"type":"Point","coordinates":[-0.4343,47.5271]},"properties":{"nom":"Blitourne","ag":["Réseau urbain Irigo","Agrégat des réseaux urbains et interurbains des Pays de la Loire"],"lt":0,"dept":"49"}},{"type":"Feature","geometry":{"type":"Point","coordinates":[-0.54962,47.47875]},"properties":{"nom":"Berges de Maine","ag":["Réseau urbain Irigo","Agrégat des réseaux urbains et interurbains des Pays de la Loire"],"lt":0,"dept":"49"}},{"type":"Feature","geometry":{"type":"Point","coordinates":[-0.5489,47.47851]},"properties":{"nom":"Berges de Maine","ag":["Réseau urbain Irigo","Agrégat des réseaux urbains et interurbains des Pays de la Loire"],"lt":0,"dept":"49"}},{"type":"Feature","geometry":{"type":"Point","coordinates":[-0.51657,47.53109]},"properties":{"nom":"Belle Motte","ag":["Réseau urbain Irigo","Agrégat des réseaux urbains et interurbains des Pays de la Loire"],"lt":0,"dept":"49"}},{"type":"Feature","geometry":{"type":"Point","coordinates":[-0.51652,47.53098]},"properties":{"nom":"Belle Motte","ag":["Réseau urbain Irigo","Agrégat des réseaux urbains et interurbains des Pays de la Loire"],"lt":0,"dept":"49"}},{"type":"Feature","geometry":{"type":"Point","coordinates":[-0.44713,47.58542]},"properties":{"nom":"Bodinière","ag":["Réseau urbain Irigo","Agrégat des réseaux urbains et interurbains des Pays de la Loire"],"lt":0,"dept":"49"}},{"type":"Feature","geometry":{"type":"Point","coordinates":[-0.44728,47.58547]},"properties":{"nom":"Bodinière","ag":["Réseau urbain Irigo","Agrégat des réseaux urbains et interurbains des Pays de la Loire"],"lt":0,"dept":"49"}},{"type":"Feature","geometry":{"type":"Point","coordinates":[-0.39931,47.42145]},"properties":{"nom":"Route de Brain","ag":["Réseau urbain Irigo","Agrégat des réseaux urbains et interurbains des Pays de la Loire"],"lt":0,"dept":"49"}},{"type":"Feature","geometry":{"type":"Point","coordinates":[-0.39912,47.42128]},"properties":{"nom":"Route de Brain","ag":["Réseau urbain Irigo","Agrégat des réseaux urbains et interurbains des Pays de la Loire"],"lt":0,"dept":"49"}},{"type":"Feature","geometry":{"type":"Point","coordinates":[-0.38512,47.42236]},"properties":{"nom":"La Cendreuse","ag":["Réseau urbain Irigo","Agrégat des réseaux urbains et interurbains des Pays de la Loire"],"lt":0,"dept":"49"}},{"type":"Feature","geometry":{"type":"Point","coordinates":[-0.38495,47.42242]},"properties":{"nom":"La Cendreuse","ag":["Réseau urbain Irigo","Agrégat des réseaux urbains et interurbains des Pays de la Loire"],"lt":0,"dept":"49"}},{"type":"Feature","geometry":{"type":"Point","coordinates":[-0.38867,47.42462]},"properties":{"nom":"Chemin Salette","ag":["Réseau urbain Irigo","Agrégat des réseaux urbains et interurbains des Pays de la Loire"],"lt":0,"dept":"49"}},{"type":"Feature","geometry":{"type":"Point","coordinates":[-0.38891,47.42471]},"properties":{"nom":"Chemin Salette","ag":["Réseau urbain Irigo","Agrégat des réseaux urbains et interurbains des Pays de la Loire"],"lt":0,"dept":"49"}},{"type":"Feature","geometry":{"type":"Point","coordinates":[-0.29604,47.41386]},"properties":{"nom":"Les Boires","ag":["Réseau urbain Irigo","Agrégat des réseaux urbains et interurbains des Pays de la Loire"],"lt":0,"dept":"49"}},{"type":"Feature","geometry":{"type":"Point","coordinates":[-0.51423,47.4903]},"properties":{"nom":"Bois L'Abbé","ag":["Réseau urbain Irigo","Agrégat des réseaux urbains et interurbains des Pays de la Loire"],"lt":0,"dept":"49"}},{"type":"Feature","geometry":{"type":"Point","coordinates":[-0.51402,47.49036]},"properties":{"nom":"Bois L'Abbé","ag":["Réseau urbain Irigo","Agrégat des réseaux urbains et interurbains des Pays de la Loire"],"lt":0,"dept":"49"}},{"type":"Feature","geometry":{"type":"Point","coordinates":[-0.3303,47.47444]},"properties":{"nom":"Bois d'Épinard","ag":["Réseau urbain Irigo","Agrégat des réseaux urbains et interurbains des Pays de la Loire"],"lt":0,"dept":"49"}},{"type":"Feature","geometry":{"type":"Point","coordinates":[-0.33026,47.47459]},"properties":{"nom":"Bois d'Épinard","ag":["Réseau urbain Irigo","Agrégat des réseaux urbains et interurbains des Pays de la Loire"],"lt":0,"dept":"49"}},{"type":"Feature","geometry":{"type":"Point","coordinates":[-0.45928,47.47044]},"properties":{"nom":"Bois de l'Hôpital","ag":["Réseau urbain Irigo","Agrégat des réseaux urbains et interurbains des Pays de la Loire"],"lt":0,"dept":"49"}},{"type":"Feature","geometry":{"type":"Point","coordinates":[-0.45928,47.47054]},"properties":{"nom":"Bois de l'Hôpital","ag":["Réseau urbain Irigo","Agrégat des réseaux urbains et interurbains des Pays de la Loire"],"lt":0,"dept":"49"}},{"type":"Feature","geometry":{"type":"Point","coordinates":[-0.36004,47.51152]},"properties":{"nom":"Boisnerie","ag":["Réseau urbain Irigo","Agrégat des réseaux urbains et interurbains des Pays de la Loire"],"lt":0,"dept":"49"}},{"type":"Feature","geometry":{"type":"Point","coordinates":[-0.5847,47.47826]},"properties":{"nom":"Boisramé","ag":["Réseau urbain Irigo","Agrégat des réseaux urbains et interurbains des Pays de la Loire"],"lt":0,"dept":"49"}},{"type":"Feature","geometry":{"type":"Point","coordinates":[-0.5848,47.4783]},"properties":{"nom":"Boisramé","ag":["Réseau urbain Irigo","Agrégat des réseaux urbains et interurbains des Pays de la Loire"],"lt":0,"dept":"49"}},{"type":"Feature","geometry":{"type":"Point","coordinates":[-0.59088,47.51455]},"properties":{"nom":"Bonpland","ag":["Réseau urbain Irigo","Agrégat des réseaux urbains et interurbains des Pays de la Loire"],"lt":0,"dept":"49"}},{"type":"Feature","geometry":{"type":"Point","coordinates":[-0.58959,47.51459]},"properties":{"nom":"Bonpland","ag":["Réseau urbain Irigo","Agrégat des réseaux urbains et interurbains des Pays de la Loire"],"lt":0,"dept":"49"}},{"type":"Feature","geometry":{"type":"Point","coordinates":[-0.54619,47.47526]},"properties":{"nom":"Boreau","ag":["Réseau urbain Irigo","Agrégat des réseaux urbains et interurbains des Pays de la Loire"],"lt":0,"dept":"49"}},{"type":"Feature","geometry":{"type":"Point","coordinates":[-0.54585,47.4753]},"properties":{"nom":"Boreau","ag":["Réseau urbain Irigo","Agrégat des réseaux urbains et interurbains des Pays de la Loire"],"lt":0,"dept":"49"}},{"type":"Feature","geometry":{"type":"Point","coordinates":[-0.49799,47.47658]},"properties":{"nom":"Bois Rinier","ag":["Réseau urbain Irigo","Agrégat des réseaux urbains et interurbains des Pays de la Loire"],"lt":0,"dept":"49"}},{"type":"Feature","geometry":{"type":"Point","coordinates":[-0.52483,47.40978]},"properties":{"nom":"Bosquet","ag":["Réseau urbain Irigo","Agrégat des réseaux urbains et interurbains des Pays de la Loire"],"lt":0,"dept":"49"}},{"type":"Feature","geometry":{"type":"Point","coordinates":[-0.52436,47.41002]},"properties":{"nom":"Bosquet","ag":["Réseau urbain Irigo","Agrégat des réseaux urbains et interurbains des Pays de la Loire"],"lt":0,"dept":"49"}},{"type":"Feature","geometry":{"type":"Point","coordinates":[-0.61053,47.42164]},"properties":{"nom":"Bouchemaine Centre","ag":["Réseau urbain Irigo","Agrégat des réseaux urbains et interurbains des Pays de la Loire"],"lt":0,"dept":"49"}},{"type":"Feature","geometry":{"type":"Point","coordinates":[-0.61039,47.42165]},"properties":{"nom":"Bouchemaine Centre","ag":["Réseau urbain Irigo","Agrégat des réseaux urbains et interurbains des Pays de la Loire"],"lt":0,"dept":"49"}},{"type":"Feature","geometry":{"type":"Point","coordinates":[-0.54119,47.46161]},"properties":{"nom":"Bourgonnier","ag":["Réseau urbain Irigo","Agrégat des réseaux urbains et interurbains des Pays de la Loire"],"lt":0,"dept":"49"}},{"type":"Feature","geometry":{"type":"Point","coordinates":[-0.54223,47.46217]},"properties":{"nom":"Bourgonnier","ag":["Réseau urbain Irigo","Agrégat des réseaux urbains et interurbains des Pays de la Loire"],"lt":0,"dept":"49"}},{"type":"Feature","geometry":{"type":"Point","coordinates":[-0.55536,47.59071]},"properties":{"nom":"Bourg","ag":["Réseau urbain Irigo","Agrégat des réseaux urbains et interurbains des Pays de la Loire"],"lt":0,"dept":"49"}},{"type":"Feature","geometry":{"type":"Point","coordinates":[-0.55522,47.59076]},"properties":{"nom":"Bourg","ag":["Réseau urbain Irigo","Agrégat des réseaux urbains et interurbains des Pays de la Loire"],"lt":0,"dept":"49"}},{"type":"Feature","geometry":{"type":"Point","coordinates":[-0.52374,47.45081]},"properties":{"nom":"Bourg la Croix","ag":["Réseau urbain Irigo","Agrégat des réseaux urbains et interurbains des Pays de la Loire"],"lt":0,"dept":"49"}},{"type":"Feature","geometry":{"type":"Point","coordinates":[-0.52382,47.45073]},"properties":{"nom":"Bourg la Croix","ag":["Réseau urbain Irigo","Agrégat des réseaux urbains et interurbains des Pays de la Loire"],"lt":0,"dept":"49"}},{"type":"Feature","geometry":{"type":"Point","coordinates":[-0.31334,47.40887]},"properties":{"nom":"Bourg Joly","ag":["Réseau urbain Irigo","Agrégat des réseaux urbains et interurbains des Pays de la Loire"],"lt":0,"dept":"49"}},{"type":"Feature","geometry":{"type":"Point","coordinates":[-0.56403,47.38194]},"properties":{"nom":"Bourrelière","ag":["Réseau urbain Irigo","Agrégat des réseaux urbains et interurbains des Pays de la Loire"],"lt":0,"dept":"49"}},{"type":"Feature","geometry":{"type":"Point","coordinates":[-0.49544,47.44283]},"properties":{"nom":"Bourse","ag":["Réseau urbain Irigo","Agrégat des réseaux urbains et interurbains des Pays de la Loire"],"lt":0,"dept":"49"}},{"type":"Feature","geometry":{"type":"Point","coordinates":[-0.49509,47.44254]},"properties":{"nom":"Bourse","ag":["Réseau urbain Irigo","Agrégat des réseaux urbains et interurbains des Pays de la Loire"],"lt":0,"dept":"49"}},{"type":"Feature","geometry":{"type":"Point","coordinates":[-0.43199,47.47884]},"properties":{"nom":"Bouteillerie","ag":["Réseau urbain Irigo","Agrégat des réseaux urbains et interurbains des Pays de la Loire"],"lt":0,"dept":"49"}},{"type":"Feature","geometry":{"type":"Point","coordinates":[-0.43224,47.47902]},"properties":{"nom":"Bouteillerie","ag":["Réseau urbain Irigo","Agrégat des réseaux urbains et interurbains des Pays de la Loire"],"lt":0,"dept":"49"}},{"type":"Feature","geometry":{"type":"Point","coordinates":[-0.55026,47.44459]},"properties":{"nom":"Bouché Thomas","ag":["Réseau urbain Irigo"],"lt":0,"dept":"49"}},{"type":"Feature","geometry":{"type":"Point","coordinates":[-0.55001,47.44482]},"properties":{"nom":"Bouché Thomas","ag":["Réseau urbain Irigo","Agrégat des réseaux urbains et interurbains des Pays de la Loire"],"lt":0,"dept":"49"}},{"type":"Feature","geometry":{"type":"Point","coordinates":[-0.47974,47.54058]},"properties":{"nom":"Bouvetteries","ag":["Réseau urbain Irigo","Agrégat des réseaux urbains et interurbains des Pays de la Loire"],"lt":0,"dept":"49"}},{"type":"Feature","geometry":{"type":"Point","coordinates":[-0.41239,47.44612]},"properties":{"nom":"Place du 8 Mai","ag":["Réseau urbain Irigo","Agrégat des réseaux urbains et interurbains des Pays de la Loire"],"lt":0,"dept":"49"}},{"type":"Feature","geometry":{"type":"Point","coordinates":[-0.41236,47.446]},"properties":{"nom":"Place du 8 Mai","ag":["Réseau urbain Irigo","Agrégat des réseaux urbains et interurbains des Pays de la Loire"],"lt":0,"dept":"49"}},{"type":"Feature","geometry":{"type":"Point","coordinates":[-0.42536,47.44907]},"properties":{"nom":"Croix de Bois","ag":["Réseau urbain Irigo","Agrégat des réseaux urbains et interurbains des Pays de la Loire"],"lt":0,"dept":"49"}},{"type":"Feature","geometry":{"type":"Point","coordinates":[-0.42542,47.44916]},"properties":{"nom":"Croix de Bois","ag":["Réseau urbain Irigo","Agrégat des réseaux urbains et interurbains des Pays de la Loire"],"lt":0,"dept":"49"}},{"type":"Feature","geometry":{"type":"Point","coordinates":[-0.40835,47.4537]},"properties":{"nom":"Croix Combeau","ag":["Réseau urbain Irigo"],"lt":0,"dept":"49"}},{"type":"Feature","geometry":{"type":"Point","coordinates":[-0.40848,47.45429]},"properties":{"nom":"Croix Combeau","ag":["Réseau urbain Irigo","Agrégat des réseaux urbains et interurbains des Pays de la Loire"],"lt":0,"dept":"49"}},{"type":"Feature","geometry":{"type":"Point","coordinates":[-0.43326,47.46528]},"properties":{"nom":"Crémaillère d'Argent","ag":["Réseau urbain Irigo","Agrégat des réseaux urbains et interurbains des Pays de la Loire"],"lt":0,"dept":"49"}},{"type":"Feature","geometry":{"type":"Point","coordinates":[-0.43317,47.46532]},"properties":{"nom":"Crémaillère d'Argent","ag":["Réseau urbain Irigo","Agrégat des réseaux urbains et interurbains des Pays de la Loire"],"lt":0,"dept":"49"}},{"type":"Feature","geometry":{"type":"Point","coordinates":[-0.42998,47.44887]},"properties":{"nom":"Narcé","ag":["Réseau urbain Irigo"],"lt":0,"dept":"49"}},{"type":"Feature","geometry":{"type":"Point","coordinates":[-0.43116,47.44858]},"properties":{"nom":"Narcé","ag":["Réseau urbain Irigo","Agrégat des réseaux urbains et interurbains des Pays de la Loire"],"lt":0,"dept":"49"}},{"type":"Feature","geometry":{"type":"Point","coordinates":[-0.49412,47.58219]},"properties":{"nom":"Brardière","ag":["Réseau urbain Irigo"],"lt":0,"dept":"49"}},{"type":"Feature","geometry":{"type":"Point","coordinates":[-0.58723,47.49488]},"properties":{"nom":"Brassens","ag":["Réseau urbain Irigo","Agrégat des réseaux urbains et interurbains des Pays de la Loire"],"lt":0,"dept":"49"}},{"type":"Feature","geometry":{"type":"Point","coordinates":[-0.58644,47.49414]},"properties":{"nom":"Brassens","ag":["Réseau urbain Irigo","Agrégat des réseaux urbains et interurbains des Pays de la Loire"],"lt":0,"dept":"49"}},{"type":"Feature","geometry":{"type":"Point","coordinates":[-0.5593,47.46598]},"properties":{"nom":"Gares Bremont","ag":["Réseau urbain Irigo","Agrégat des réseaux urbains et interurbains des Pays de la Loire"],"lt":0,"dept":"49"}},{"type":"Feature","geometry":{"type":"Point","coordinates":[-0.43724,47.57365]},"properties":{"nom":"Breteau","ag":["Réseau urbain Irigo","Agrégat des réseaux urbains et interurbains des Pays de la Loire"],"lt":0,"dept":"49"}},{"type":"Feature","geometry":{"type":"Point","coordinates":[-0.43734,47.57378]},"properties":{"nom":"Breteau","ag":["Réseau urbain Irigo","Agrégat des réseaux urbains et interurbains des Pays de la Loire"],"lt":0,"dept":"49"}},{"type":"Feature","geometry":{"type":"Point","coordinates":[-0.62467,47.47487]},"properties":{"nom":"Bourg de Paille","ag":["Réseau urbain Irigo","Agrégat des réseaux urbains et interurbains des Pays de la Loire"],"lt":0,"dept":"49"}},{"type":"Feature","geometry":{"type":"Point","coordinates":[-0.62494,47.47436]},"properties":{"nom":"Bourg de Paille","ag":["Réseau urbain Irigo","Agrégat des réseaux urbains et interurbains des Pays de la Loire"],"lt":0,"dept":"49"}},{"type":"Feature","geometry":{"type":"Point","coordinates":[-0.50769,47.56379]},"properties":{"nom":"Briollay Mairie","ag":["Réseau urbain Irigo","Agrégat des réseaux urbains et interurbains des Pays de la Loire"],"lt":0,"dept":"49"}},{"type":"Feature","geometry":{"type":"Point","coordinates":[-0.50738,47.56389]},"properties":{"nom":"Briollay Mairie","ag":["Réseau urbain Irigo","Agrégat des réseaux urbains et interurbains des Pays de la Loire"],"lt":0,"dept":"49"}},{"type":"Feature","geometry":{"type":"Point","coordinates":[-0.52725,47.47935]},"properties":{"nom":"Brisepotière","ag":["Réseau urbain Irigo","Agrégat des réseaux urbains et interurbains des Pays de la Loire"],"lt":0,"dept":"49"}},{"type":"Feature","geometry":{"type":"Point","coordinates":[-0.52728,47.47954]},"properties":{"nom":"Brisepotière","ag":["Réseau urbain Irigo","Agrégat des réseaux urbains et interurbains des Pays de la Loire"],"lt":0,"dept":"49"}},{"type":"Feature","geometry":{"type":"Point","coordinates":[-0.32654,47.42364]},"properties":{"nom":"Brochons","ag":["Réseau urbain Irigo","Agrégat des réseaux urbains et interurbains des Pays de la Loire"],"lt":0,"dept":"49"}},{"type":"Feature","geometry":{"type":"Point","coordinates":[-0.72135,47.42671]},"properties":{"nom":"Beau Soleil","ag":["Réseau urbain Irigo","Agrégat des réseaux urbains et interurbains des Pays de la Loire"],"lt":0,"dept":"49"}},{"type":"Feature","geometry":{"type":"Point","coordinates":[-0.72126,47.42658]},"properties":{"nom":"Beau Soleil","ag":["Réseau urbain Irigo","Agrégat des réseaux urbains et interurbains des Pays de la Loire"],"lt":0,"dept":"49"}},{"type":"Feature","geometry":{"type":"Point","coordinates":[-0.42813,47.55975]},"properties":{"nom":"Buchetière","ag":["Réseau urbain Irigo","Agrégat des réseaux urbains et interurbains des Pays de la Loire"],"lt":0,"dept":"49"}},{"type":"Feature","geometry":{"type":"Point","coordinates":[-0.42828,47.55968]},"properties":{"nom":"Buchetière","ag":["Réseau urbain Irigo"],"lt":0,"dept":"49"}},{"type":"Feature","geometry":{"type":"Point","coordinates":[-0.42103,47.44795]},"properties":{"nom":"Buissons Belles","ag":["Réseau urbain Irigo","Agrégat des réseaux urbains et interurbains des Pays de la Loire"],"lt":0,"dept":"49"}},{"type":"Feature","geometry":{"type":"Point","coordinates":[-0.42063,47.44796]},"properties":{"nom":"Buissons Belles","ag":["Réseau urbain Irigo","Agrégat des réseaux urbains et interurbains des Pays de la Loire"],"lt":0,"dept":"49"}},{"type":"Feature","geometry":{"type":"Point","coordinates":[-0.48396,47.4419]},"properties":{"nom":"Buisson","ag":["Réseau urbain Irigo","Agrégat des réseaux urbains et interurbains des Pays de la Loire"],"lt":0,"dept":"49"}},{"type":"Feature","geometry":{"type":"Point","coordinates":[-0.48463,47.44204]},"properties":{"nom":"Buisson","ag":["Réseau urbain Irigo","Agrégat des réseaux urbains et interurbains des Pays de la Loire"],"lt":0,"dept":"49"}},{"type":"Feature","geometry":{"type":"Point","coordinates":[-0.4997,47.57906]},"properties":{"nom":"Basses Vallées","ag":["Réseau urbain Irigo","Agrégat des réseaux urbains et interurbains des Pays de la Loire"],"lt":0,"dept":"49"}},{"type":"Feature","geometry":{"type":"Point","coordinates":[-0.49974,47.57934]},"properties":{"nom":"Basses Vallées","ag":["Réseau urbain Irigo"],"lt":0,"dept":"49"}},{"type":"Feature","geometry":{"type":"Point","coordinates":[-0.43256,47.462]},"properties":{"nom":"Calais","ag":["Réseau urbain Irigo","Agrégat des réseaux urbains et interurbains des Pays de la Loire"],"lt":0,"dept":"49"}},{"type":"Feature","geometry":{"type":"Point","coordinates":[-0.51896,47.47129]},"properties":{"nom":"Camélia","ag":["Réseau urbain Irigo","Agrégat des réseaux urbains et interurbains des Pays de la Loire"],"lt":0,"dept":"49"}},{"type":"Feature","geometry":{"type":"Point","coordinates":[-0.51924,47.47134]},"properties":{"nom":"Camélia","ag":["Réseau urbain Irigo","Agrégat des réseaux urbains et interurbains des Pays de la Loire"],"lt":0,"dept":"49"}},{"type":"Feature","geometry":{"type":"Point","coordinates":[-0.59723,47.4577]},"properties":{"nom":"Lac de Maine Camping","ag":["Réseau urbain Irigo","Agrégat des réseaux urbains et interurbains des Pays de la Loire"],"lt":0,"dept":"49"}},{"type":"Feature","geometry":{"type":"Point","coordinates":[-0.59699,47.45812]},"properties":{"nom":"Lac de Maine Camping","ag":["Réseau urbain Irigo","Agrégat des réseaux urbains et interurbains des Pays de la Loire"],"lt":0,"dept":"49"}},{"type":"Feature","geometry":{"type":"Point","coordinates":[-0.61164,47.41929]},"properties":{"nom":"Bouchemaine Camping","ag":["Réseau urbain Irigo","Agrégat des réseaux urbains et interurbains des Pays de la Loire"],"lt":0,"dept":"49"}},{"type":"Feature","geometry":{"type":"Point","coordinates":[-0.61137,47.41939]},"properties":{"nom":"Bouchemaine Camping","ag":["Réseau urbain Irigo","Agrégat des réseaux urbains et interurbains des Pays de la Loire"],"lt":0,"dept":"49"}},{"type":"Feature","geometry":{"type":"Point","coordinates":[-0.61685,47.53714]},"properties":{"nom":"Juigné Camping","ag":["Réseau urbain Irigo","Agrégat des réseaux urbains et interurbains des Pays de la Loire"],"lt":0,"dept":"49"}},{"type":"Feature","geometry":{"type":"Point","coordinates":[-0.61689,47.53757]},"properties":{"nom":"Juigné Camping","ag":["Réseau urbain Irigo","Agrégat des réseaux urbains et interurbains des Pays de la Loire"],"lt":0,"dept":"49"}},{"type":"Feature","geometry":{"type":"Point","coordinates":[-0.57587,47.48524]},"properties":{"nom":"Camus","ag":["Réseau urbain Irigo","Agrégat des réseaux urbains et interurbains des Pays de la Loire"],"lt":0,"dept":"49"}},{"type":"Feature","geometry":{"type":"Point","coordinates":[-0.57576,47.48497]},"properties":{"nom":"Camus","ag":["Réseau urbain Irigo","Agrégat des réseaux urbains et interurbains des Pays de la Loire"],"lt":0,"dept":"49"}},{"type":"Feature","geometry":{"type":"Point","coordinates":[-0.54314,47.48763]},"properties":{"nom":"Carrefour St-Serge","ag":["Réseau urbain Irigo","Agrégat des réseaux urbains et interurbains des Pays de la Loire"],"lt":0,"dept":"49"}},{"type":"Feature","geometry":{"type":"Point","coordinates":[-0.54368,47.48717]},"properties":{"nom":"Carrefour St-Serge","ag":["Réseau urbain Irigo"],"lt":0,"dept":"49"}},{"type":"Feature","geometry":{"type":"Point","coordinates":[-0.54338,47.40037]},"properties":{"nom":"Jean Carmet","ag":["Réseau urbain Irigo","Agrégat des réseaux urbains et interurbains des Pays de la Loire"],"lt":0,"dept":"49"}},{"type":"Feature","geometry":{"type":"Point","coordinates":[-0.54313,47.40052]},"properties":{"nom":"Jean Carmet","ag":["Réseau urbain Irigo","Agrégat des réseaux urbains et interurbains des Pays de la Loire"],"lt":0,"dept":"49"}},{"type":"Feature","geometry":{"type":"Point","coordinates":[-0.47142,47.51207]},"properties":{"nom":"Carreaux","ag":["Réseau urbain Irigo","Agrégat des réseaux urbains et interurbains des Pays de la Loire"],"lt":0,"dept":"49"}},{"type":"Feature","geometry":{"type":"Point","coordinates":[-0.47194,47.51257]},"properties":{"nom":"Carreaux","ag":["Réseau urbain Irigo","Agrégat des réseaux urbains et interurbains des Pays de la Loire"],"lt":0,"dept":"49"}},{"type":"Feature","geometry":{"type":"Point","coordinates":[-0.54251,47.48808]},"properties":{"nom":"Carrefour St-Serge","ag":["Réseau urbain Irigo","Agrégat des réseaux urbains et interurbains des Pays de la Loire"],"lt":0,"dept":"49"}},{"type":"Feature","geometry":{"type":"Point","coordinates":[-0.54351,47.48813]},"properties":{"nom":"Carrefour St-Serge","ag":["Réseau urbain Irigo","Agrégat des réseaux urbains et interurbains des Pays de la Loire"],"lt":0,"dept":"49"}},{"type":"Feature","geometry":{"type":"Point","coordinates":[-0.60945,47.51995]},"properties":{"nom":"Croix Cadeau","ag":["Réseau urbain Irigo","Agrégat des réseaux urbains et interurbains des Pays de la Loire"],"lt":0,"dept":"49"}},{"type":"Feature","geometry":{"type":"Point","coordinates":[-0.60955,47.52023]},"properties":{"nom":"Croix Cadeau","ag":["Réseau urbain Irigo","Agrégat des réseaux urbains et interurbains des Pays de la Loire"],"lt":0,"dept":"49"}},{"type":"Feature","geometry":{"type":"Point","coordinates":[-0.50287,47.46753]},"properties":{"nom":"Croix de Cheminée","ag":["Réseau urbain Irigo","Agrégat des réseaux urbains et interurbains des Pays de la Loire"],"lt":0,"dept":"49"}},{"type":"Feature","geometry":{"type":"Point","coordinates":[-0.50323,47.46776]},"properties":{"nom":"Croix de Cheminée","ag":["Réseau urbain Irigo","Agrégat des réseaux urbains et interurbains des Pays de la Loire"],"lt":0,"dept":"49"}},{"type":"Feature","geometry":{"type":"Point","coordinates":[-0.55763,47.46837]},"properties":{"nom":"CCI","ag":["Réseau urbain Irigo","Agrégat des réseaux urbains et interurbains des Pays de la Loire"],"lt":0,"dept":"49"}},{"type":"Feature","geometry":{"type":"Point","coordinates":[-0.48456,47.45957]},"properties":{"nom":"Centre Équestre","ag":["Réseau urbain Irigo","Agrégat des réseaux urbains et interurbains des Pays de la Loire"],"lt":0,"dept":"49"}},{"type":"Feature","geometry":{"type":"Point","coordinates":[-0.4847,47.45958]},"properties":{"nom":"Centre Équestre","ag":["Réseau urbain Irigo","Agrégat des réseaux urbains et interurbains des Pays de la Loire"],"lt":0,"dept":"49"}},{"type":"Feature","geometry":{"type":"Point","coordinates":[-0.54549,47.45839]},"properties":{"nom":"César Geoffray","ag":["Réseau urbain Irigo","Agrégat des réseaux urbains et interurbains des Pays de la Loire"],"lt":0,"dept":"49"}},{"type":"Feature","geometry":{"type":"Point","coordinates":[-0.54593,47.45865]},"properties":{"nom":"César Geoffray","ag":["Réseau urbain Irigo","Agrégat des réseaux urbains et interurbains des Pays de la Loire"],"lt":0,"dept":"49"}},{"type":"Feature","geometry":{"type":"Point","coordinates":[-0.49194,47.46964]},"properties":{"nom":"Cézanne","ag":["Réseau urbain Irigo","Agrégat des réseaux urbains et interurbains des Pays de la Loire"],"lt":0,"dept":"49"}},{"type":"Feature","geometry":{"type":"Point","coordinates":[-0.4919,47.4698]},"properties":{"nom":"Cézanne","ag":["Réseau urbain Irigo","Agrégat des réseaux urbains et interurbains des Pays de la Loire"],"lt":0,"dept":"49"}},{"type":"Feature","geometry":{"type":"Point","coordinates":[-0.52335,47.47155]},"properties":{"nom":"AFPA","ag":["Réseau urbain Irigo","Agrégat des réseaux urbains et interurbains des Pays de la Loire"],"lt":0,"dept":"49"}},{"type":"Feature","geometry":{"type":"Point","coordinates":[-0.52284,47.47146]},"properties":{"nom":"AFPA","ag":["Réseau urbain Irigo","Agrégat des réseaux urbains et interurbains des Pays de la Loire"],"lt":0,"dept":"49"}},{"type":"Feature","geometry":{"type":"Point","coordinates":[-0.47522,47.51735]},"properties":{"nom":"Champs Blancs","ag":["Réseau urbain Irigo","Agrégat des réseaux urbains et interurbains des Pays de la Loire"],"lt":0,"dept":"49"}},{"type":"Feature","geometry":{"type":"Point","coordinates":[-0.47526,47.51723]},"properties":{"nom":"Champs Blancs","ag":["Réseau urbain Irigo","Agrégat des réseaux urbains et interurbains des Pays de la Loire"],"lt":0,"dept":"49"}},{"type":"Feature","geometry":{"type":"Point","coordinates":[-0.55782,47.46818]},"properties":{"nom":"CCI","ag":["Réseau urbain Irigo","Agrégat des réseaux urbains et interurbains des Pays de la Loire"],"lt":0,"dept":"49"}},{"type":"Feature","geometry":{"type":"Point","coordinates":[-0.56142,47.5564]},"properties":{"nom":"Champdollant","ag":["Réseau urbain Irigo","Agrégat des réseaux urbains et interurbains des Pays de la Loire"],"lt":0,"dept":"49"}},{"type":"Feature","geometry":{"type":"Point","coordinates":[-0.52601,47.40639]},"properties":{"nom":"Château Érigné","ag":["Réseau urbain Irigo","Agrégat des réseaux urbains et interurbains des Pays de la Loire"],"lt":0,"dept":"49"}},{"type":"Feature","geometry":{"type":"Point","coordinates":[-0.52575,47.40648]},"properties":{"nom":"Château Érigné","ag":["Réseau urbain Irigo","Agrégat des réseaux urbains et interurbains des Pays de la Loire"],"lt":0,"dept":"49"}},{"type":"Feature","geometry":{"type":"Point","coordinates":[-0.67752,47.56005]},"properties":{"nom":"Chagall","ag":["Réseau urbain Irigo"],"lt":0,"dept":"49"}},{"type":"Feature","geometry":{"type":"Point","coordinates":[-0.53603,47.48194]},"properties":{"nom":"Chalouère","ag":["Réseau urbain Irigo","Agrégat des réseaux urbains et interurbains des Pays de la Loire"],"lt":0,"dept":"49"}},{"type":"Feature","geometry":{"type":"Point","coordinates":[-0.53677,47.48135]},"properties":{"nom":"Chalouère","ag":["Réseau urbain Irigo","Agrégat des réseaux urbains et interurbains des Pays de la Loire"],"lt":0,"dept":"49"}},{"type":"Feature","geometry":{"type":"Point","coordinates":[-0.61501,47.43726]},"properties":{"nom":"Champ de l'Aire","ag":["Réseau urbain Irigo","Agrégat des réseaux urbains et interurbains des Pays de la Loire"],"lt":0,"dept":"49"}},{"type":"Feature","geometry":{"type":"Point","coordinates":[-0.63672,47.39667]},"properties":{"nom":"Champboureau","ag":["Réseau urbain Irigo","Agrégat des réseaux urbains et interurbains des Pays de la Loire"],"lt":0,"dept":"49"}},{"type":"Feature","geometry":{"type":"Point","coordinates":[-0.63672,47.39655]},"properties":{"nom":"Champboureau","ag":["Réseau urbain Irigo","Agrégat des réseaux urbains et interurbains des Pays de la Loire"],"lt":0,"dept":"49"}},{"type":"Feature","geometry":{"type":"Point","coordinates":[-0.56143,47.55672]},"properties":{"nom":"Champdollant","ag":["Réseau urbain Irigo","Agrégat des réseaux urbains et interurbains des Pays de la Loire"],"lt":0,"dept":"49"}},{"type":"Feature","geometry":{"type":"Point","coordinates":[-0.48343,47.5836]},"properties":{"nom":"Route de la Chansonnière","ag":["Réseau urbain Irigo","Agrégat des réseaux urbains et interurbains des Pays de la Loire"],"lt":0,"dept":"49"}},{"type":"Feature","geometry":{"type":"Point","coordinates":[-0.62313,47.40612]},"properties":{"nom":"Chantourteau","ag":["Réseau urbain Irigo","Agrégat des réseaux urbains et interurbains des Pays de la Loire"],"lt":0,"dept":"49"}},{"type":"Feature","geometry":{"type":"Point","coordinates":[-0.55747,47.46015]},"properties":{"nom":"Chanzy","ag":["Réseau urbain Irigo","Agrégat des réseaux urbains et interurbains des Pays de la Loire"],"lt":0,"dept":"49"}},{"type":"Feature","geometry":{"type":"Point","coordinates":[-0.55766,47.46005]},"properties":{"nom":"Chanzy","ag":["Réseau urbain Irigo","Agrégat des réseaux urbains et interurbains des Pays de la Loire"],"lt":0,"dept":"49"}},{"type":"Feature","geometry":{"type":"Point","coordinates":[-0.38297,47.46873]},"properties":{"nom":"Chapelles","ag":["Réseau urbain Irigo","Agrégat des réseaux urbains et interurbains des Pays de la Loire"],"lt":0,"dept":"49"}},{"type":"Feature","geometry":{"type":"Point","coordinates":[-0.38288,47.46867]},"properties":{"nom":"Chapelles","ag":["Réseau urbain Irigo","Agrégat des réseaux urbains et interurbains des Pays de la Loire"],"lt":0,"dept":"49"}},{"type":"Feature","geometry":{"type":"Point","coordinates":[-0.55658,47.49187]},"properties":{"nom":"Charnasserie","ag":["Réseau urbain Irigo","Agrégat des réseaux urbains et interurbains des Pays de la Loire"],"lt":0,"dept":"49"}},{"type":"Feature","geometry":{"type":"Point","coordinates":[-0.55688,47.49197]},"properties":{"nom":"Charnasserie","ag":["Réseau urbain Irigo","Agrégat des réseaux urbains et interurbains des Pays de la Loire"],"lt":0,"dept":"49"}},{"type":"Feature","geometry":{"type":"Point","coordinates":[-0.50924,47.37282]},"properties":{"nom":"Charruau","ag":["Réseau urbain Irigo","Agrégat des réseaux urbains et interurbains des Pays de la Loire"],"lt":0,"dept":"49"}},{"type":"Feature","geometry":{"type":"Point","coordinates":[-0.50921,47.37271]},"properties":{"nom":"Charruau","ag":["Réseau urbain Irigo","Agrégat des réseaux urbains et interurbains des Pays de la Loire"],"lt":0,"dept":"49"}},{"type":"Feature","geometry":{"type":"Point","coordinates":[-0.64989,47.54586]},"properties":{"nom":"Chataignier","ag":["Réseau urbain Irigo","Agrégat des réseaux urbains et interurbains des Pays de la Loire"],"lt":0,"dept":"49"}},{"type":"Feature","geometry":{"type":"Point","coordinates":[-0.64998,47.54568]},"properties":{"nom":"Chataignier","ag":["Réseau urbain Irigo","Agrégat des réseaux urbains et interurbains des Pays de la Loire"],"lt":0,"dept":"49"}},{"type":"Feature","geometry":{"type":"Point","coordinates":[-0.51474,47.48284]},"properties":{"nom":"Châtelain","ag":["Réseau urbain Irigo"],"lt":0,"dept":"49"}},{"type":"Feature","geometry":{"type":"Point","coordinates":[-0.51418,47.48317]},"properties":{"nom":"Châtelain","ag":["Réseau urbain Irigo","Agrégat des réseaux urbains et interurbains des Pays de la Loire"],"lt":0,"dept":"49"}},{"type":"Feature","geometry":{"type":"Point","coordinates":[-0.52118,47.48273]},"properties":{"nom":"Châtenay","ag":["Réseau urbain Irigo","Agrégat des réseaux urbains et interurbains des Pays de la Loire"],"lt":0,"dept":"49"}},{"type":"Feature","geometry":{"type":"Point","coordinates":[-0.52118,47.48257]},"properties":{"nom":"Châtenay","ag":["Réseau urbain Irigo","Agrégat des réseaux urbains et interurbains des Pays de la Loire"],"lt":0,"dept":"49"}},{"type":"Feature","geometry":{"type":"Point","coordinates":[-0.58444,47.43646]},"properties":{"nom":"La Chauvelaie","ag":["Réseau urbain Irigo","Agrégat des réseaux urbains et interurbains des Pays de la Loire"],"lt":0,"dept":"49"}},{"type":"Feature","geometry":{"type":"Point","coordinates":[-0.52331,47.52444]},"properties":{"nom":"Chaumières","ag":["Réseau urbain Irigo","Agrégat des réseaux urbains et interurbains des Pays de la Loire"],"lt":0,"dept":"49"}},{"type":"Feature","geometry":{"type":"Point","coordinates":[-0.52331,47.52412]},"properties":{"nom":"Chaumières","ag":["Réseau urbain Irigo","Agrégat des réseaux urbains et interurbains des Pays de la Loire"],"lt":0,"dept":"49"}},{"type":"Feature","geometry":{"type":"Point","coordinates":[-0.58437,47.43653]},"properties":{"nom":"La Chauvelaie","ag":["Réseau urbain Irigo"],"lt":0,"dept":"49"}},{"type":"Feature","geometry":{"type":"Point","coordinates":[-0.58599,47.47546]},"properties":{"nom":"Chapelle Belle-Beille","ag":["Réseau urbain Irigo","Agrégat des réseaux urbains et interurbains des Pays de la Loire"],"lt":0,"dept":"49"}},{"type":"Feature","geometry":{"type":"Point","coordinates":[-0.58612,47.47581]},"properties":{"nom":"Chapelle Belle-Beille","ag":["Réseau urbain Irigo","Agrégat des réseaux urbains et interurbains des Pays de la Loire"],"lt":0,"dept":"49"}},{"type":"Feature","geometry":{"type":"Point","coordinates":[-0.55928,47.46877]},"properties":{"nom":"Château","ag":["Réseau urbain Irigo","Agrégat des réseaux urbains et interurbains des Pays de la Loire"],"lt":0,"dept":"49"}},{"type":"Feature","geometry":{"type":"Point","coordinates":[-0.56003,47.46927]},"properties":{"nom":"Château","ag":["Réseau urbain Irigo","Agrégat des réseaux urbains et interurbains des Pays de la Loire"],"lt":0,"dept":"49"}},{"type":"Feature","geometry":{"type":"Point","coordinates":[-0.48484,47.48465]},"properties":{"nom":"Chemin de Mongazon","ag":["Réseau urbain Irigo","Agrégat des réseaux urbains et interurbains des Pays de la Loire"],"lt":0,"dept":"49"}},{"type":"Feature","geometry":{"type":"Point","coordinates":[-0.47429,47.54797]},"properties":{"nom":"Chenaie","ag":["Réseau urbain Irigo","Agrégat des réseaux urbains et interurbains des Pays de la Loire"],"lt":0,"dept":"49"}},{"type":"Feature","geometry":{"type":"Point","coordinates":[-0.47441,47.54804]},"properties":{"nom":"Chenaie","ag":["Réseau urbain Irigo","Agrégat des réseaux urbains et interurbains des Pays de la Loire"],"lt":0,"dept":"49"}},{"type":"Feature","geometry":{"type":"Point","coordinates":[-0.53627,47.39588]},"properties":{"nom":"Chêne Rond","ag":["Réseau urbain Irigo"],"lt":0,"dept":"49"}},{"type":"Feature","geometry":{"type":"Point","coordinates":[-0.59102,47.52958]},"properties":{"nom":"Chemin Noir","ag":["Réseau urbain Irigo","Agrégat des réseaux urbains et interurbains des Pays de la Loire"],"lt":0,"dept":"49"}},{"type":"Feature","geometry":{"type":"Point","coordinates":[-0.59082,47.52941]},"properties":{"nom":"Chemin Noir","ag":["Réseau urbain Irigo","Agrégat des réseaux urbains et interurbains des Pays de la Loire"],"lt":0,"dept":"49"}},{"type":"Feature","geometry":{"type":"Point","coordinates":[-0.53659,47.39574]},"properties":{"nom":"Chêne Rond","ag":["Réseau urbain Irigo","Agrégat des réseaux urbains et interurbains des Pays de la Loire"],"lt":0,"dept":"49"}},{"type":"Feature","geometry":{"type":"Point","coordinates":[-0.524,47.43702]},"properties":{"nom":"La Chesnaie","ag":["Réseau urbain Irigo","Agrégat des réseaux urbains et interurbains des Pays de la Loire"],"lt":0,"dept":"49"}},{"type":"Feature","geometry":{"type":"Point","coordinates":[-0.52431,47.43723]},"properties":{"nom":"La Chesnaie","ag":["Réseau urbain Irigo","Agrégat des réseaux urbains et interurbains des Pays de la Loire"],"lt":0,"dept":"49"}},{"type":"Feature","geometry":{"type":"Point","coordinates":[-0.66097,47.55472]},"properties":{"nom":"Chevallerie","ag":["Réseau urbain Irigo","Agrégat des réseaux urbains et interurbains des Pays de la Loire"],"lt":0,"dept":"49"}},{"type":"Feature","geometry":{"type":"Point","coordinates":[-0.66092,47.55458]},"properties":{"nom":"Chevallerie","ag":["Réseau urbain Irigo"],"lt":0,"dept":"49"}},{"type":"Feature","geometry":{"type":"Point","coordinates":[-0.60924,47.4239]},"properties":{"nom":"Chevrière","ag":["Réseau urbain Irigo","Agrégat des réseaux urbains et interurbains des Pays de la Loire"],"lt":0,"dept":"49"}},{"type":"Feature","geometry":{"type":"Point","coordinates":[-0.6091,47.42391]},"properties":{"nom":"Chevrière","ag":["Réseau urbain Irigo","Agrégat des réseaux urbains et interurbains des Pays de la Loire"],"lt":0,"dept":"49"}},{"type":"Feature","geometry":{"type":"Point","coordinates":[-0.55748,47.45391]},"properties":{"nom":"Lycée Chevrollier","ag":["Réseau urbain Irigo","Agrégat des réseaux urbains et interurbains des Pays de la Loire"],"lt":0,"dept":"49"}},{"type":"Feature","geometry":{"type":"Point","coordinates":[-0.55731,47.45382]},"properties":{"nom":"Lycée Chevrollier","ag":["Réseau urbain Irigo","Agrégat des réseaux urbains et interurbains des Pays de la Loire"],"lt":0,"dept":"49"}},{"type":"Feature","geometry":{"type":"Point","coordinates":[-0.58262,47.49006]},"properties":{"nom":"Champ des Martyrs","ag":["Réseau urbain Irigo","Agrégat des réseaux urbains et interurbains des Pays de la Loire"],"lt":0,"dept":"49"}},{"type":"Feature","geometry":{"type":"Point","coordinates":[-0.58309,47.48986]},"properties":{"nom":"Champ des Martyrs","ag":["Réseau urbain Irigo","Agrégat des réseaux urbains et interurbains des Pays de la Loire"],"lt":0,"dept":"49"}},{"type":"Feature","geometry":{"type":"Point","coordinates":[-0.49686,47.44626]},"properties":{"nom":"Chouteau","ag":["Réseau urbain Irigo","Agrégat des réseaux urbains et interurbains des Pays de la Loire"],"lt":0,"dept":"49"}},{"type":"Feature","geometry":{"type":"Point","coordinates":[-0.4967,47.44612]},"properties":{"nom":"Chouteau","ag":["Réseau urbain Irigo","Agrégat des réseaux urbains et interurbains des Pays de la Loire"],"lt":0,"dept":"49"}},{"type":"Feature","geometry":{"type":"Point","coordinates":[-0.62031,47.53001]},"properties":{"nom":"Charles Péguy","ag":["Réseau urbain Irigo","Agrégat des réseaux urbains et interurbains des Pays de la Loire"],"lt":0,"dept":"49"}},{"type":"Feature","geometry":{"type":"Point","coordinates":[-0.62028,47.52991]},"properties":{"nom":"Charles Péguy","ag":["Réseau urbain Irigo","Agrégat des réseaux urbains et interurbains des Pays de la Loire"],"lt":0,"dept":"49"}},{"type":"Feature","geometry":{"type":"Point","coordinates":[-0.59042,47.50656]},"properties":{"nom":"Avrillé Cimetière","ag":["Réseau urbain Irigo","Agrégat des réseaux urbains et interurbains des Pays de la Loire"],"lt":0,"dept":"49"}},{"type":"Feature","geometry":{"type":"Point","coordinates":[-0.59107,47.5064]},"properties":{"nom":"Avrillé Cimetière","ag":["Réseau urbain Irigo"],"lt":0,"dept":"49"}},{"type":"Feature","geometry":{"type":"Point","coordinates":[-0.52773,47.47124]},"properties":{"nom":"Cimetière de l'Est","ag":["Réseau urbain Irigo","Agrégat des réseaux urbains et interurbains des Pays de la Loire"],"lt":0,"dept":"49"}},{"type":"Feature","geometry":{"type":"Point","coordinates":[-0.52774,47.47137]},"properties":{"nom":"Cimetière de l'Est","ag":["Réseau urbain Irigo","Agrégat des réseaux urbains et interurbains des Pays de la Loire"],"lt":0,"dept":"49"}},{"type":"Feature","geometry":{"type":"Point","coordinates":[-0.4623,47.44627]},"properties":{"nom":"Trélazé Cimetière","ag":["Réseau urbain Irigo","Agrégat des réseaux urbains et interurbains des Pays de la Loire"],"lt":0,"dept":"49"}},{"type":"Feature","geometry":{"type":"Point","coordinates":[-0.4626,47.4464]},"properties":{"nom":"Trélazé Cimetière","ag":["Réseau urbain Irigo","Agrégat des réseaux urbains et interurbains des Pays de la Loire"],"lt":0,"dept":"49"}},{"type":"Feature","geometry":{"type":"Point","coordinates":[-0.57075,47.47934]},"properties":{"nom":"Cimetière de l'Ouest","ag":["Réseau urbain Irigo","Agrégat des réseaux urbains et interurbains des Pays de la Loire"],"lt":0,"dept":"49"}},{"type":"Feature","geometry":{"type":"Point","coordinates":[-0.56968,47.47848]},"properties":{"nom":"Cimetière de l'Ouest","ag":["Réseau urbain Irigo","Agrégat des réseaux urbains et interurbains des Pays de la Loire"],"lt":0,"dept":"49"}},{"type":"Feature","geometry":{"type":"Point","coordinates":[-0.53566,47.48851]},"properties":{"nom":"La Cité-Chabada","ag":["Réseau urbain Irigo","Agrégat des réseaux urbains et interurbains des Pays de la Loire"],"lt":0,"dept":"49"}},{"type":"Feature","geometry":{"type":"Point","coordinates":[-0.53622,47.48844]},"properties":{"nom":"La Cité-Chabada","ag":["Réseau urbain Irigo"],"lt":0,"dept":"49"}},{"type":"Feature","geometry":{"type":"Point","coordinates":[-0.59818,47.47868]},"properties":{"nom":"Cité Universitaire","ag":["Réseau urbain Irigo","Agrégat des réseaux urbains et interurbains des Pays de la Loire"],"lt":0,"dept":"49"}},{"type":"Feature","geometry":{"type":"Point","coordinates":[-0.59788,47.47888]},"properties":{"nom":"Cité Universitaire","ag":["Réseau urbain Irigo","Agrégat des réseaux urbains et interurbains des Pays de la Loire"],"lt":0,"dept":"49"}},{"type":"Feature","geometry":{"type":"Point","coordinates":[-0.63375,47.47932]},"properties":{"nom":"Citronnelle","ag":["Réseau urbain Irigo","Agrégat des réseaux urbains et interurbains des Pays de la Loire"],"lt":0,"dept":"49"}},{"type":"Feature","geometry":{"type":"Point","coordinates":[-0.63401,47.47942]},"properties":{"nom":"Citronnelle","ag":["Réseau urbain Irigo","Agrégat des réseaux urbains et interurbains des Pays de la Loire"],"lt":0,"dept":"49"}},{"type":"Feature","geometry":{"type":"Point","coordinates":[-0.62711,47.46076]},"properties":{"nom":"Claie","ag":["Réseau urbain Irigo","Agrégat des réseaux urbains et interurbains des Pays de la Loire"],"lt":0,"dept":"49"}},{"type":"Feature","geometry":{"type":"Point","coordinates":[-0.56681,47.44998]},"properties":{"nom":"Claudel","ag":["Réseau urbain Irigo"],"lt":0,"dept":"49"}},{"type":"Feature","geometry":{"type":"Point","coordinates":[-0.56625,47.44951]},"properties":{"nom":"Claudel","ag":["Réseau urbain Irigo","Agrégat des réseaux urbains et interurbains des Pays de la Loire"],"lt":0,"dept":"49"}},{"type":"Feature","geometry":{"type":"Point","coordinates":[-0.5045,47.48665]},"properties":{"nom":"Claverie","ag":["Réseau urbain Irigo","Agrégat des réseaux urbains et interurbains des Pays de la Loire"],"lt":0,"dept":"49"}},{"type":"Feature","geometry":{"type":"Point","coordinates":[-0.74522,47.52485]},"properties":{"nom":"St-Clément Église","ag":["Réseau urbain Irigo","Agrégat des réseaux urbains et interurbains des Pays de la Loire"],"lt":0,"dept":"49"}},{"type":"Feature","geometry":{"type":"Point","coordinates":[-0.74561,47.52482]},"properties":{"nom":"St-Clément Église","ag":["Réseau urbain Irigo","Réseau interurbain Aléop - Pays de la Loire","Agrégat des réseaux urbains et interurbains des Pays de la Loire"],"lt":0,"dept":"49"}},{"type":"Feature","geometry":{"type":"Point","coordinates":[-0.54162,47.47196]},"properties":{"nom":"Constant Lemoine","ag":["Réseau urbain Irigo","Agrégat des réseaux urbains et interurbains des Pays de la Loire"],"lt":0,"dept":"49"}},{"type":"Feature","geometry":{"type":"Point","coordinates":[-0.54209,47.47199]},"properties":{"nom":"Constant Lemoine","ag":["Réseau urbain Irigo","Agrégat des réseaux urbains et interurbains des Pays de la Loire"],"lt":0,"dept":"49"}},{"type":"Feature","geometry":{"type":"Point","coordinates":[-0.54113,47.44533]},"properties":{"nom":"Neruda","ag":["Réseau urbain Irigo"],"lt":0,"dept":"49"}},{"type":"Feature","geometry":{"type":"Point","coordinates":[-0.58743,47.48534]},"properties":{"nom":"Clinique St-Didier","ag":["Réseau urbain Irigo","Agrégat des réseaux urbains et interurbains des Pays de la Loire"],"lt":0,"dept":"49"}},{"type":"Feature","geometry":{"type":"Point","coordinates":[-0.58708,47.48516]},"properties":{"nom":"Clinique St-Didier","ag":["Réseau urbain Irigo"],"lt":0,"dept":"49"}},{"type":"Feature","geometry":{"type":"Point","coordinates":[-0.42515,47.49634]},"properties":{"nom":"Clos Doreau","ag":["Réseau urbain Irigo","Agrégat des réseaux urbains et interurbains des Pays de la Loire"],"lt":0,"dept":"49"}},{"type":"Feature","geometry":{"type":"Point","coordinates":[-0.42525,47.49624]},"properties":{"nom":"Clos Doreau","ag":["Réseau urbain Irigo","Agrégat des réseaux urbains et interurbains des Pays de la Loire"],"lt":0,"dept":"49"}},{"type":"Feature","geometry":{"type":"Point","coordinates":[-0.56554,47.42249]},"properties":{"nom":"Clos Neuf","ag":["Réseau urbain Irigo","Agrégat des réseaux urbains et interurbains des Pays de la Loire"],"lt":0,"dept":"49"}},{"type":"Feature","geometry":{"type":"Point","coordinates":[-0.45814,47.57714]},"properties":{"nom":"Clos du Vau","ag":["Réseau urbain Irigo","Agrégat des réseaux urbains et interurbains des Pays de la Loire"],"lt":0,"dept":"49"}},{"type":"Feature","geometry":{"type":"Point","coordinates":[-0.45813,47.57725]},"properties":{"nom":"Clos du Vau","ag":["Réseau urbain Irigo","Agrégat des réseaux urbains et interurbains des Pays de la Loire"],"lt":0,"dept":"49"}},{"type":"Feature","geometry":{"type":"Point","coordinates":[-0.56549,47.42242]},"properties":{"nom":"Clos Neuf","ag":["Réseau urbain Irigo","Agrégat des réseaux urbains et interurbains des Pays de la Loire"],"lt":0,"dept":"49"}},{"type":"Feature","geometry":{"type":"Point","coordinates":[-0.61126,47.44164]},"properties":{"nom":"Clos de la Vigne","ag":["Réseau urbain Irigo","Agrégat des réseaux urbains et interurbains des Pays de la Loire"],"lt":0,"dept":"49"}},{"type":"Feature","geometry":{"type":"Point","coordinates":[-0.61129,47.4416]},"properties":{"nom":"Clos de la Vigne","ag":["Réseau urbain Irigo","Agrégat des réseaux urbains et interurbains des Pays de la Loire"],"lt":0,"dept":"49"}},{"type":"Feature","geometry":{"type":"Point","coordinates":[-0.40848,47.50753]},"properties":{"nom":"Cloteau","ag":["Réseau urbain Irigo"],"lt":0,"dept":"49"}},{"type":"Feature","geometry":{"type":"Point","coordinates":[-0.40862,47.50752]},"properties":{"nom":"Cloteau","ag":["Réseau urbain Irigo","Agrégat des réseaux urbains et interurbains des Pays de la Loire"],"lt":0,"dept":"49"}},{"type":"Feature","geometry":{"type":"Point","coordinates":[-0.56625,47.48023]},"properties":{"nom":"Clouet","ag":["Réseau urbain Irigo","Agrégat des réseaux urbains et interurbains des Pays de la Loire"],"lt":0,"dept":"49"}},{"type":"Feature","geometry":{"type":"Point","coordinates":[-0.56636,47.48064]},"properties":{"nom":"Clouet","ag":["Réseau urbain Irigo","Agrégat des réseaux urbains et interurbains des Pays de la Loire"],"lt":0,"dept":"49"}},{"type":"Feature","geometry":{"type":"Point","coordinates":[-0.59978,47.47238]},"properties":{"nom":"CNFPT","ag":["Réseau urbain Irigo"],"lt":0,"dept":"49"}},{"type":"Feature","geometry":{"type":"Point","coordinates":[-0.6001,47.4723]},"properties":{"nom":"CNFPT","ag":["Réseau urbain Irigo"],"lt":0,"dept":"49"}},{"type":"Feature","geometry":{"type":"Point","coordinates":[-0.50731,47.47644]},"properties":{"nom":"Cointreau","ag":["Réseau urbain Irigo","Agrégat des réseaux urbains et interurbains des Pays de la Loire"],"lt":0,"dept":"49"}},{"type":"Feature","geometry":{"type":"Point","coordinates":[-0.50764,47.47637]},"properties":{"nom":"Cointreau","ag":["Réseau urbain Irigo","Agrégat des réseaux urbains et interurbains des Pays de la Loire"],"lt":0,"dept":"49"}},{"type":"Feature","geometry":{"type":"Point","coordinates":[-0.49058,47.48246]},"properties":{"nom":"Colombier","ag":["Réseau urbain Irigo","Agrégat des réseaux urbains et interurbains des Pays de la Loire"],"lt":0,"dept":"49"}},{"type":"Feature","geometry":{"type":"Point","coordinates":[-0.49038,47.48256]},"properties":{"nom":"Colombier","ag":["Réseau urbain Irigo","Agrégat des réseaux urbains et interurbains des Pays de la Loire"],"lt":0,"dept":"49"}},{"type":"Feature","geometry":{"type":"Point","coordinates":[-0.51538,47.45805]},"properties":{"nom":"Cormiers","ag":["Réseau urbain Irigo","Agrégat des réseaux urbains et interurbains des Pays de la Loire"],"lt":0,"dept":"49"}},{"type":"Feature","geometry":{"type":"Point","coordinates":[-0.51593,47.45836]},"properties":{"nom":"Cormiers","ag":["Réseau urbain Irigo","Agrégat des réseaux urbains et interurbains des Pays de la Loire"],"lt":0,"dept":"49"}},{"type":"Feature","geometry":{"type":"Point","coordinates":[-0.35486,47.47402]},"properties":{"nom":"Croix Verte","ag":["Réseau urbain Irigo","Agrégat des réseaux urbains et interurbains des Pays de la Loire"],"lt":0,"dept":"49"}},{"type":"Feature","geometry":{"type":"Point","coordinates":[-0.35473,47.47418]},"properties":{"nom":"Croix Verte","ag":["Réseau urbain Irigo","Agrégat des réseaux urbains et interurbains des Pays de la Loire"],"lt":0,"dept":"49"}},{"type":"Feature","geometry":{"type":"Point","coordinates":[-0.35061,47.47091]},"properties":{"nom":"Corné Mairie","ag":["Réseau urbain Irigo","Agrégat des réseaux urbains et interurbains des Pays de la Loire"],"lt":0,"dept":"49"}},{"type":"Feature","geometry":{"type":"Point","coordinates":[-0.35061,47.471]},"properties":{"nom":"Corné Mairie","ag":["Réseau urbain Irigo","Agrégat des réseaux urbains et interurbains des Pays de la Loire"],"lt":0,"dept":"49"}},{"type":"Feature","geometry":{"type":"Point","coordinates":[-0.55321,47.43822]},"properties":{"nom":"Cosse","ag":["Réseau urbain Irigo"],"lt":0,"dept":"49"}},{"type":"Feature","geometry":{"type":"Point","coordinates":[-0.55345,47.43825]},"properties":{"nom":"Cosse","ag":["Réseau urbain Irigo","Agrégat des réseaux urbains et interurbains des Pays de la Loire"],"lt":0,"dept":"49"}},{"type":"Feature","geometry":{"type":"Point","coordinates":[-0.51534,47.4948]},"properties":{"nom":"Cottage","ag":["Réseau urbain Irigo","Agrégat des réseaux urbains et interurbains des Pays de la Loire"],"lt":0,"dept":"49"}},{"type":"Feature","geometry":{"type":"Point","coordinates":[-0.51513,47.49459]},"properties":{"nom":"Cottage","ag":["Réseau urbain Irigo","Agrégat des réseaux urbains et interurbains des Pays de la Loire"],"lt":0,"dept":"49"}},{"type":"Feature","geometry":{"type":"Point","coordinates":[-0.53296,47.45915]},"properties":{"nom":"Jean Bouin","ag":["Réseau urbain Irigo","Agrégat des réseaux urbains et interurbains des Pays de la Loire"],"lt":0,"dept":"49"}},{"type":"Feature","geometry":{"type":"Point","coordinates":[-0.36876,47.42039]},"properties":{"nom":"Coureau","ag":["Réseau urbain Irigo"],"lt":0,"dept":"49"}},{"type":"Feature","geometry":{"type":"Point","coordinates":[-0.40762,47.46871]},"properties":{"nom":"Coutardière","ag":["Réseau urbain Irigo","Agrégat des réseaux urbains et interurbains des Pays de la Loire"],"lt":0,"dept":"49"}},{"type":"Feature","geometry":{"type":"Point","coordinates":[-0.4075,47.46845]},"properties":{"nom":"Coutardière","ag":["Réseau urbain Irigo","Agrégat des réseaux urbains et interurbains des Pays de la Loire"],"lt":0,"dept":"49"}},{"type":"Feature","geometry":{"type":"Point","coordinates":[-0.58532,47.61188]},"properties":{"nom":"Croix de Beauvais","ag":["Réseau urbain Irigo","Agrégat des réseaux urbains et interurbains des Pays de la Loire"],"lt":0,"dept":"49"}},{"type":"Feature","geometry":{"type":"Point","coordinates":[-0.58512,47.612]},"properties":{"nom":"Croix de Beauvais","ag":["Réseau urbain Irigo","Agrégat des réseaux urbains et interurbains des Pays de la Loire"],"lt":0,"dept":"49"}},{"type":"Feature","geometry":{"type":"Point","coordinates":[-0.51718,47.48086]},"properties":{"nom":"Croix Blanche","ag":["Réseau urbain Irigo","Agrégat des réseaux urbains et interurbains des Pays de la Loire"],"lt":0,"dept":"49"}},{"type":"Feature","geometry":{"type":"Point","coordinates":[-0.51714,47.48076]},"properties":{"nom":"Croix Blanche","ag":["Réseau urbain Irigo","Agrégat des réseaux urbains et interurbains des Pays de la Loire"],"lt":0,"dept":"49"}},{"type":"Feature","geometry":{"type":"Point","coordinates":[-0.49234,47.47433]},"properties":{"nom":"Cressonnière","ag":["Réseau urbain Irigo","Agrégat des réseaux urbains et interurbains des Pays de la Loire"],"lt":0,"dept":"49"}},{"type":"Feature","geometry":{"type":"Point","coordinates":[-0.49207,47.47433]},"properties":{"nom":"Cressonnière","ag":["Réseau urbain Irigo","Agrégat des réseaux urbains et interurbains des Pays de la Loire"],"lt":0,"dept":"49"}},{"type":"Feature","geometry":{"type":"Point","coordinates":[-0.36622,47.47563]},"properties":{"nom":"Crétaudière","ag":["Réseau urbain Irigo"],"lt":0,"dept":"49"}},{"type":"Feature","geometry":{"type":"Point","coordinates":[-0.3663,47.47555]},"properties":{"nom":"Crétaudière","ag":["Réseau urbain Irigo","Agrégat des réseaux urbains et interurbains des Pays de la Loire"],"lt":0,"dept":"49"}},{"type":"Feature","geometry":{"type":"Point","coordinates":[-0.69096,47.50321]},"properties":{"nom":"Croix des Frux","ag":["Réseau urbain Irigo","Agrégat des réseaux urbains et interurbains des Pays de la Loire"],"lt":0,"dept":"49"}},{"type":"Feature","geometry":{"type":"Point","coordinates":[-0.69097,47.50335]},"properties":{"nom":"Croix des Frux","ag":["Réseau urbain Irigo","Agrégat des réseaux urbains et interurbains des Pays de la Loire"],"lt":0,"dept":"49"}},{"type":"Feature","geometry":{"type":"Point","coordinates":[-0.60043,47.45096]},"properties":{"nom":"Croisette","ag":["Réseau urbain Irigo","Agrégat des réseaux urbains et interurbains des Pays de la Loire"],"lt":0,"dept":"49"}},{"type":"Feature","geometry":{"type":"Point","coordinates":[-0.60012,47.45093]},"properties":{"nom":"Croisette","ag":["Réseau urbain Irigo","Agrégat des réseaux urbains et interurbains des Pays de la Loire"],"lt":0,"dept":"49"}},{"type":"Feature","geometry":{"type":"Point","coordinates":[-0.57721,47.44497]},"properties":{"nom":"Route de Bouchemaine","ag":["Réseau urbain Irigo","Agrégat des réseaux urbains et interurbains des Pays de la Loire"],"lt":0,"dept":"49"}},{"type":"Feature","geometry":{"type":"Point","coordinates":[-0.57727,47.44489]},"properties":{"nom":"Route de Bouchemaine","ag":["Réseau urbain Irigo","Agrégat des réseaux urbains et interurbains des Pays de la Loire"],"lt":0,"dept":"49"}},{"type":"Feature","geometry":{"type":"Point","coordinates":[-0.35475,47.47423]},"properties":{"nom":"Croix Verte","ag":["Réseau urbain Irigo"],"lt":0,"dept":"49"}},{"type":"Feature","geometry":{"type":"Point","coordinates":[-0.35476,47.4743]},"properties":{"nom":"Croix Verte","ag":["Réseau urbain Irigo","Agrégat des réseaux urbains et interurbains des Pays de la Loire"],"lt":0,"dept":"49"}},{"type":"Feature","geometry":{"type":"Point","coordinates":[-0.57031,47.53995]},"properties":{"nom":"Croix de Sarthe","ag":["Réseau urbain Irigo","Agrégat des réseaux urbains et interurbains des Pays de la Loire"],"lt":0,"dept":"49"}},{"type":"Feature","geometry":{"type":"Point","coordinates":[-0.56992,47.54012]},"properties":{"nom":"Croix de Sarthe","ag":["Réseau urbain Irigo","Agrégat des réseaux urbains et interurbains des Pays de la Loire"],"lt":0,"dept":"49"}},{"type":"Feature","geometry":{"type":"Point","coordinates":[-0.57079,47.45257]},"properties":{"nom":"Centre de Tri","ag":["Réseau urbain Irigo","Agrégat des réseaux urbains et interurbains des Pays de la Loire"],"lt":0,"dept":"49"}},{"type":"Feature","geometry":{"type":"Point","coordinates":[-0.57034,47.45224]},"properties":{"nom":"Centre de Tri","ag":["Réseau urbain Irigo","Agrégat des réseaux urbains et interurbains des Pays de la Loire"],"lt":0,"dept":"49"}},{"type":"Feature","geometry":{"type":"Point","coordinates":[-0.43678,47.4193]},"properties":{"nom":"Daguenière Église","ag":["Réseau urbain Irigo","Agrégat des réseaux urbains et interurbains des Pays de la Loire"],"lt":0,"dept":"49"}},{"type":"Feature","geometry":{"type":"Point","coordinates":[-0.43678,47.41941]},"properties":{"nom":"Daguenière Église","ag":["Réseau urbain Irigo","Agrégat des réseaux urbains et interurbains des Pays de la Loire"],"lt":0,"dept":"49"}},{"type":"Feature","geometry":{"type":"Point","coordinates":[-0.50683,47.44656]},"properties":{"nom":"Dojo Daguerre","ag":["Réseau urbain Irigo","Agrégat des réseaux urbains et interurbains des Pays de la Loire"],"lt":0,"dept":"49"}},{"type":"Feature","geometry":{"type":"Point","coordinates":[-0.50638,47.44659]},"properties":{"nom":"Dojo Daguerre","ag":["Réseau urbain Irigo","Agrégat des réseaux urbains et interurbains des Pays de la Loire"],"lt":0,"dept":"49"}},{"type":"Feature","geometry":{"type":"Point","coordinates":[-0.42804,47.41931]},"properties":{"nom":"Val d'Authion","ag":["Réseau urbain Irigo","Agrégat des réseaux urbains et interurbains des Pays de la Loire"],"lt":0,"dept":"49"}},{"type":"Feature","geometry":{"type":"Point","coordinates":[-0.42822,47.41939]},"properties":{"nom":"Val d'Authion","ag":["Réseau urbain Irigo","Agrégat des réseaux urbains et interurbains des Pays de la Loire"],"lt":0,"dept":"49"}},{"type":"Feature","geometry":{"type":"Point","coordinates":[-0.59755,47.52786]},"properties":{"nom":"Danemark","ag":["Réseau urbain Irigo","Agrégat des réseaux urbains et interurbains des Pays de la Loire"],"lt":0,"dept":"49"}},{"type":"Feature","geometry":{"type":"Point","coordinates":[-0.59782,47.52772]},"properties":{"nom":"Danemark","ag":["Réseau urbain Irigo","Agrégat des réseaux urbains et interurbains des Pays de la Loire"],"lt":0,"dept":"49"}},