{"type":"FeatureCollection","features":[{"type":"Feature","geometry":{"type":"Point","coordinates":[-1.66186,49.64346]},"properties":{"nom":"AGORA","ag":["Réseau urbain Cap Cotentin","Agrégat des réseaux urbains et interurbains de Normandie"],"lt":0,"dept":"50"}},{"type":"Feature","geometry":{"type":"Point","coordinates":[-1.66188,49.64354]},"properties":{"nom":"AGORA","ag":["Réseau urbain Cap Cotentin","Agrégat des réseaux urbains et interurbains de Normandie"],"lt":0,"dept":"50"}},{"type":"Feature","geometry":{"type":"Point","coordinates":[-1.63925,49.63716]},"properties":{"nom":"LES AIGUILLONS","ag":["Réseau urbain Cap Cotentin","Agrégat des réseaux urbains et interurbains de Normandie"],"lt":0,"dept":"50"}},{"type":"Feature","geometry":{"type":"Point","coordinates":[-1.63926,49.63704]},"properties":{"nom":"LES AIGUILLONS","ag":["Réseau urbain Cap Cotentin","Agrégat des réseaux urbains et interurbains de Normandie"],"lt":0,"dept":"50"}},{"type":"Feature","geometry":{"type":"Point","coordinates":[-1.6888,49.65727]},"properties":{"nom":"ALBERT THOMAS","ag":["Réseau urbain Cap Cotentin","Agrégat des réseaux urbains et interurbains de Normandie"],"lt":0,"dept":"50"}},{"type":"Feature","geometry":{"type":"Point","coordinates":[-1.68884,49.65743]},"properties":{"nom":"ALBERT THOMAS","ag":["Réseau urbain Cap Cotentin","Agrégat des réseaux urbains et interurbains de Normandie"],"lt":0,"dept":"50"}},{"type":"Feature","geometry":{"type":"Point","coordinates":[-1.7153,49.65987]},"properties":{"nom":"AMFREVILLE","ag":["Réseau urbain Cap Cotentin","Agrégat des réseaux urbains et interurbains de Normandie"],"lt":0,"dept":"50"}},{"type":"Feature","geometry":{"type":"Point","coordinates":[-1.62303,49.62946]},"properties":{"nom":"AMONT QUENTIN","ag":["Réseau urbain Cap Cotentin","Agrégat des réseaux urbains et interurbains de Normandie"],"lt":0,"dept":"50"}},{"type":"Feature","geometry":{"type":"Point","coordinates":[-1.62324,49.6293]},"properties":{"nom":"AMONT QUENTIN","ag":["Réseau urbain Cap Cotentin","Agrégat des réseaux urbains et interurbains de Normandie"],"lt":0,"dept":"50"}},{"type":"Feature","geometry":{"type":"Point","coordinates":[-1.63563,49.6269]},"properties":{"nom":"ANJOU","ag":["Réseau urbain Cap Cotentin","Agrégat des réseaux urbains et interurbains de Normandie"],"lt":0,"dept":"50"}},{"type":"Feature","geometry":{"type":"Point","coordinates":[-1.636,49.62697]},"properties":{"nom":"ANJOU","ag":["Réseau urbain Cap Cotentin","Agrégat des réseaux urbains et interurbains de Normandie"],"lt":0,"dept":"50"}},{"type":"Feature","geometry":{"type":"Point","coordinates":[-1.6366,49.62733]},"properties":{"nom":"ANJOU","ag":["Réseau urbain Cap Cotentin","Agrégat des réseaux urbains et interurbains de Normandie"],"lt":0,"dept":"50"}},{"type":"Feature","geometry":{"type":"Point","coordinates":[-1.63664,49.62659]},"properties":{"nom":"ANJOU","ag":["Réseau urbain Cap Cotentin","Agrégat des réseaux urbains et interurbains de Normandie"],"lt":0,"dept":"50"}},{"type":"Feature","geometry":{"type":"Point","coordinates":[-1.66221,49.65702]},"properties":{"nom":"STE-ANNE","ag":["Réseau urbain Cap Cotentin","Agrégat des réseaux urbains et interurbains de Normandie"],"lt":0,"dept":"50"}},{"type":"Feature","geometry":{"type":"Point","coordinates":[-1.66106,49.65693]},"properties":{"nom":"STE-ANNE","ag":["Réseau urbain Cap Cotentin","Agrégat des réseaux urbains et interurbains de Normandie"],"lt":0,"dept":"50"}},{"type":"Feature","geometry":{"type":"Point","coordinates":[-1.66615,49.65406]},"properties":{"nom":"ARAGO","ag":["Réseau urbain Cap Cotentin","Agrégat des réseaux urbains et interurbains de Normandie"],"lt":0,"dept":"50"}},{"type":"Feature","geometry":{"type":"Point","coordinates":[-1.66526,49.65391]},"properties":{"nom":"ARAGO","ag":["Réseau urbain Cap Cotentin","Agrégat des réseaux urbains et interurbains de Normandie"],"lt":0,"dept":"50"}},{"type":"Feature","geometry":{"type":"Point","coordinates":[-1.63661,49.64517]},"properties":{"nom":"PORTE DU MIDI","ag":["Réseau urbain Cap Cotentin","Agrégat des réseaux urbains et interurbains de Normandie"],"lt":0,"dept":"50"}},{"type":"Feature","geometry":{"type":"Point","coordinates":[-1.63663,49.64514]},"properties":{"nom":"PORTE DU MIDI","ag":["Réseau urbain Cap Cotentin","Agrégat des réseaux urbains et interurbains de Normandie"],"lt":0,"dept":"50"}},{"type":"Feature","geometry":{"type":"Point","coordinates":[-1.58818,49.63686]},"properties":{"nom":"ARTISANS","ag":["Réseau urbain Cap Cotentin","Agrégat des réseaux urbains et interurbains de Normandie"],"lt":0,"dept":"50"}},{"type":"Feature","geometry":{"type":"Point","coordinates":[-1.58893,49.63655]},"properties":{"nom":"ARTISANS","ag":["Réseau urbain Cap Cotentin","Agrégat des réseaux urbains et interurbains de Normandie"],"lt":0,"dept":"50"}},{"type":"Feature","geometry":{"type":"Point","coordinates":[-1.62186,49.6367]},"properties":{"nom":"ALEXANDRE III","ag":["Réseau urbain Cap Cotentin","Agrégat des réseaux urbains et interurbains de Normandie"],"lt":0,"dept":"50"}},{"type":"Feature","geometry":{"type":"Point","coordinates":[-1.62166,49.6373]},"properties":{"nom":"ALEXANDRE III","ag":["Réseau urbain Cap Cotentin","Agrégat des réseaux urbains et interurbains de Normandie"],"lt":0,"dept":"50"}},{"type":"Feature","geometry":{"type":"Point","coordinates":[-1.59386,49.64115]},"properties":{"nom":"BAGATELLE","ag":["Réseau urbain Cap Cotentin","Agrégat des réseaux urbains et interurbains de Normandie"],"lt":0,"dept":"50"}},{"type":"Feature","geometry":{"type":"Point","coordinates":[-1.59388,49.64122]},"properties":{"nom":"BAGATELLE","ag":["Réseau urbain Cap Cotentin","Agrégat des réseaux urbains et interurbains de Normandie"],"lt":0,"dept":"50"}},{"type":"Feature","geometry":{"type":"Point","coordinates":[-1.65226,49.6226]},"properties":{"nom":"BEAUCHAMP","ag":["Réseau urbain Cap Cotentin","Agrégat des réseaux urbains et interurbains de Normandie"],"lt":0,"dept":"50"}},{"type":"Feature","geometry":{"type":"Point","coordinates":[-1.65215,49.62287]},"properties":{"nom":"BEAUCHAMP","ag":["Réseau urbain Cap Cotentin","Agrégat des réseaux urbains et interurbains de Normandie"],"lt":0,"dept":"50"}},{"type":"Feature","geometry":{"type":"Point","coordinates":[-1.59583,49.62924]},"properties":{"nom":"BRECHE DU BOIS","ag":["Réseau urbain Cap Cotentin","Agrégat des réseaux urbains et interurbains de Normandie"],"lt":0,"dept":"50"}},{"type":"Feature","geometry":{"type":"Point","coordinates":[-1.59601,49.62942]},"properties":{"nom":"BRECHE DU BOIS","ag":["Réseau urbain Cap Cotentin","Agrégat des réseaux urbains et interurbains de Normandie"],"lt":0,"dept":"50"}},{"type":"Feature","geometry":{"type":"Point","coordinates":[-1.65607,49.6473]},"properties":{"nom":"BELGIQUE","ag":["Réseau urbain Cap Cotentin","Agrégat des réseaux urbains et interurbains de Normandie"],"lt":0,"dept":"50"}},{"type":"Feature","geometry":{"type":"Point","coordinates":[-1.65629,49.64735]},"properties":{"nom":"BELGIQUE","ag":["Réseau urbain Cap Cotentin","Agrégat des réseaux urbains et interurbains de Normandie"],"lt":0,"dept":"50"}},{"type":"Feature","geometry":{"type":"Point","coordinates":[-1.60531,49.63088]},"properties":{"nom":"MAUPAS-LA BRECHE","ag":["Réseau urbain Cap Cotentin","Agrégat des réseaux urbains et interurbains de Normandie"],"lt":0,"dept":"50"}},{"type":"Feature","geometry":{"type":"Point","coordinates":[-1.60526,49.63078]},"properties":{"nom":"MAUPAS-LA BRECHE","ag":["Réseau urbain Cap Cotentin","Agrégat des réseaux urbains et interurbains de Normandie"],"lt":0,"dept":"50"}},{"type":"Feature","geometry":{"type":"Point","coordinates":[-1.66082,49.64962]},"properties":{"nom":"LES BRECHES","ag":["Réseau urbain Cap Cotentin","Agrégat des réseaux urbains et interurbains de Normandie"],"lt":0,"dept":"50"}},{"type":"Feature","geometry":{"type":"Point","coordinates":[-1.66061,49.64968]},"properties":{"nom":"LES BRECHES","ag":["Réseau urbain Cap Cotentin","Agrégat des réseaux urbains et interurbains de Normandie"],"lt":0,"dept":"50"}},{"type":"Feature","geometry":{"type":"Point","coordinates":[-1.60052,49.61602]},"properties":{"nom":"BLERIOT","ag":["Réseau urbain Cap Cotentin","Agrégat des réseaux urbains et interurbains de Normandie"],"lt":0,"dept":"50"}},{"type":"Feature","geometry":{"type":"Point","coordinates":[-1.60067,49.61621]},"properties":{"nom":"BLERIOT","ag":["Réseau urbain Cap Cotentin","Agrégat des réseaux urbains et interurbains de Normandie"],"lt":0,"dept":"50"}},{"type":"Feature","geometry":{"type":"Point","coordinates":[-1.60448,49.60235]},"properties":{"nom":"LE BOCAGE","ag":["Réseau urbain Cap Cotentin","Agrégat des réseaux urbains et interurbains de Normandie"],"lt":0,"dept":"50"}},{"type":"Feature","geometry":{"type":"Point","coordinates":[-1.60519,49.6028]},"properties":{"nom":"LE BOCAGE","ag":["Réseau urbain Cap Cotentin","Agrégat des réseaux urbains et interurbains de Normandie"],"lt":0,"dept":"50"}},{"type":"Feature","geometry":{"type":"Point","coordinates":[-1.70269,49.65785]},"properties":{"nom":"LE BOIS","ag":["Réseau urbain Cap Cotentin","Agrégat des réseaux urbains et interurbains de Normandie"],"lt":0,"dept":"50"}},{"type":"Feature","geometry":{"type":"Point","coordinates":[-1.67233,49.65418]},"properties":{"nom":"LA BONDE","ag":["Réseau urbain Cap Cotentin","Agrégat des réseaux urbains et interurbains de Normandie"],"lt":0,"dept":"50"}},{"type":"Feature","geometry":{"type":"Point","coordinates":[-1.67252,49.65421]},"properties":{"nom":"LA BONDE","ag":["Réseau urbain Cap Cotentin","Agrégat des réseaux urbains et interurbains de Normandie"],"lt":0,"dept":"50"}},{"type":"Feature","geometry":{"type":"Point","coordinates":[-1.61829,49.62869]},"properties":{"nom":"BOSQUET DU ROULE","ag":["Réseau urbain Cap Cotentin","Agrégat des réseaux urbains et interurbains de Normandie"],"lt":0,"dept":"50"}},{"type":"Feature","geometry":{"type":"Point","coordinates":[-1.61803,49.62905]},"properties":{"nom":"BOSQUET DU ROULE","ag":["Réseau urbain Cap Cotentin","Agrégat des réseaux urbains et interurbains de Normandie"],"lt":0,"dept":"50"}},{"type":"Feature","geometry":{"type":"Point","coordinates":[-1.55424,49.65236]},"properties":{"nom":"LE BECQUET DE HAUT","ag":["Réseau urbain Cap Cotentin","Agrégat des réseaux urbains et interurbains de Normandie"],"lt":0,"dept":"50"}},{"type":"Feature","geometry":{"type":"Point","coordinates":[-1.55452,49.6523]},"properties":{"nom":"LE BECQUET DE HAUT","ag":["Réseau urbain Cap Cotentin","Agrégat des réseaux urbains et interurbains de Normandie"],"lt":0,"dept":"50"}},{"type":"Feature","geometry":{"type":"Point","coordinates":[-1.6395,49.62823]},"properties":{"nom":"BECQUEREL","ag":["Réseau urbain Cap Cotentin","Agrégat des réseaux urbains et interurbains de Normandie"],"lt":0,"dept":"50"}},{"type":"Feature","geometry":{"type":"Point","coordinates":[-1.63952,49.62838]},"properties":{"nom":"BECQUEREL","ag":["Réseau urbain Cap Cotentin","Agrégat des réseaux urbains et interurbains de Normandie"],"lt":0,"dept":"50"}},{"type":"Feature","geometry":{"type":"Point","coordinates":[-1.64397,49.63026]},"properties":{"nom":"BAYET","ag":["Réseau urbain Cap Cotentin","Agrégat des réseaux urbains et interurbains de Normandie"],"lt":0,"dept":"50"}},{"type":"Feature","geometry":{"type":"Point","coordinates":[-1.64276,49.62989]},"properties":{"nom":"BAYET","ag":["Réseau urbain Cap Cotentin","Agrégat des réseaux urbains et interurbains de Normandie"],"lt":0,"dept":"50"}},{"type":"Feature","geometry":{"type":"Point","coordinates":[-1.6452,49.63076]},"properties":{"nom":"BRANLY","ag":["Réseau urbain Cap Cotentin","Agrégat des réseaux urbains et interurbains de Normandie"],"lt":0,"dept":"50"}},{"type":"Feature","geometry":{"type":"Point","coordinates":[-1.64517,49.63079]},"properties":{"nom":"BRANLY","ag":["Réseau urbain Cap Cotentin","Agrégat des réseaux urbains et interurbains de Normandie"],"lt":0,"dept":"50"}},{"type":"Feature","geometry":{"type":"Point","coordinates":[-1.59208,49.63327]},"properties":{"nom":"BROSSOLETTE","ag":["Réseau urbain Cap Cotentin","Agrégat des réseaux urbains et interurbains de Normandie"],"lt":0,"dept":"50"}},{"type":"Feature","geometry":{"type":"Point","coordinates":[-1.59205,49.63365]},"properties":{"nom":"BROSSOLETTE","ag":["Réseau urbain Cap Cotentin","Agrégat des réseaux urbains et interurbains de Normandie"],"lt":0,"dept":"50"}},{"type":"Feature","geometry":{"type":"Point","coordinates":[-1.67434,49.65374]},"properties":{"nom":"BRECOURT","ag":["Réseau urbain Cap Cotentin","Agrégat des réseaux urbains et interurbains de Normandie"],"lt":0,"dept":"50"}},{"type":"Feature","geometry":{"type":"Point","coordinates":[-1.67493,49.65374]},"properties":{"nom":"BRECOURT","ag":["Réseau urbain Cap Cotentin","Agrégat des réseaux urbains et interurbains de Normandie"],"lt":0,"dept":"50"}},{"type":"Feature","geometry":{"type":"Point","coordinates":[-1.6095,49.61874]},"properties":{"nom":"BEAUSEJOUR","ag":["Réseau urbain Cap Cotentin","Agrégat des réseaux urbains et interurbains de Normandie"],"lt":0,"dept":"50"}},{"type":"Feature","geometry":{"type":"Point","coordinates":[-1.60959,49.61891]},"properties":{"nom":"BEAUSEJOUR","ag":["Réseau urbain Cap Cotentin","Agrégat des réseaux urbains et interurbains de Normandie"],"lt":0,"dept":"50"}},{"type":"Feature","geometry":{"type":"Point","coordinates":[-1.63245,49.64431]},"properties":{"nom":"BUCAILLE","ag":["Réseau urbain Cap Cotentin","Agrégat des réseaux urbains et interurbains de Normandie"],"lt":0,"dept":"50"}},{"type":"Feature","geometry":{"type":"Point","coordinates":[-1.63126,49.64451]},"properties":{"nom":"BUCAILLE","ag":["Réseau urbain Cap Cotentin","Agrégat des réseaux urbains et interurbains de Normandie"],"lt":0,"dept":"50"}},{"type":"Feature","geometry":{"type":"Point","coordinates":[-1.62147,49.64057]},"properties":{"nom":"CALIGNY","ag":["Réseau urbain Cap Cotentin","Agrégat des réseaux urbains et interurbains de Normandie"],"lt":0,"dept":"50"}},{"type":"Feature","geometry":{"type":"Point","coordinates":[-1.62145,49.64025]},"properties":{"nom":"CALIGNY","ag":["Réseau urbain Cap Cotentin","Agrégat des réseaux urbains et interurbains de Normandie"],"lt":0,"dept":"50"}},{"type":"Feature","geometry":{"type":"Point","coordinates":[-1.66943,49.6573]},"properties":{"nom":"CENTRE AQUATIQUE","ag":["Réseau urbain Cap Cotentin","Agrégat des réseaux urbains et interurbains de Normandie"],"lt":0,"dept":"50"}},{"type":"Feature","geometry":{"type":"Point","coordinates":[-1.66944,49.65733]},"properties":{"nom":"CENTRE AQUATIQUE","ag":["Réseau urbain Cap Cotentin","Agrégat des réseaux urbains et interurbains de Normandie"],"lt":0,"dept":"50"}},{"type":"Feature","geometry":{"type":"Point","coordinates":[-1.68122,49.65394]},"properties":{"nom":"CARNE","ag":["Réseau urbain Cap Cotentin","Agrégat des réseaux urbains et interurbains de Normandie"],"lt":0,"dept":"50"}},{"type":"Feature","geometry":{"type":"Point","coordinates":[-1.68188,49.65392]},"properties":{"nom":"CARNE","ag":["Réseau urbain Cap Cotentin","Agrégat des réseaux urbains et interurbains de Normandie"],"lt":0,"dept":"50"}},{"type":"Feature","geometry":{"type":"Point","coordinates":[-1.57972,49.61006]},"properties":{"nom":"CABLES","ag":["Réseau urbain Cap Cotentin","Agrégat des réseaux urbains et interurbains de Normandie"],"lt":0,"dept":"50"}},{"type":"Feature","geometry":{"type":"Point","coordinates":[-1.57974,49.61019]},"properties":{"nom":"CABLES","ag":["Réseau urbain Cap Cotentin","Agrégat des réseaux urbains et interurbains de Normandie"],"lt":0,"dept":"50"}},{"type":"Feature","geometry":{"type":"Point","coordinates":[-1.61114,49.64246]},"properties":{"nom":"CINEMA-HOTEL ATLANTIQUE","ag":["Réseau urbain Cap Cotentin","Agrégat des réseaux urbains et interurbains de Normandie"],"lt":0,"dept":"50"}},{"type":"Feature","geometry":{"type":"Point","coordinates":[-1.61133,49.64251]},"properties":{"nom":"CINEMA-HOTEL ATLANTIQUE","ag":["Réseau urbain Cap Cotentin","Agrégat des réseaux urbains et interurbains de Normandie"],"lt":0,"dept":"50"}},{"type":"Feature","geometry":{"type":"Point","coordinates":[-1.65583,49.62097]},"properties":{"nom":"CHEMIN DES FOSSES","ag":["Réseau urbain Cap Cotentin","Agrégat des réseaux urbains et interurbains de Normandie"],"lt":0,"dept":"50"}},{"type":"Feature","geometry":{"type":"Point","coordinates":[-1.65615,49.62096]},"properties":{"nom":"CHEMIN DES FOSSES","ag":["Réseau urbain Cap Cotentin","Agrégat des réseaux urbains et interurbains de Normandie"],"lt":0,"dept":"50"}},{"type":"Feature","geometry":{"type":"Point","coordinates":[-1.59907,49.63012]},"properties":{"nom":"CITE DESLANDES","ag":["Réseau urbain Cap Cotentin","Agrégat des réseaux urbains et interurbains de Normandie"],"lt":0,"dept":"50"}},{"type":"Feature","geometry":{"type":"Point","coordinates":[-1.59943,49.63024]},"properties":{"nom":"CITE DESLANDES","ag":["Réseau urbain Cap Cotentin","Agrégat des réseaux urbains et interurbains de Normandie"],"lt":0,"dept":"50"}},{"type":"Feature","geometry":{"type":"Point","coordinates":[-1.6025,49.60333]},"properties":{"nom":"CENTRE COMMERCIAL","ag":["Réseau urbain Cap Cotentin","Agrégat des réseaux urbains et interurbains de Normandie"],"lt":0,"dept":"50"}},{"type":"Feature","geometry":{"type":"Point","coordinates":[-1.60289,49.60369]},"properties":{"nom":"CENTRE COMMERCIAL","ag":["Réseau urbain Cap Cotentin","Agrégat des réseaux urbains et interurbains de Normandie"],"lt":0,"dept":"50"}},{"type":"Feature","geometry":{"type":"Point","coordinates":[-1.5842,49.63097]},"properties":{"nom":"CHENES","ag":["Réseau urbain Cap Cotentin","Agrégat des réseaux urbains et interurbains de Normandie"],"lt":0,"dept":"50"}},{"type":"Feature","geometry":{"type":"Point","coordinates":[-1.58425,49.63103]},"properties":{"nom":"CHENES","ag":["Réseau urbain Cap Cotentin","Agrégat des réseaux urbains et interurbains de Normandie"],"lt":0,"dept":"50"}},{"type":"Feature","geometry":{"type":"Point","coordinates":[-1.60269,49.63137]},"properties":{"nom":"RUE DE LA CHASSE VERTE","ag":["Réseau urbain Cap Cotentin","Agrégat des réseaux urbains et interurbains de Normandie"],"lt":0,"dept":"50"}},{"type":"Feature","geometry":{"type":"Point","coordinates":[-1.63635,49.63558]},"properties":{"nom":"CIMETIERE","ag":["Réseau urbain Cap Cotentin","Agrégat des réseaux urbains et interurbains de Normandie"],"lt":0,"dept":"50"}},{"type":"Feature","geometry":{"type":"Point","coordinates":[-1.63638,49.6355]},"properties":{"nom":"CIMETIERE","ag":["Réseau urbain Cap Cotentin","Agrégat des réseaux urbains et interurbains de Normandie"],"lt":0,"dept":"50"}},{"type":"Feature","geometry":{"type":"Point","coordinates":[-1.61731,49.64206]},"properties":{"nom":"CITE DE LA MER","ag":["Réseau urbain Cap Cotentin","Agrégat des réseaux urbains et interurbains de Normandie"],"lt":0,"dept":"50"}},{"type":"Feature","geometry":{"type":"Point","coordinates":[-1.61722,49.64222]},"properties":{"nom":"CITE DE LA MER","ag":["Réseau urbain Cap Cotentin","Agrégat des réseaux urbains et interurbains de Normandie"],"lt":0,"dept":"50"}},{"type":"Feature","geometry":{"type":"Point","coordinates":[-1.59088,49.64666]},"properties":{"nom":"CLAIR LOGIS","ag":["Réseau urbain Cap Cotentin","Agrégat des réseaux urbains et interurbains de Normandie"],"lt":0,"dept":"50"}},{"type":"Feature","geometry":{"type":"Point","coordinates":[-1.59086,49.64684]},"properties":{"nom":"CLAIR LOGIS","ag":["Réseau urbain Cap Cotentin","Agrégat des réseaux urbains et interurbains de Normandie"],"lt":0,"dept":"50"}},{"type":"Feature","geometry":{"type":"Point","coordinates":[-1.65606,49.6549]},"properties":{"nom":"CHASSE MITAIS","ag":["Réseau urbain Cap Cotentin","Agrégat des réseaux urbains et interurbains de Normandie"],"lt":0,"dept":"50"}},{"type":"Feature","geometry":{"type":"Point","coordinates":[-1.65574,49.65467]},"properties":{"nom":"CHASSE MITAIS","ag":["Réseau urbain Cap Cotentin","Agrégat des réseaux urbains et interurbains de Normandie"],"lt":0,"dept":"50"}},{"type":"Feature","geometry":{"type":"Point","coordinates":[-1.58056,49.64668]},"properties":{"nom":"COLLEGE DIDEROT","ag":["Réseau urbain Cap Cotentin","Agrégat des réseaux urbains et interurbains de Normandie"],"lt":0,"dept":"50"}},{"type":"Feature","geometry":{"type":"Point","coordinates":[-1.57909,49.64728]},"properties":{"nom":"COLLEGE DIDEROT","ag":["Réseau urbain Cap Cotentin","Agrégat des réseaux urbains et interurbains de Normandie"],"lt":0,"dept":"50"}},{"type":"Feature","geometry":{"type":"Point","coordinates":[-1.69164,49.65915]},"properties":{"nom":"COLLEGE FERRY","ag":["Réseau urbain Cap Cotentin","Agrégat des réseaux urbains et interurbains de Normandie"],"lt":0,"dept":"50"}},{"type":"Feature","geometry":{"type":"Point","coordinates":[-1.69204,49.65954]},"properties":{"nom":"COLLEGE FERRY","ag":["Réseau urbain Cap Cotentin","Agrégat des réseaux urbains et interurbains de Normandie"],"lt":0,"dept":"50"}},{"type":"Feature","geometry":{"type":"Point","coordinates":[-1.57781,49.64723]},"properties":{"nom":"COSEC","ag":["Réseau urbain Cap Cotentin","Agrégat des réseaux urbains et interurbains de Normandie"],"lt":0,"dept":"50"}},{"type":"Feature","geometry":{"type":"Point","coordinates":[-1.57765,49.64697]},"properties":{"nom":"COSEC","ag":["Réseau urbain Cap Cotentin","Agrégat des réseaux urbains et interurbains de Normandie"],"lt":0,"dept":"50"}},{"type":"Feature","geometry":{"type":"Point","coordinates":[-1.64851,49.62459]},"properties":{"nom":"COTEAUX","ag":["Réseau urbain Cap Cotentin","Agrégat des réseaux urbains et interurbains de Normandie"],"lt":0,"dept":"50"}},{"type":"Feature","geometry":{"type":"Point","coordinates":[-1.64695,49.62432]},"properties":{"nom":"COTEAUX","ag":["Réseau urbain Cap Cotentin","Agrégat des réseaux urbains et interurbains de Normandie"],"lt":0,"dept":"50"}},{"type":"Feature","geometry":{"type":"Point","coordinates":[-1.66068,49.65114]},"properties":{"nom":"COUPLETS","ag":["Réseau urbain Cap Cotentin","Agrégat des réseaux urbains et interurbains de Normandie"],"lt":0,"dept":"50"}},{"type":"Feature","geometry":{"type":"Point","coordinates":[-1.6605,49.65155]},"properties":{"nom":"COUPLETS","ag":["Réseau urbain Cap Cotentin","Agrégat des réseaux urbains et interurbains de Normandie"],"lt":0,"dept":"50"}},{"type":"Feature","geometry":{"type":"Point","coordinates":[-1.65846,49.64902]},"properties":{"nom":"COURBET","ag":["Réseau urbain Cap Cotentin","Agrégat des réseaux urbains et interurbains de Normandie"],"lt":0,"dept":"50"}},{"type":"Feature","geometry":{"type":"Point","coordinates":[-1.65819,49.64949]},"properties":{"nom":"COURBET","ag":["Réseau urbain Cap Cotentin","Agrégat des réseaux urbains et interurbains de Normandie"],"lt":0,"dept":"50"}},{"type":"Feature","geometry":{"type":"Point","coordinates":[-1.6446,49.64406]},"properties":{"nom":"CHARCOT","ag":["Réseau urbain Cap Cotentin","Agrégat des réseaux urbains et interurbains de Normandie"],"lt":0,"dept":"50"}},{"type":"Feature","geometry":{"type":"Point","coordinates":[-1.64442,49.64374]},"properties":{"nom":"CHARCOT","ag":["Réseau urbain Cap Cotentin","Agrégat des réseaux urbains et interurbains de Normandie"],"lt":0,"dept":"50"}},{"type":"Feature","geometry":{"type":"Point","coordinates":[-1.57138,49.64852]},"properties":{"nom":"CHARDINE","ag":["Réseau urbain Cap Cotentin","Agrégat des réseaux urbains et interurbains de Normandie"],"lt":0,"dept":"50"}},{"type":"Feature","geometry":{"type":"Point","coordinates":[-1.57147,49.64859]},"properties":{"nom":"CHARDINE","ag":["Réseau urbain Cap Cotentin","Agrégat des réseaux urbains et interurbains de Normandie"],"lt":0,"dept":"50"}},{"type":"Feature","geometry":{"type":"Point","coordinates":[-1.61665,49.63699]},"properties":{"nom":"CARNOT-ELEIS","ag":["Réseau urbain Cap Cotentin","Agrégat des réseaux urbains et interurbains de Normandie"],"lt":0,"dept":"50"}},{"type":"Feature","geometry":{"type":"Point","coordinates":[-1.61697,49.63613]},"properties":{"nom":"CARNOT-ELEIS","ag":["Réseau urbain Cap Cotentin","Agrégat des réseaux urbains et interurbains de Normandie"],"lt":0,"dept":"50"}},{"type":"Feature","geometry":{"type":"Point","coordinates":[-1.60025,49.6127]},"properties":{"nom":"CHAPELLE ST MICHEL","ag":["Réseau urbain Cap Cotentin","Agrégat des réseaux urbains et interurbains de Normandie"],"lt":0,"dept":"50"}},{"type":"Feature","geometry":{"type":"Point","coordinates":[-1.60022,49.61265]},"properties":{"nom":"CHAPELLE ST MICHEL","ag":["Réseau urbain Cap Cotentin","Agrégat des réseaux urbains et interurbains de Normandie"],"lt":0,"dept":"50"}},{"type":"Feature","geometry":{"type":"Point","coordinates":[-1.62913,49.6434]},"properties":{"nom":"CHANTIER","ag":["Réseau urbain Cap Cotentin","Agrégat des réseaux urbains et interurbains de Normandie"],"lt":0,"dept":"50"}},{"type":"Feature","geometry":{"type":"Point","coordinates":[-1.62848,49.64351]},"properties":{"nom":"CHANTIER","ag":["Réseau urbain Cap Cotentin","Agrégat des réseaux urbains et interurbains de Normandie"],"lt":0,"dept":"50"}},{"type":"Feature","geometry":{"type":"Point","coordinates":[-1.62739,49.64462]},"properties":{"nom":"CHANTEREYNE","ag":["Réseau urbain Cap Cotentin","Agrégat des réseaux urbains et interurbains de Normandie"],"lt":0,"dept":"50"}},{"type":"Feature","geometry":{"type":"Point","coordinates":[-1.62737,49.6447]},"properties":{"nom":"CHANTEREYNE","ag":["Réseau urbain Cap Cotentin","Agrégat des réseaux urbains et interurbains de Normandie"],"lt":0,"dept":"50"}},{"type":"Feature","geometry":{"type":"Point","coordinates":[-1.60726,49.60799]},"properties":{"nom":"CURIE","ag":["Réseau urbain Cap Cotentin","Agrégat des réseaux urbains et interurbains de Normandie"],"lt":0,"dept":"50"}},{"type":"Feature","geometry":{"type":"Point","coordinates":[-1.60713,49.60794]},"properties":{"nom":"CURIE","ag":["Réseau urbain Cap Cotentin","Agrégat des réseaux urbains et interurbains de Normandie"],"lt":0,"dept":"50"}},{"type":"Feature","geometry":{"type":"Point","coordinates":[-1.57576,49.6446]},"properties":{"nom":"LES COLS VERTS","ag":["Réseau urbain Cap Cotentin","Agrégat des réseaux urbains et interurbains de Normandie"],"lt":0,"dept":"50"}},{"type":"Feature","geometry":{"type":"Point","coordinates":[-1.57567,49.64435]},"properties":{"nom":"LES COLS VERTS","ag":["Réseau urbain Cap Cotentin","Agrégat des réseaux urbains et interurbains de Normandie"],"lt":0,"dept":"50"}},{"type":"Feature","geometry":{"type":"Point","coordinates":[-1.6659,49.64703]},"properties":{"nom":"DANTON","ag":["Réseau urbain Cap Cotentin","Agrégat des réseaux urbains et interurbains de Normandie"],"lt":0,"dept":"50"}},{"type":"Feature","geometry":{"type":"Point","coordinates":[-1.66613,49.64708]},"properties":{"nom":"DANTON","ag":["Réseau urbain Cap Cotentin","Agrégat des réseaux urbains et interurbains de Normandie"],"lt":0,"dept":"50"}},{"type":"Feature","geometry":{"type":"Point","coordinates":[-1.60156,49.60865]},"properties":{"nom":"DEBUSSY","ag":["Réseau urbain Cap Cotentin","Agrégat des réseaux urbains et interurbains de Normandie"],"lt":0,"dept":"50"}},{"type":"Feature","geometry":{"type":"Point","coordinates":[-1.60167,49.60859]},"properties":{"nom":"DEBUSSY","ag":["Réseau urbain Cap Cotentin","Agrégat des réseaux urbains et interurbains de Normandie"],"lt":0,"dept":"50"}},{"type":"Feature","geometry":{"type":"Point","coordinates":[-1.66085,49.62151]},"properties":{"nom":"DIGARD","ag":["Réseau urbain Cap Cotentin","Agrégat des réseaux urbains et interurbains de Normandie"],"lt":0,"dept":"50"}},{"type":"Feature","geometry":{"type":"Point","coordinates":[-1.68501,49.66364]},"properties":{"nom":"QUERQUEVILLE PORT","ag":["Réseau urbain Cap Cotentin","Agrégat des réseaux urbains et interurbains de Normandie"],"lt":0,"dept":"50"}},{"type":"Feature","geometry":{"type":"Point","coordinates":[-1.68529,49.6641]},"properties":{"nom":"QUERQUEVILLE PORT","ag":["Réseau urbain Cap Cotentin","Agrégat des réseaux urbains et interurbains de Normandie"],"lt":0,"dept":"50"}},{"type":"Feature","geometry":{"type":"Point","coordinates":[-1.66922,49.64409]},"properties":{"nom":"DUBOST","ag":["Réseau urbain Cap Cotentin","Agrégat des réseaux urbains et interurbains de Normandie"],"lt":0,"dept":"50"}},{"type":"Feature","geometry":{"type":"Point","coordinates":[-1.66925,49.64427]},"properties":{"nom":"DUBOST","ag":["Réseau urbain Cap Cotentin","Agrégat des réseaux urbains et interurbains de Normandie"],"lt":0,"dept":"50"}},{"type":"Feature","geometry":{"type":"Point","coordinates":[-1.56683,49.63444]},"properties":{"nom":"EGLANTINE CHATEAU","ag":["Réseau urbain Cap Cotentin","Agrégat des réseaux urbains et interurbains de Normandie"],"lt":0,"dept":"50"}},{"type":"Feature","geometry":{"type":"Point","coordinates":[-1.62543,49.62742]},"properties":{"nom":"PICARDIE","ag":["Réseau urbain Cap Cotentin","Agrégat des réseaux urbains et interurbains de Normandie"],"lt":0,"dept":"50"}},{"type":"Feature","geometry":{"type":"Point","coordinates":[-1.62566,49.62738]},"properties":{"nom":"PICARDIE","ag":["Réseau urbain Cap Cotentin","Agrégat des réseaux urbains et interurbains de Normandie"],"lt":0,"dept":"50"}},{"type":"Feature","geometry":{"type":"Point","coordinates":[-1.65034,49.64583]},"properties":{"nom":"EGLISE","ag":["Réseau urbain Cap Cotentin","Agrégat des réseaux urbains et interurbains de Normandie"],"lt":0,"dept":"50"}},{"type":"Feature","geometry":{"type":"Point","coordinates":[-1.65119,49.64555]},"properties":{"nom":"EGLISE","ag":["Réseau urbain Cap Cotentin","Agrégat des réseaux urbains et interurbains de Normandie"],"lt":0,"dept":"50"}},{"type":"Feature","geometry":{"type":"Point","coordinates":[-1.69133,49.66404]},"properties":{"nom":"EPINEY CENTRE","ag":["Réseau urbain Cap Cotentin","Agrégat des réseaux urbains et interurbains de Normandie"],"lt":0,"dept":"50"}},{"type":"Feature","geometry":{"type":"Point","coordinates":[-1.69197,49.66392]},"properties":{"nom":"EPINEY CENTRE","ag":["Réseau urbain Cap Cotentin","Agrégat des réseaux urbains et interurbains de Normandie"],"lt":0,"dept":"50"}},{"type":"Feature","geometry":{"type":"Point","coordinates":[-1.69607,49.66297]},"properties":{"nom":"EPINEY HAUT","ag":["Réseau urbain Cap Cotentin","Agrégat des réseaux urbains et interurbains de Normandie"],"lt":0,"dept":"50"}},{"type":"Feature","geometry":{"type":"Point","coordinates":[-1.58372,49.64559]},"properties":{"nom":"EUROPE","ag":["Réseau urbain Cap Cotentin","Agrégat des réseaux urbains et interurbains de Normandie"],"lt":0,"dept":"50"}},{"type":"Feature","geometry":{"type":"Point","coordinates":[-1.58393,49.64558]},"properties":{"nom":"EUROPE","ag":["Réseau urbain Cap Cotentin","Agrégat des réseaux urbains et interurbains de Normandie"],"lt":0,"dept":"50"}},{"type":"Feature","geometry":{"type":"Point","coordinates":[-1.62829,49.64065]},"properties":{"nom":"F. DES CAVELIERS","ag":["Réseau urbain Cap Cotentin","Agrégat des réseaux urbains et interurbains de Normandie"],"lt":0,"dept":"50"}},{"type":"Feature","geometry":{"type":"Point","coordinates":[-1.63435,49.6366]},"properties":{"nom":"FJT","ag":["Réseau urbain Cap Cotentin","Agrégat des réseaux urbains et interurbains de Normandie"],"lt":0,"dept":"50"}},{"type":"Feature","geometry":{"type":"Point","coordinates":[-1.63423,49.63662]},"properties":{"nom":"FJT","ag":["Réseau urbain Cap Cotentin","Agrégat des réseaux urbains et interurbains de Normandie"],"lt":0,"dept":"50"}},{"type":"Feature","geometry":{"type":"Point","coordinates":[-1.57088,49.6367]},"properties":{"nom":"LES FLOTTES","ag":["Réseau urbain Cap Cotentin","Agrégat des réseaux urbains et interurbains de Normandie"],"lt":0,"dept":"50"}},{"type":"Feature","geometry":{"type":"Point","coordinates":[-1.57031,49.63604]},"properties":{"nom":"LES FLOTTES","ag":["Réseau urbain Cap Cotentin","Agrégat des réseaux urbains et interurbains de Normandie"],"lt":0,"dept":"50"}},{"type":"Feature","geometry":{"type":"Point","coordinates":[-1.65376,49.62803]},"properties":{"nom":"FOEDRE","ag":["Réseau urbain Cap Cotentin","Agrégat des réseaux urbains et interurbains de Normandie"],"lt":0,"dept":"50"}},{"type":"Feature","geometry":{"type":"Point","coordinates":[-1.65381,49.62811]},"properties":{"nom":"FOEDRE","ag":["Réseau urbain Cap Cotentin","Agrégat des réseaux urbains et interurbains de Normandie"],"lt":0,"dept":"50"}},{"type":"Feature","geometry":{"type":"Point","coordinates":[-1.64675,49.64093]},"properties":{"nom":"FOURCHES","ag":["Réseau urbain Cap Cotentin","Agrégat des réseaux urbains et interurbains de Normandie"],"lt":0,"dept":"50"}},{"type":"Feature","geometry":{"type":"Point","coordinates":[-1.64677,49.64055]},"properties":{"nom":"FOURCHES","ag":["Réseau urbain Cap Cotentin","Agrégat des réseaux urbains et interurbains de Normandie"],"lt":0,"dept":"50"}},{"type":"Feature","geometry":{"type":"Point","coordinates":[-1.65365,49.63898]},"properties":{"nom":"FRACHON","ag":["Réseau urbain Cap Cotentin","Agrégat des réseaux urbains et interurbains de Normandie"],"lt":0,"dept":"50"}},{"type":"Feature","geometry":{"type":"Point","coordinates":[-1.65352,49.63885]},"properties":{"nom":"FRACHON","ag":["Réseau urbain Cap Cotentin","Agrégat des réseaux urbains et interurbains de Normandie"],"lt":0,"dept":"50"}},{"type":"Feature","geometry":{"type":"Point","coordinates":[-1.69914,49.6577]},"properties":{"nom":"LES FRENES","ag":["Réseau urbain Cap Cotentin","Agrégat des réseaux urbains et interurbains de Normandie"],"lt":0,"dept":"50"}},{"type":"Feature","geometry":{"type":"Point","coordinates":[-1.59956,49.61785]},"properties":{"nom":"GENDARMERIE","ag":["Réseau urbain Cap Cotentin","Agrégat des réseaux urbains et interurbains de Normandie"],"lt":0,"dept":"50"}},{"type":"Feature","geometry":{"type":"Point","coordinates":[-1.59963,49.61788]},"properties":{"nom":"GENDARMERIE","ag":["Réseau urbain Cap Cotentin","Agrégat des réseaux urbains et interurbains de Normandie"],"lt":0,"dept":"50"}},{"type":"Feature","geometry":{"type":"Point","coordinates":[-1.57553,49.64064]},"properties":{"nom":"GRANDE RUE","ag":["Réseau urbain Cap Cotentin","Agrégat des réseaux urbains et interurbains de Normandie"],"lt":0,"dept":"50"}},{"type":"Feature","geometry":{"type":"Point","coordinates":[-1.57471,49.64055]},"properties":{"nom":"GRANDE RUE","ag":["Réseau urbain Cap Cotentin","Agrégat des réseaux urbains et interurbains de Normandie"],"lt":0,"dept":"50"}},{"type":"Feature","geometry":{"type":"Point","coordinates":[-1.58706,49.6254]},"properties":{"nom":"HAMEAU QUEVILLON","ag":["Réseau urbain Cap Cotentin","Agrégat des réseaux urbains et interurbains de Normandie"],"lt":0,"dept":"50"}},{"type":"Feature","geometry":{"type":"Point","coordinates":[-1.58712,49.6252]},"properties":{"nom":"HAMEAU QUEVILLON","ag":["Réseau urbain Cap Cotentin","Agrégat des réseaux urbains et interurbains de Normandie"],"lt":0,"dept":"50"}},{"type":"Feature","geometry":{"type":"Point","coordinates":[-1.60396,49.6446]},"properties":{"nom":"TERMINAL FERRY","ag":["Réseau urbain Cap Cotentin","Agrégat des réseaux urbains et interurbains de Normandie"],"lt":0,"dept":"50"}},{"type":"Feature","geometry":{"type":"Point","coordinates":[-1.60856,49.60407]},"properties":{"nom":"GENETS","ag":["Réseau urbain Cap Cotentin","Agrégat des réseaux urbains et interurbains de Normandie"],"lt":0,"dept":"50"}},{"type":"Feature","geometry":{"type":"Point","coordinates":[-1.60761,49.60373]},"properties":{"nom":"GENETS","ag":["Réseau urbain Cap Cotentin","Agrégat des réseaux urbains et interurbains de Normandie"],"lt":0,"dept":"50"}},{"type":"Feature","geometry":{"type":"Point","coordinates":[-1.65617,49.62893]},"properties":{"nom":"GRIMESNIL","ag":["Réseau urbain Cap Cotentin","Agrégat des réseaux urbains et interurbains de Normandie"],"lt":0,"dept":"50"}},{"type":"Feature","geometry":{"type":"Point","coordinates":[-1.65598,49.62892]},"properties":{"nom":"GRIMESNIL","ag":["Réseau urbain Cap Cotentin","Agrégat des réseaux urbains et interurbains de Normandie"],"lt":0,"dept":"50"}},{"type":"Feature","geometry":{"type":"Point","coordinates":[-1.60218,49.63973]},"properties":{"nom":"GUERRANDERIE","ag":["Réseau urbain Cap Cotentin","Agrégat des réseaux urbains et interurbains de Normandie"],"lt":0,"dept":"50"}},{"type":"Feature","geometry":{"type":"Point","coordinates":[-1.60185,49.63987]},"properties":{"nom":"GUERRANDERIE","ag":["Réseau urbain Cap Cotentin","Agrégat des réseaux urbains et interurbains de Normandie"],"lt":0,"dept":"50"}},{"type":"Feature","geometry":{"type":"Point","coordinates":[-1.62169,49.63401]},"properties":{"nom":"CHERBOURG-GARE","ag":["Réseau urbain Cap Cotentin","Agrégat des réseaux urbains et interurbains de Normandie"],"lt":0,"dept":"50"}},{"type":"Feature","geometry":{"type":"Point","coordinates":[-1.62153,49.63371]},"properties":{"nom":"CHERBOURG-GARE","ag":["Réseau urbain Cap Cotentin","Agrégat des réseaux urbains et interurbains de Normandie"],"lt":0,"dept":"50"}},{"type":"Feature","geometry":{"type":"Point","coordinates":[-1.60258,49.61607]},"properties":{"nom":"COLLEGE ZOLA","ag":["Réseau urbain Cap Cotentin","Agrégat des réseaux urbains et interurbains de Normandie"],"lt":0,"dept":"50"}},{"type":"Feature","geometry":{"type":"Point","coordinates":[-1.60268,49.6161]},"properties":{"nom":"COLLEGE ZOLA","ag":["Réseau urbain Cap Cotentin","Agrégat des réseaux urbains et interurbains de Normandie"],"lt":0,"dept":"50"}},{"type":"Feature","geometry":{"type":"Point","coordinates":[-1.58446,49.62234]},"properties":{"nom":"HAMEAU VIGOT","ag":["Réseau urbain Cap Cotentin","Agrégat des réseaux urbains et interurbains de Normandie"],"lt":0,"dept":"50"}},{"type":"Feature","geometry":{"type":"Point","coordinates":[-1.5847,49.62234]},"properties":{"nom":"HAMEAU VIGOT","ag":["Réseau urbain Cap Cotentin","Agrégat des réseaux urbains et interurbains de Normandie"],"lt":0,"dept":"50"}},{"type":"Feature","geometry":{"type":"Point","coordinates":[-1.64265,49.64648]},"properties":{"nom":"HOTEL DES IMPOTS","ag":["Réseau urbain Cap Cotentin","Agrégat des réseaux urbains et interurbains de Normandie"],"lt":0,"dept":"50"}},{"type":"Feature","geometry":{"type":"Point","coordinates":[-1.64386,49.64678]},"properties":{"nom":"HOTEL DES IMPOTS","ag":["Réseau urbain Cap Cotentin","Agrégat des réseaux urbains et interurbains de Normandie"],"lt":0,"dept":"50"}},{"type":"Feature","geometry":{"type":"Point","coordinates":[-1.62507,49.64262]},"properties":{"nom":"HOTEL DE VILLE","ag":["Réseau urbain Cap Cotentin","Agrégat des réseaux urbains et interurbains de Normandie"],"lt":0,"dept":"50"}},{"type":"Feature","geometry":{"type":"Point","coordinates":[-1.70226,49.65863]},"properties":{"nom":"LES HETRES","ag":["Réseau urbain Cap Cotentin","Agrégat des réseaux urbains et interurbains de Normandie"],"lt":0,"dept":"50"}},{"type":"Feature","geometry":{"type":"Point","coordinates":[-1.56275,49.6126]},"properties":{"nom":"HAMEAU LUCE","ag":["Réseau urbain Cap Cotentin","Agrégat des réseaux urbains et interurbains de Normandie"],"lt":0,"dept":"50"}},{"type":"Feature","geometry":{"type":"Point","coordinates":[-1.56268,49.61212]},"properties":{"nom":"HAMEAU LUCE","ag":["Réseau urbain Cap Cotentin","Agrégat des réseaux urbains et interurbains de Normandie"],"lt":0,"dept":"50"}},{"type":"Feature","geometry":{"type":"Point","coordinates":[-1.67697,49.65821]},"properties":{"nom":"HAMEAU DE LA MER","ag":["Réseau urbain Cap Cotentin","Agrégat des réseaux urbains et interurbains de Normandie"],"lt":0,"dept":"50"}},{"type":"Feature","geometry":{"type":"Point","coordinates":[-1.67662,49.65799]},"properties":{"nom":"HAMEAU DE LA MER","ag":["Réseau urbain Cap Cotentin","Agrégat des réseaux urbains et interurbains de Normandie"],"lt":0,"dept":"50"}},{"type":"Feature","geometry":{"type":"Point","coordinates":[-1.65855,49.64454]},"properties":{"nom":"HOMET","ag":["Réseau urbain Cap Cotentin","Agrégat des réseaux urbains et interurbains de Normandie"],"lt":0,"dept":"50"}},{"type":"Feature","geometry":{"type":"Point","coordinates":[-1.65875,49.6446]},"properties":{"nom":"HOMET","ag":["Réseau urbain Cap Cotentin","Agrégat des réseaux urbains et interurbains de Normandie"],"lt":0,"dept":"50"}},{"type":"Feature","geometry":{"type":"Point","coordinates":[-1.67771,49.65416]},"properties":{"nom":"HOULGATTE","ag":["Réseau urbain Cap Cotentin","Agrégat des réseaux urbains et interurbains de Normandie"],"lt":0,"dept":"50"}},{"type":"Feature","geometry":{"type":"Point","coordinates":[-1.67777,49.65423]},"properties":{"nom":"HOULGATTE","ag":["Réseau urbain Cap Cotentin","Agrégat des réseaux urbains et interurbains de Normandie"],"lt":0,"dept":"50"}},{"type":"Feature","geometry":{"type":"Point","coordinates":[-1.61376,49.63858]},"properties":{"nom":"HOPITAL PASTEUR","ag":["Réseau urbain Cap Cotentin","Agrégat des réseaux urbains et interurbains de Normandie"],"lt":0,"dept":"50"}},{"type":"Feature","geometry":{"type":"Point","coordinates":[-1.61252,49.63856]},"properties":{"nom":"HOPITAL PASTEUR","ag":["Réseau urbain Cap Cotentin","Agrégat des réseaux urbains et interurbains de Normandie"],"lt":0,"dept":"50"}},{"type":"Feature","geometry":{"type":"Point","coordinates":[-1.54541,49.63712]},"properties":{"nom":"HAMEAU PHARES","ag":["Réseau urbain Cap Cotentin","Agrégat des réseaux urbains et interurbains de Normandie"],"lt":0,"dept":"50"}},{"type":"Feature","geometry":{"type":"Point","coordinates":[-1.54548,49.63731]},"properties":{"nom":"HAMEAU PHARES","ag":["Réseau urbain Cap Cotentin","Agrégat des réseaux urbains et interurbains de Normandie"],"lt":0,"dept":"50"}},{"type":"Feature","geometry":{"type":"Point","coordinates":[-1.57822,49.62126]},"properties":{"nom":"HAMEAU QUEVASTRE","ag":["Réseau urbain Cap Cotentin","Agrégat des réseaux urbains et interurbains de Normandie"],"lt":0,"dept":"50"}},{"type":"Feature","geometry":{"type":"Point","coordinates":[-1.57842,49.62121]},"properties":{"nom":"HAMEAU QUEVASTRE","ag":["Réseau urbain Cap Cotentin","Agrégat des réseaux urbains et interurbains de Normandie"],"lt":0,"dept":"50"}},{"type":"Feature","geometry":{"type":"Point","coordinates":[-1.56917,49.61696]},"properties":{"nom":"HAMEAU TRUFFERT","ag":["Réseau urbain Cap Cotentin","Agrégat des réseaux urbains et interurbains de Normandie"],"lt":0,"dept":"50"}},{"type":"Feature","geometry":{"type":"Point","coordinates":[-1.56932,49.61695]},"properties":{"nom":"HAMEAU TRUFFERT","ag":["Réseau urbain Cap Cotentin","Agrégat des réseaux urbains et interurbains de Normandie"],"lt":0,"dept":"50"}},{"type":"Feature","geometry":{"type":"Point","coordinates":[-1.65302,49.64907]},"properties":{"nom":"HUIT MAI","ag":["Réseau urbain Cap Cotentin","Agrégat des réseaux urbains et interurbains de Normandie"],"lt":0,"dept":"50"}},{"type":"Feature","geometry":{"type":"Point","coordinates":[-1.65358,49.64843]},"properties":{"nom":"HUIT MAI","ag":["Réseau urbain Cap Cotentin","Agrégat des réseaux urbains et interurbains de Normandie"],"lt":0,"dept":"50"}},{"type":"Feature","geometry":{"type":"Point","coordinates":[-1.6526,49.64861]},"properties":{"nom":"HUIT MAI","ag":["Réseau urbain Cap Cotentin","Agrégat des réseaux urbains et interurbains de Normandie"],"lt":0,"dept":"50"}},{"type":"Feature","geometry":{"type":"Point","coordinates":[-1.6543,49.64939]},"properties":{"nom":"HUIT MAI","ag":["Réseau urbain Cap Cotentin","Agrégat des réseaux urbains et interurbains de Normandie"],"lt":0,"dept":"50"}},{"type":"Feature","geometry":{"type":"Point","coordinates":[-1.58803,49.64447]},"properties":{"nom":"L'ILOT Z'ENFANTS","ag":["Réseau urbain Cap Cotentin","Agrégat des réseaux urbains et interurbains de Normandie"],"lt":0,"dept":"50"}},{"type":"Feature","geometry":{"type":"Point","coordinates":[-1.58777,49.64461]},"properties":{"nom":"L'ILOT Z'ENFANTS","ag":["Réseau urbain Cap Cotentin","Agrégat des réseaux urbains et interurbains de Normandie"],"lt":0,"dept":"50"}},{"type":"Feature","geometry":{"type":"Point","coordinates":[-1.58123,49.613]},"properties":{"nom":"INGENIEUR BERTIN","ag":["Réseau urbain Cap Cotentin","Agrégat des réseaux urbains et interurbains de Normandie"],"lt":0,"dept":"50"}},{"type":"Feature","geometry":{"type":"Point","coordinates":[-1.58117,49.61277]},"properties":{"nom":"INGENIEUR BERTIN","ag":["Réseau urbain Cap Cotentin","Agrégat des réseaux urbains et interurbains de Normandie"],"lt":0,"dept":"50"}},{"type":"Feature","geometry":{"type":"Point","coordinates":[-1.64607,49.63525]},"properties":{"nom":"CAMPUS-ARAGON","ag":["Réseau urbain Cap Cotentin","Agrégat des réseaux urbains et interurbains de Normandie"],"lt":0,"dept":"50"}},{"type":"Feature","geometry":{"type":"Point","coordinates":[-1.64592,49.63528]},"properties":{"nom":"CAMPUS-ARAGON","ag":["Réseau urbain Cap Cotentin","Agrégat des réseaux urbains et interurbains de Normandie"],"lt":0,"dept":"50"}},{"type":"Feature","geometry":{"type":"Point","coordinates":[-1.61767,49.63198]},"properties":{"nom":"JARDIN PUBLIC","ag":["Réseau urbain Cap Cotentin","Agrégat des réseaux urbains et interurbains de Normandie"],"lt":0,"dept":"50"}},{"type":"Feature","geometry":{"type":"Point","coordinates":[-1.61754,49.63195]},"properties":{"nom":"JARDIN PUBLIC","ag":["Réseau urbain Cap Cotentin","Agrégat des réseaux urbains et interurbains de Normandie"],"lt":0,"dept":"50"}},{"type":"Feature","geometry":{"type":"Point","coordinates":[-1.5862,49.63344]},"properties":{"nom":"JEAN BOUIN","ag":["Réseau urbain Cap Cotentin","Agrégat des réseaux urbains et interurbains de Normandie"],"lt":0,"dept":"50"}},{"type":"Feature","geometry":{"type":"Point","coordinates":[-1.58597,49.63329]},"properties":{"nom":"JEAN BOUIN","ag":["Réseau urbain Cap Cotentin","Agrégat des réseaux urbains et interurbains de Normandie"],"lt":0,"dept":"50"}},{"type":"Feature","geometry":{"type":"Point","coordinates":[-1.58303,49.63952]},"properties":{"nom":"JEAN ZAY","ag":["Réseau urbain Cap Cotentin","Agrégat des réseaux urbains et interurbains de Normandie"],"lt":0,"dept":"50"}},{"type":"Feature","geometry":{"type":"Point","coordinates":[-1.58384,49.63917]},"properties":{"nom":"JEAN ZAY","ag":["Réseau urbain Cap Cotentin","Agrégat des réseaux urbains et interurbains de Normandie"],"lt":0,"dept":"50"}},{"type":"Feature","geometry":{"type":"Point","coordinates":[-1.58506,49.64903]},"properties":{"nom":"JEAN GOUBERT","ag":["Réseau urbain Cap Cotentin","Agrégat des réseaux urbains et interurbains de Normandie"],"lt":0,"dept":"50"}},{"type":"Feature","geometry":{"type":"Point","coordinates":[-1.59693,49.6338]},"properties":{"nom":"JEAN MOULIN","ag":["Réseau urbain Cap Cotentin","Agrégat des réseaux urbains et interurbains de Normandie"],"lt":0,"dept":"50"}},{"type":"Feature","geometry":{"type":"Point","coordinates":[-1.59716,49.63377]},"properties":{"nom":"JEAN MOULIN","ag":["Réseau urbain Cap Cotentin","Agrégat des réseaux urbains et interurbains de Normandie"],"lt":0,"dept":"50"}},{"type":"Feature","geometry":{"type":"Point","coordinates":[-1.66489,49.64353]},"properties":{"nom":"LES LAVANDES","ag":["Réseau urbain Cap Cotentin","Agrégat des réseaux urbains et interurbains de Normandie"],"lt":0,"dept":"50"}},{"type":"Feature","geometry":{"type":"Point","coordinates":[-1.66473,49.64357]},"properties":{"nom":"LES LAVANDES","ag":["Réseau urbain Cap Cotentin","Agrégat des réseaux urbains et interurbains de Normandie"],"lt":0,"dept":"50"}},{"type":"Feature","geometry":{"type":"Point","coordinates":[-1.61023,49.63174]},"properties":{"nom":"LECARPENTIER","ag":["Réseau urbain Cap Cotentin","Agrégat des réseaux urbains et interurbains de Normandie"],"lt":0,"dept":"50"}},{"type":"Feature","geometry":{"type":"Point","coordinates":[-1.63973,49.63978]},"properties":{"nom":"LE CONQUERANT","ag":["Réseau urbain Cap Cotentin","Agrégat des réseaux urbains et interurbains de Normandie"],"lt":0,"dept":"50"}},{"type":"Feature","geometry":{"type":"Point","coordinates":[-1.63976,49.63993]},"properties":{"nom":"LE CONQUERANT","ag":["Réseau urbain Cap Cotentin","Agrégat des réseaux urbains et interurbains de Normandie"],"lt":0,"dept":"50"}},{"type":"Feature","geometry":{"type":"Point","coordinates":[-1.61045,49.63184]},"properties":{"nom":"LECARPENTIER","ag":["Réseau urbain Cap Cotentin","Agrégat des réseaux urbains et interurbains de Normandie"],"lt":0,"dept":"50"}},{"type":"Feature","geometry":{"type":"Point","coordinates":[-1.6471,49.6425]},"properties":{"nom":"LEBAS","ag":["Réseau urbain Cap Cotentin","Agrégat des réseaux urbains et interurbains de Normandie"],"lt":0,"dept":"50"}},{"type":"Feature","geometry":{"type":"Point","coordinates":[-1.64733,49.64236]},"properties":{"nom":"LEBAS","ag":["Réseau urbain Cap Cotentin","Agrégat des réseaux urbains et interurbains de Normandie"],"lt":0,"dept":"50"}},{"type":"Feature","geometry":{"type":"Point","coordinates":[-1.6513,49.63928]},"properties":{"nom":"LECRES","ag":["Réseau urbain Cap Cotentin","Agrégat des réseaux urbains et interurbains de Normandie"],"lt":0,"dept":"50"}},{"type":"Feature","geometry":{"type":"Point","coordinates":[-1.65215,49.63899]},"properties":{"nom":"LECRES","ag":["Réseau urbain Cap Cotentin","Agrégat des réseaux urbains et interurbains de Normandie"],"lt":0,"dept":"50"}},{"type":"Feature","geometry":{"type":"Point","coordinates":[-1.59351,49.63458]},"properties":{"nom":"LA LONGUE MARE","ag":["Réseau urbain Cap Cotentin","Agrégat des réseaux urbains et interurbains de Normandie"],"lt":0,"dept":"50"}},{"type":"Feature","geometry":{"type":"Point","coordinates":[-1.59373,49.63461]},"properties":{"nom":"LA LONGUE MARE","ag":["Réseau urbain Cap Cotentin","Agrégat des réseaux urbains et interurbains de Normandie"],"lt":0,"dept":"50"}},{"type":"Feature","geometry":{"type":"Point","coordinates":[-1.57507,49.64862]},"properties":{"nom":"LEMARESQUIER","ag":["Réseau urbain Cap Cotentin","Agrégat des réseaux urbains et interurbains de Normandie"],"lt":0,"dept":"50"}},{"type":"Feature","geometry":{"type":"Point","coordinates":[-1.57515,49.64871]},"properties":{"nom":"LEMARESQUIER","ag":["Réseau urbain Cap Cotentin","Agrégat des réseaux urbains et interurbains de Normandie"],"lt":0,"dept":"50"}},{"type":"Feature","geometry":{"type":"Point","coordinates":[-1.59354,49.64969]},"properties":{"nom":"ZONE EMR","ag":["Réseau urbain Cap Cotentin","Agrégat des réseaux urbains et interurbains de Normandie"],"lt":0,"dept":"50"}},{"type":"Feature","geometry":{"type":"Point","coordinates":[-1.61557,49.60846]},"properties":{"nom":"LA LOGE","ag":["Réseau urbain Cap Cotentin","Agrégat des réseaux urbains et interurbains de Normandie"],"lt":0,"dept":"50"}},{"type":"Feature","geometry":{"type":"Point","coordinates":[-1.6155,49.6085]},"properties":{"nom":"LA LOGE","ag":["Réseau urbain Cap Cotentin","Agrégat des réseaux urbains et interurbains de Normandie"],"lt":0,"dept":"50"}},{"type":"Feature","geometry":{"type":"Point","coordinates":[-1.66471,49.64902]},"properties":{"nom":"LONGUES PIERRES","ag":["Réseau urbain Cap Cotentin","Agrégat des réseaux urbains et interurbains de Normandie"],"lt":0,"dept":"50"}},{"type":"Feature","geometry":{"type":"Point","coordinates":[-1.66385,49.64912]},"properties":{"nom":"LONGUES PIERRES","ag":["Réseau urbain Cap Cotentin","Agrégat des réseaux urbains et interurbains de Normandie"],"lt":0,"dept":"50"}},{"type":"Feature","geometry":{"type":"Point","coordinates":[-1.57145,49.63987]},"properties":{"nom":"LA PLACE","ag":["Réseau urbain Cap Cotentin","Agrégat des réseaux urbains et interurbains de Normandie"],"lt":0,"dept":"50"}},{"type":"Feature","geometry":{"type":"Point","coordinates":[-1.5717,49.63998]},"properties":{"nom":"LA PLACE","ag":["Réseau urbain Cap Cotentin","Agrégat des réseaux urbains et interurbains de Normandie"],"lt":0,"dept":"50"}},{"type":"Feature","geometry":{"type":"Point","coordinates":[-1.64881,49.65336]},"properties":{"nom":"LA SALINE","ag":["Réseau urbain Cap Cotentin","Agrégat des réseaux urbains et interurbains de Normandie"],"lt":0,"dept":"50"}},{"type":"Feature","geometry":{"type":"Point","coordinates":[-1.64964,49.6545]},"properties":{"nom":"LA SALINE","ag":["Réseau urbain Cap Cotentin","Agrégat des réseaux urbains et interurbains de Normandie"],"lt":0,"dept":"50"}},{"type":"Feature","geometry":{"type":"Point","coordinates":[-1.59897,49.63254]},"properties":{"nom":"LUMIERE","ag":["Réseau urbain Cap Cotentin","Agrégat des réseaux urbains et interurbains de Normandie"],"lt":0,"dept":"50"}},{"type":"Feature","geometry":{"type":"Point","coordinates":[-1.59923,49.63247]},"properties":{"nom":"LUMIERE","ag":["Réseau urbain Cap Cotentin","Agrégat des réseaux urbains et interurbains de Normandie"],"lt":0,"dept":"50"}},{"type":"Feature","geometry":{"type":"Point","coordinates":[-1.60283,49.61401]},"properties":{"nom":"LA GLACERIE MAIRIE","ag":["Réseau urbain Cap Cotentin","Agrégat des réseaux urbains et interurbains de Normandie"],"lt":0,"dept":"50"}},{"type":"Feature","geometry":{"type":"Point","coordinates":[-1.60332,49.61414]},"properties":{"nom":"LA GLACERIE MAIRIE","ag":["Réseau urbain Cap Cotentin","Agrégat des réseaux urbains et interurbains de Normandie"],"lt":0,"dept":"50"}},{"type":"Feature","geometry":{"type":"Point","coordinates":[-1.69683,49.66181]},"properties":{"nom":"QUERQUEVILLE MAIRIE","ag":["Réseau urbain Cap Cotentin","Agrégat des réseaux urbains et interurbains de Normandie"],"lt":0,"dept":"50"}},{"type":"Feature","geometry":{"type":"Point","coordinates":[-1.69586,49.66202]},"properties":{"nom":"QUERQUEVILLE MAIRIE","ag":["Réseau urbain Cap Cotentin","Agrégat des réseaux urbains et interurbains de Normandie"],"lt":0,"dept":"50"}},{"type":"Feature","geometry":{"type":"Point","coordinates":[-1.58655,49.64242]},"properties":{"nom":"MEDERIC","ag":["Réseau urbain Cap Cotentin","Agrégat des réseaux urbains et interurbains de Normandie"],"lt":0,"dept":"50"}},{"type":"Feature","geometry":{"type":"Point","coordinates":[-1.58724,49.64236]},"properties":{"nom":"MEDERIC","ag":["Réseau urbain Cap Cotentin","Agrégat des réseaux urbains et interurbains de Normandie"],"lt":0,"dept":"50"}},{"type":"Feature","geometry":{"type":"Point","coordinates":[-1.62676,49.63459]},"properties":{"nom":"MENDES FRANCE","ag":["Réseau urbain Cap Cotentin","Agrégat des réseaux urbains et interurbains de Normandie"],"lt":0,"dept":"50"}},{"type":"Feature","geometry":{"type":"Point","coordinates":[-1.62658,49.63481]},"properties":{"nom":"MENDES FRANCE","ag":["Réseau urbain Cap Cotentin","Agrégat des réseaux urbains et interurbains de Normandie"],"lt":0,"dept":"50"}},{"type":"Feature","geometry":{"type":"Point","coordinates":[-1.70858,49.65729]},"properties":{"nom":"MESSENT","ag":["Réseau urbain Cap Cotentin","Agrégat des réseaux urbains et interurbains de Normandie"],"lt":0,"dept":"50"}},{"type":"Feature","geometry":{"type":"Point","coordinates":[-1.70941,49.65768]},"properties":{"nom":"MESSENT","ag":["Réseau urbain Cap Cotentin","Agrégat des réseaux urbains et interurbains de Normandie"],"lt":0,"dept":"50"}},{"type":"Feature","geometry":{"type":"Point","coordinates":[-1.57414,49.61758]},"properties":{"nom":"MEZINE","ag":["Réseau urbain Cap Cotentin","Agrégat des réseaux urbains et interurbains de Normandie"],"lt":0,"dept":"50"}},{"type":"Feature","geometry":{"type":"Point","coordinates":[-1.574,49.6173]},"properties":{"nom":"MEZINE","ag":["Réseau urbain Cap Cotentin","Agrégat des réseaux urbains et interurbains de Normandie"],"lt":0,"dept":"50"}},{"type":"Feature","geometry":{"type":"Point","coordinates":[-1.58006,49.64394]},"properties":{"nom":"LES MARGUERITES","ag":["Réseau urbain Cap Cotentin","Agrégat des réseaux urbains et interurbains de Normandie"],"lt":0,"dept":"50"}},{"type":"Feature","geometry":{"type":"Point","coordinates":[-1.5804,49.64403]},"properties":{"nom":"LES MARGUERITES","ag":["Réseau urbain Cap Cotentin","Agrégat des réseaux urbains et interurbains de Normandie"],"lt":0,"dept":"50"}},{"type":"Feature","geometry":{"type":"Point","coordinates":[-1.64232,49.63982]},"properties":{"nom":"LYCEE MILLET","ag":["Réseau urbain Cap Cotentin","Agrégat des réseaux urbains et interurbains de Normandie"],"lt":0,"dept":"50"}},{"type":"Feature","geometry":{"type":"Point","coordinates":[-1.59723,49.64539]},"properties":{"nom":"LES MIELLES","ag":["Réseau urbain Cap Cotentin","Agrégat des réseaux urbains et interurbains de Normandie"],"lt":0,"dept":"50"}},{"type":"Feature","geometry":{"type":"Point","coordinates":[-1.59724,49.64551]},"properties":{"nom":"LES MIELLES","ag":["Réseau urbain Cap Cotentin","Agrégat des réseaux urbains et interurbains de Normandie"],"lt":0,"dept":"50"}},{"type":"Feature","geometry":{"type":"Point","coordinates":[-1.70545,49.65735]},"properties":{"nom":"LES MOURETS","ag":["Réseau urbain Cap Cotentin","Agrégat des réseaux urbains et interurbains de Normandie"],"lt":0,"dept":"50"}},{"type":"Feature","geometry":{"type":"Point","coordinates":[-1.70558,49.65736]},"properties":{"nom":"LES MOURETS","ag":["Réseau urbain Cap Cotentin","Agrégat des réseaux urbains et interurbains de Normandie"],"lt":0,"dept":"50"}},{"type":"Feature","geometry":{"type":"Point","coordinates":[-1.64856,49.62867]},"properties":{"nom":"MAISON DE RETRAITE","ag":["Réseau urbain Cap Cotentin","Agrégat des réseaux urbains et interurbains de Normandie"],"lt":0,"dept":"50"}},{"type":"Feature","geometry":{"type":"Point","coordinates":[-1.64882,49.62866]},"properties":{"nom":"MAISON DE RETRAITE","ag":["Réseau urbain Cap Cotentin","Agrégat des réseaux urbains et interurbains de Normandie"],"lt":0,"dept":"50"}},{"type":"Feature","geometry":{"type":"Point","coordinates":[-1.60713,49.61779]},"properties":{"nom":"MONTMARTRE","ag":["Réseau urbain Cap Cotentin","Agrégat des réseaux urbains et interurbains de Normandie"],"lt":0,"dept":"50"}},{"type":"Feature","geometry":{"type":"Point","coordinates":[-1.60715,49.61788]},"properties":{"nom":"MONTMARTRE","ag":["Réseau urbain Cap Cotentin","Agrégat des réseaux urbains et interurbains de Normandie"],"lt":0,"dept":"50"}},{"type":"Feature","geometry":{"type":"Point","coordinates":[-1.59897,49.60587]},"properties":{"nom":"MARETTES","ag":["Réseau urbain Cap Cotentin","Agrégat des réseaux urbains et interurbains de Normandie"],"lt":0,"dept":"50"}},{"type":"Feature","geometry":{"type":"Point","coordinates":[-1.59925,49.60588]},"properties":{"nom":"MARETTES","ag":["Réseau urbain Cap Cotentin","Agrégat des réseaux urbains et interurbains de Normandie"],"lt":0,"dept":"50"}},{"type":"Feature","geometry":{"type":"Point","coordinates":[-1.58058,49.6431]},"properties":{"nom":"LES MYOSOTIS","ag":["Réseau urbain Cap Cotentin","Agrégat des réseaux urbains et interurbains de Normandie"],"lt":0,"dept":"50"}},{"type":"Feature","geometry":{"type":"Point","coordinates":[-1.58062,49.64284]},"properties":{"nom":"LES MYOSOTIS","ag":["Réseau urbain Cap Cotentin","Agrégat des réseaux urbains et interurbains de Normandie"],"lt":0,"dept":"50"}},{"type":"Feature","geometry":{"type":"Point","coordinates":[-1.62394,49.6427]},"properties":{"nom":"NAPOLEON","ag":["Réseau urbain Cap Cotentin","Agrégat des réseaux urbains et interurbains de Normandie"],"lt":0,"dept":"50"}},{"type":"Feature","geometry":{"type":"Point","coordinates":[-1.62477,49.64317]},"properties":{"nom":"NAPOLEON","ag":["Réseau urbain Cap Cotentin","Agrégat des réseaux urbains et interurbains de Normandie"],"lt":0,"dept":"50"}},{"type":"Feature","geometry":{"type":"Point","coordinates":[-1.59891,49.61598]},"properties":{"nom":"NORMANDIE","ag":["Réseau urbain Cap Cotentin","Agrégat des réseaux urbains et interurbains de Normandie"],"lt":0,"dept":"50"}},{"type":"Feature","geometry":{"type":"Point","coordinates":[-1.59876,49.61616]},"properties":{"nom":"NORMANDIE","ag":["Réseau urbain Cap Cotentin","Agrégat des réseaux urbains et interurbains de Normandie"],"lt":0,"dept":"50"}},{"type":"Feature","geometry":{"type":"Point","coordinates":[-1.58028,49.64105]},"properties":{"nom":"TOURLAVILLE MAIRIE","ag":["Réseau urbain Cap Cotentin","Agrégat des réseaux urbains et interurbains de Normandie"],"lt":0,"dept":"50"}},{"type":"Feature","geometry":{"type":"Point","coordinates":[-1.58039,49.64105]},"properties":{"nom":"TOURLAVILLE MAIRIE","ag":["Réseau urbain Cap Cotentin","Agrégat des réseaux urbains et interurbains de Normandie"],"lt":0,"dept":"50"}},{"type":"Feature","geometry":{"type":"Point","coordinates":[-1.57959,49.6414]},"properties":{"nom":"TOURLAVILLE MAIRIE","ag":["Réseau urbain Cap Cotentin","Agrégat des réseaux urbains et interurbains de Normandie"],"lt":0,"dept":"50"}},{"type":"Feature","geometry":{"type":"Point","coordinates":[-1.57963,49.64148]},"properties":{"nom":"TOURLAVILLE MAIRIE","ag":["Réseau urbain Cap Cotentin","Agrégat des réseaux urbains et interurbains de Normandie"],"lt":0,"dept":"50"}},{"type":"Feature","geometry":{"type":"Point","coordinates":[-1.55121,49.65303]},"properties":{"nom":"LE BECQUET","ag":["Réseau urbain Cap Cotentin","Agrégat des réseaux urbains et interurbains de Normandie"],"lt":0,"dept":"50"}},{"type":"Feature","geometry":{"type":"Point","coordinates":[-1.55131,49.65307]},"properties":{"nom":"LE BECQUET","ag":["Réseau urbain Cap Cotentin","Agrégat des réseaux urbains et interurbains de Normandie"],"lt":0,"dept":"50"}},{"type":"Feature","geometry":{"type":"Point","coordinates":[-1.61664,49.62497]},"properties":{"nom":"OCTROI DU ROULE","ag":["Réseau urbain Cap Cotentin","Agrégat des réseaux urbains et interurbains de Normandie"],"lt":0,"dept":"50"}},{"type":"Feature","geometry":{"type":"Point","coordinates":[-1.61723,49.62641]},"properties":{"nom":"OCTROI DU ROULE","ag":["Réseau urbain Cap Cotentin","Agrégat des réseaux urbains et interurbains de Normandie"],"lt":0,"dept":"50"}},{"type":"Feature","geometry":{"type":"Point","coordinates":[-1.62879,49.62616]},"properties":{"nom":"OLYMPE DE GOUGES","ag":["Réseau urbain Cap Cotentin","Agrégat des réseaux urbains et interurbains de Normandie"],"lt":0,"dept":"50"}},{"type":"Feature","geometry":{"type":"Point","coordinates":[-1.62897,49.62625]},"properties":{"nom":"OLYMPE DE GOUGES","ag":["Réseau urbain Cap Cotentin","Agrégat des réseaux urbains et interurbains de Normandie"],"lt":0,"dept":"50"}},{"type":"Feature","geometry":{"type":"Point","coordinates":[-1.69737,49.66076]},"properties":{"nom":"PAUL BERT","ag":["Réseau urbain Cap Cotentin","Agrégat des réseaux urbains et interurbains de Normandie"],"lt":0,"dept":"50"}},{"type":"Feature","geometry":{"type":"Point","coordinates":[-1.65371,49.65268]},"properties":{"nom":"LA PAIX","ag":["Réseau urbain Cap Cotentin","Agrégat des réseaux urbains et interurbains de Normandie"],"lt":0,"dept":"50"}},{"type":"Feature","geometry":{"type":"Point","coordinates":[-1.65415,49.65317]},"properties":{"nom":"LA PAIX","ag":["Réseau urbain Cap Cotentin","Agrégat des réseaux urbains et interurbains de Normandie"],"lt":0,"dept":"50"}},{"type":"Feature","geometry":{"type":"Point","coordinates":[-1.62238,49.63355]},"properties":{"nom":"CHERBOURG-GARE","ag":["Réseau urbain Cap Cotentin","Agrégat des réseaux urbains et interurbains de Normandie"],"lt":0,"dept":"50"}},{"type":"Feature","geometry":{"type":"Point","coordinates":[-1.62215,49.63358]},"properties":{"nom":"CHERBOURG-GARE","ag":["Réseau urbain Cap Cotentin","Agrégat des réseaux urbains et interurbains de Normandie"],"lt":0,"dept":"50"}},{"type":"Feature","geometry":{"type":"Point","coordinates":[-1.62052,49.63352]},"properties":{"nom":"CHERBOURG-GARE","ag":["Réseau urbain Cap Cotentin","Agrégat des réseaux urbains et interurbains de Normandie"],"lt":0,"dept":"50"}},{"type":"Feature","geometry":{"type":"Point","coordinates":[-1.62085,49.63402]},"properties":{"nom":"CHERBOURG-GARE","ag":["Réseau urbain Cap Cotentin","Agrégat des réseaux urbains et interurbains de Normandie"],"lt":0,"dept":"50"}},{"type":"Feature","geometry":{"type":"Point","coordinates":[-1.68055,49.66096]},"properties":{"nom":"PETITE AUBERGE","ag":["Réseau urbain Cap Cotentin","Agrégat des réseaux urbains et interurbains de Normandie"],"lt":0,"dept":"50"}},{"type":"Feature","geometry":{"type":"Point","coordinates":[-1.68026,49.66078]},"properties":{"nom":"PETITE AUBERGE","ag":["Réseau urbain Cap Cotentin","Agrégat des réseaux urbains et interurbains de Normandie"],"lt":0,"dept":"50"}},{"type":"Feature","geometry":{"type":"Point","coordinates":[-1.64521,49.62472]},"properties":{"nom":"PLACE DES JUSTES","ag":["Réseau urbain Cap Cotentin","Agrégat des réseaux urbains et interurbains de Normandie"],"lt":0,"dept":"50"}},{"type":"Feature","geometry":{"type":"Point","coordinates":[-1.64551,49.62453]},"properties":{"nom":"PLACE DES JUSTES","ag":["Réseau urbain Cap Cotentin","Agrégat des réseaux urbains et interurbains de Normandie"],"lt":0,"dept":"50"}},{"type":"Feature","geometry":{"type":"Point","coordinates":[-1.64916,49.63706]},"properties":{"nom":"THIVET","ag":["Réseau urbain Cap Cotentin","Agrégat des réseaux urbains et interurbains de Normandie"],"lt":0,"dept":"50"}},{"type":"Feature","geometry":{"type":"Point","coordinates":[-1.64912,49.63704]},"properties":{"nom":"THIVET","ag":["Réseau urbain Cap Cotentin","Agrégat des réseaux urbains et interurbains de Normandie"],"lt":0,"dept":"50"}},{"type":"Feature","geometry":{"type":"Point","coordinates":[-1.65064,49.63675]},"properties":{"nom":"THIVET","ag":["Réseau urbain Cap Cotentin","Agrégat des réseaux urbains et interurbains de Normandie"],"lt":0,"dept":"50"}},{"type":"Feature","geometry":{"type":"Point","coordinates":[-1.65052,49.63665]},"properties":{"nom":"THIVET","ag":["Réseau urbain Cap Cotentin","Agrégat des réseaux urbains et interurbains de Normandie"],"lt":0,"dept":"50"}},{"type":"Feature","geometry":{"type":"Point","coordinates":[-1.62788,49.63861]},"properties":{"nom":"PL. GREVILLE","ag":["Réseau urbain Cap Cotentin","Agrégat des réseaux urbains et interurbains de Normandie"],"lt":0,"dept":"50"}},{"type":"Feature","geometry":{"type":"Point","coordinates":[-1.62601,49.64027]},"properties":{"nom":"PL. DE LA FONTAINE","ag":["Réseau urbain Cap Cotentin","Agrégat des réseaux urbains et interurbains de Normandie"],"lt":0,"dept":"50"}},{"type":"Feature","geometry":{"type":"Point","coordinates":[-1.61717,49.63881]},"properties":{"nom":"COMMISSARIAT","ag":["Réseau urbain Cap Cotentin","Agrégat des réseaux urbains et interurbains de Normandie"],"lt":0,"dept":"50"}},{"type":"Feature","geometry":{"type":"Point","coordinates":[-1.61703,49.63892]},"properties":{"nom":"COMMISSARIAT","ag":["Réseau urbain Cap Cotentin","Agrégat des réseaux urbains et interurbains de Normandie"],"lt":0,"dept":"50"}},{"type":"Feature","geometry":{"type":"Point","coordinates":[-1.64292,49.64122]},"properties":{"nom":"LA POLLE","ag":["Réseau urbain Cap Cotentin","Agrégat des réseaux urbains et interurbains de Normandie"],"lt":0,"dept":"50"}},{"type":"Feature","geometry":{"type":"Point","coordinates":[-1.64237,49.64108]},"properties":{"nom":"LA POLLE","ag":["Réseau urbain Cap Cotentin","Agrégat des réseaux urbains et interurbains de Normandie"],"lt":0,"dept":"50"}},{"type":"Feature","geometry":{"type":"Point","coordinates":[-1.66234,49.65299]},"properties":{"nom":"PREVERT","ag":["Réseau urbain Cap Cotentin","Agrégat des réseaux urbains et interurbains de Normandie"],"lt":0,"dept":"50"}},{"type":"Feature","geometry":{"type":"Point","coordinates":[-1.66251,49.65312]},"properties":{"nom":"PREVERT","ag":["Réseau urbain Cap Cotentin","Agrégat des réseaux urbains et interurbains de Normandie"],"lt":0,"dept":"50"}},{"type":"Feature","geometry":{"type":"Point","coordinates":[-1.63233,49.62656]},"properties":{"nom":"PROVINCES","ag":["Réseau urbain Cap Cotentin","Agrégat des réseaux urbains et interurbains de Normandie"],"lt":0,"dept":"50"}},{"type":"Feature","geometry":{"type":"Point","coordinates":[-1.63232,49.62659]},"properties":{"nom":"PROVINCES","ag":["Réseau urbain Cap Cotentin","Agrégat des réseaux urbains et interurbains de Normandie"],"lt":0,"dept":"50"}},{"type":"Feature","geometry":{"type":"Point","coordinates":[-1.65647,49.63582]},"properties":{"nom":"POLYCLINIQUE","ag":["Réseau urbain Cap Cotentin","Agrégat des réseaux urbains et interurbains de Normandie"],"lt":0,"dept":"50"}},{"type":"Feature","geometry":{"type":"Point","coordinates":[-1.61836,49.63996]},"properties":{"nom":"QUAI COLLINS","ag":["Réseau urbain Cap Cotentin","Agrégat des réseaux urbains et interurbains de Normandie"],"lt":0,"dept":"50"}},{"type":"Feature","geometry":{"type":"Point","coordinates":[-1.63617,49.63394]},"properties":{"nom":"REDOUTE","ag":["Réseau urbain Cap Cotentin","Agrégat des réseaux urbains et interurbains de Normandie"],"lt":0,"dept":"50"}},{"type":"Feature","geometry":{"type":"Point","coordinates":[-1.63655,49.63368]},"properties":{"nom":"REDOUTE","ag":["Réseau urbain Cap Cotentin","Agrégat des réseaux urbains et interurbains de Normandie"],"lt":0,"dept":"50"}},{"type":"Feature","geometry":{"type":"Point","coordinates":[-1.61144,49.60814]},"properties":{"nom":"RENARDIERES","ag":["Réseau urbain Cap Cotentin","Agrégat des réseaux urbains et interurbains de Normandie"],"lt":0,"dept":"50"}},{"type":"Feature","geometry":{"type":"Point","coordinates":[-1.61101,49.60806]},"properties":{"nom":"RENARDIERES","ag":["Réseau urbain Cap Cotentin","Agrégat des réseaux urbains et interurbains de Normandie"],"lt":0,"dept":"50"}},{"type":"Feature","geometry":{"type":"Point","coordinates":[-1.64905,49.64827]},"properties":{"nom":"MANDELA","ag":["Réseau urbain Cap Cotentin","Agrégat des réseaux urbains et interurbains de Normandie"],"lt":0,"dept":"50"}},{"type":"Feature","geometry":{"type":"Point","coordinates":[-1.64878,49.64807]},"properties":{"nom":"MANDELA","ag":["Réseau urbain Cap Cotentin","Agrégat des réseaux urbains et interurbains de Normandie"],"lt":0,"dept":"50"}},{"type":"Feature","geometry":{"type":"Point","coordinates":[-1.64158,49.62841]},"properties":{"nom":"ROSSEL","ag":["Réseau urbain Cap Cotentin","Agrégat des réseaux urbains et interurbains de Normandie"],"lt":0,"dept":"50"}},{"type":"Feature","geometry":{"type":"Point","coordinates":[-1.64206,49.62806]},"properties":{"nom":"ROSSEL","ag":["Réseau urbain Cap Cotentin","Agrégat des réseaux urbains et interurbains de Normandie"],"lt":0,"dept":"50"}},{"type":"Feature","geometry":{"type":"Point","coordinates":[-1.57649,49.64362]},"properties":{"nom":"LES ROSEAUX","ag":["Réseau urbain Cap Cotentin","Agrégat des réseaux urbains et interurbains de Normandie"],"lt":0,"dept":"50"}},{"type":"Feature","geometry":{"type":"Point","coordinates":[-1.57696,49.64372]},"properties":{"nom":"LES ROSEAUX","ag":["Réseau urbain Cap Cotentin","Agrégat des réseaux urbains et interurbains de Normandie"],"lt":0,"dept":"50"}},{"type":"Feature","geometry":{"type":"Point","coordinates":[-1.64829,49.63287]},"properties":{"nom":"CAMPUS-SCHMITT","ag":["Réseau urbain Cap Cotentin","Agrégat des réseaux urbains et interurbains de Normandie"],"lt":0,"dept":"50"}},{"type":"Feature","geometry":{"type":"Point","coordinates":[-1.64822,49.63289]},"properties":{"nom":"CAMPUS-SCHMITT","ag":["Réseau urbain Cap Cotentin","Agrégat des réseaux urbains et interurbains de Normandie"],"lt":0,"dept":"50"}},{"type":"Feature","geometry":{"type":"Point","coordinates":[-1.61128,49.62001]},"properties":{"nom":"LA RUCHE","ag":["Réseau urbain Cap Cotentin","Agrégat des réseaux urbains et interurbains de Normandie"],"lt":0,"dept":"50"}},{"type":"Feature","geometry":{"type":"Point","coordinates":[-1.6114,49.62002]},"properties":{"nom":"LA RUCHE","ag":["Réseau urbain Cap Cotentin","Agrégat des réseaux urbains et interurbains de Normandie"],"lt":0,"dept":"50"}},{"type":"Feature","geometry":{"type":"Point","coordinates":[-1.64044,49.62959]},"properties":{"nom":"SADI CARNOT","ag":["Réseau urbain Cap Cotentin","Agrégat des réseaux urbains et interurbains de Normandie"],"lt":0,"dept":"50"}},{"type":"Feature","geometry":{"type":"Point","coordinates":[-1.64062,49.62952]},"properties":{"nom":"SADI CARNOT","ag":["Réseau urbain Cap Cotentin","Agrégat des réseaux urbains et interurbains de Normandie"],"lt":0,"dept":"50"}},{"type":"Feature","geometry":{"type":"Point","coordinates":[-1.64337,49.62657]},"properties":{"nom":"SALENGRO","ag":["Réseau urbain Cap Cotentin","Agrégat des réseaux urbains et interurbains de Normandie"],"lt":0,"dept":"50"}},{"type":"Feature","geometry":{"type":"Point","coordinates":[-1.64392,49.62617]},"properties":{"nom":"SALENGRO","ag":["Réseau urbain Cap Cotentin","Agrégat des réseaux urbains et interurbains de Normandie"],"lt":0,"dept":"50"}},{"type":"Feature","geometry":{"type":"Point","coordinates":[-1.60554,49.6162]},"properties":{"nom":"ST-EXUPERY","ag":["Réseau urbain Cap Cotentin","Agrégat des réseaux urbains et interurbains de Normandie"],"lt":0,"dept":"50"}},{"type":"Feature","geometry":{"type":"Point","coordinates":[-1.60519,49.61604]},"properties":{"nom":"ST-EXUPERY","ag":["Réseau urbain Cap Cotentin","Agrégat des réseaux urbains et interurbains de Normandie"],"lt":0,"dept":"50"}},{"type":"Feature","geometry":{"type":"Point","coordinates":[-1.69402,49.66142]},"properties":{"nom":"STADE FERNAGU","ag":["Réseau urbain Cap Cotentin","Agrégat des réseaux urbains et interurbains de Normandie"],"lt":0,"dept":"50"}},{"type":"Feature","geometry":{"type":"Point","coordinates":[-1.69397,49.66151]},"properties":{"nom":"STADE FERNAGU","ag":["Réseau urbain Cap Cotentin","Agrégat des réseaux urbains et interurbains de Normandie"],"lt":0,"dept":"50"}},{"type":"Feature","geometry":{"type":"Point","coordinates":[-1.6864,49.65505]},"properties":{"nom":"SCHAFFNER","ag":["Réseau urbain Cap Cotentin","Agrégat des réseaux urbains et interurbains de Normandie"],"lt":0,"dept":"50"}},{"type":"Feature","geometry":{"type":"Point","coordinates":[-1.68679,49.65547]},"properties":{"nom":"SCHAFFNER","ag":["Réseau urbain Cap Cotentin","Agrégat des réseaux urbains et interurbains de Normandie"],"lt":0,"dept":"50"}},{"type":"Feature","geometry":{"type":"Point","coordinates":[-1.62273,49.63566]},"properties":{"nom":"SCHUMAN-DELAVILLE","ag":["Réseau urbain Cap Cotentin","Agrégat des réseaux urbains et interurbains de Normandie"],"lt":0,"dept":"50"}},{"type":"Feature","geometry":{"type":"Point","coordinates":[-1.62575,49.63686]},"properties":{"nom":"SCHUMAN","ag":["Réseau urbain Cap Cotentin","Agrégat des réseaux urbains et interurbains de Normandie"],"lt":0,"dept":"50"}},{"type":"Feature","geometry":{"type":"Point","coordinates":[-1.62552,49.63709]},"properties":{"nom":"SCHUMAN","ag":["Réseau urbain Cap Cotentin","Agrégat des réseaux urbains et interurbains de Normandie"],"lt":0,"dept":"50"}},{"type":"Feature","geometry":{"type":"Point","coordinates":[-1.65289,49.64209]},"properties":{"nom":"SCHMITT","ag":["Réseau urbain Cap Cotentin","Agrégat des réseaux urbains et interurbains de Normandie"],"lt":0,"dept":"50"}},{"type":"Feature","geometry":{"type":"Point","coordinates":[-1.65284,49.64222]},"properties":{"nom":"SCHMITT","ag":["Réseau urbain Cap Cotentin","Agrégat des réseaux urbains et interurbains de Normandie"],"lt":0,"dept":"50"}},{"type":"Feature","geometry":{"type":"Point","coordinates":[-1.61358,49.62342]},"properties":{"nom":"LE STADE RN13","ag":["Réseau urbain Cap Cotentin","Agrégat des réseaux urbains et interurbains de Normandie"],"lt":0,"dept":"50"}},{"type":"Feature","geometry":{"type":"Point","coordinates":[-1.63687,49.64241]},"properties":{"nom":"LE STADE","ag":["Réseau urbain Cap Cotentin","Agrégat des réseaux urbains et interurbains de Normandie"],"lt":0,"dept":"50"}},{"type":"Feature","geometry":{"type":"Point","coordinates":[-1.63706,49.6416]},"properties":{"nom":"LE STADE","ag":["Réseau urbain Cap Cotentin","Agrégat des réseaux urbains et interurbains de Normandie"],"lt":0,"dept":"50"}},{"type":"Feature","geometry":{"type":"Point","coordinates":[-1.59662,49.61633]},"properties":{"nom":"SCHWEITZER","ag":["Réseau urbain Cap Cotentin","Agrégat des réseaux urbains et interurbains de Normandie"],"lt":0,"dept":"50"}},{"type":"Feature","geometry":{"type":"Point","coordinates":[-1.59639,49.61533]},"properties":{"nom":"SCHWEITZER","ag":["Réseau urbain Cap Cotentin","Agrégat des réseaux urbains et interurbains de Normandie"],"lt":0,"dept":"50"}},{"type":"Feature","geometry":{"type":"Point","coordinates":[-1.58332,49.65074]},"properties":{"nom":"FLAMANDS","ag":["Réseau urbain Cap Cotentin","Agrégat des réseaux urbains et interurbains de Normandie"],"lt":0,"dept":"50"}},{"type":"Feature","geometry":{"type":"Point","coordinates":[-1.61558,49.63456]},"properties":{"nom":"THEMIS HOPITAL","ag":["Réseau urbain Cap Cotentin","Agrégat des réseaux urbains et interurbains de Normandie"],"lt":0,"dept":"50"}},{"type":"Feature","geometry":{"type":"Point","coordinates":[-1.61537,49.63467]},"properties":{"nom":"THEMIS HOPITAL","ag":["Réseau urbain Cap Cotentin","Agrégat des réseaux urbains et interurbains de Normandie"],"lt":0,"dept":"50"}},{"type":"Feature","geometry":{"type":"Point","coordinates":[-1.61634,49.63338]},"properties":{"nom":"THEMIS HOPITAL","ag":["Réseau urbain Cap Cotentin","Agrégat des réseaux urbains et interurbains de Normandie"],"lt":0,"dept":"50"}},{"type":"Feature","geometry":{"type":"Point","coordinates":[-1.61576,49.63362]},"properties":{"nom":"THEMIS HOPITAL","ag":["Réseau urbain Cap Cotentin","Agrégat des réseaux urbains et interurbains de Normandie"],"lt":0,"dept":"50"}},{"type":"Feature","geometry":{"type":"Point","coordinates":[-1.69883,49.65875]},"properties":{"nom":"LES TILLEULS","ag":["Réseau urbain Cap Cotentin","Agrégat des réseaux urbains et interurbains de Normandie"],"lt":0,"dept":"50"}},{"type":"Feature","geometry":{"type":"Point","coordinates":[-1.65055,49.64967]},"properties":{"nom":"TERRASSES","ag":["Réseau urbain Cap Cotentin","Agrégat des réseaux urbains et interurbains de Normandie"],"lt":0,"dept":"50"}},{"type":"Feature","geometry":{"type":"Point","coordinates":[-1.6516,49.65082]},"properties":{"nom":"TERRASSES","ag":["Réseau urbain Cap Cotentin","Agrégat des réseaux urbains et interurbains de Normandie"],"lt":0,"dept":"50"}},{"type":"Feature","geometry":{"type":"Point","coordinates":[-1.65048,49.64977]},"properties":{"nom":"TERRASSES","ag":["Réseau urbain Cap Cotentin","Agrégat des réseaux urbains et interurbains de Normandie"],"lt":0,"dept":"50"}},{"type":"Feature","geometry":{"type":"Point","coordinates":[-1.64334,49.63599]},"properties":{"nom":"CAMPUS-MAX POL FOUCHET","ag":["Réseau urbain Cap Cotentin","Agrégat des réseaux urbains et interurbains de Normandie"],"lt":0,"dept":"50"}},{"type":"Feature","geometry":{"type":"Point","coordinates":[-1.64342,49.63576]},"properties":{"nom":"CAMPUS-MAX POL FOUCHET","ag":["Réseau urbain Cap Cotentin","Agrégat des réseaux urbains et interurbains de Normandie"],"lt":0,"dept":"50"}},{"type":"Feature","geometry":{"type":"Point","coordinates":[-1.65156,49.6431]},"properties":{"nom":"VAL L'ABBE","ag":["Réseau urbain Cap Cotentin","Agrégat des réseaux urbains et interurbains de Normandie"],"lt":0,"dept":"50"}},{"type":"Feature","geometry":{"type":"Point","coordinates":[-1.65142,49.64312]},"properties":{"nom":"VAL L'ABBE","ag":["Réseau urbain Cap Cotentin","Agrégat des réseaux urbains et interurbains de Normandie"],"lt":0,"dept":"50"}},{"type":"Feature","geometry":{"type":"Point","coordinates":[-1.54469,49.63835]},"properties":{"nom":"VAL CANU","ag":["Réseau urbain Cap Cotentin","Agrégat des réseaux urbains et interurbains de Normandie"],"lt":0,"dept":"50"}},{"type":"Feature","geometry":{"type":"Point","coordinates":[-1.54389,49.6386]},"properties":{"nom":"VAL CANU","ag":["Réseau urbain Cap Cotentin","Agrégat des réseaux urbains et interurbains de Normandie"],"lt":0,"dept":"50"}},{"type":"Feature","geometry":{"type":"Point","coordinates":[-1.6537,49.63449]},"properties":{"nom":"VINDITS","ag":["Réseau urbain Cap Cotentin","Agrégat des réseaux urbains et interurbains de Normandie"],"lt":0,"dept":"50"}},{"type":"Feature","geometry":{"type":"Point","coordinates":[-1.65252,49.63454]},"properties":{"nom":"VINDITS","ag":["Réseau urbain Cap Cotentin","Agrégat des réseaux urbains et interurbains de Normandie"],"lt":0,"dept":"50"}},{"type":"Feature","geometry":{"type":"Point","coordinates":[-1.5717,49.60737]},"properties":{"nom":"VERRERIE","ag":["Réseau urbain Cap Cotentin","Agrégat des réseaux urbains et interurbains de Normandie"],"lt":0,"dept":"50"}},{"type":"Feature","geometry":{"type":"Point","coordinates":[-1.57245,49.60737]},"properties":{"nom":"VERRERIE","ag":["Réseau urbain Cap Cotentin","Agrégat des réseaux urbains et interurbains de Normandie"],"lt":0,"dept":"50"}},{"type":"Feature","geometry":{"type":"Point","coordinates":[-1.66069,49.64787]},"properties":{"nom":"VIGNY","ag":["Réseau urbain Cap Cotentin","Agrégat des réseaux urbains et interurbains de Normandie"],"lt":0,"dept":"50"}},{"type":"Feature","geometry":{"type":"Point","coordinates":[-1.66099,49.64777]},"properties":{"nom":"VIGNY","ag":["Réseau urbain Cap Cotentin","Agrégat des réseaux urbains et interurbains de Normandie"],"lt":0,"dept":"50"}},{"type":"Feature","geometry":{"type":"Point","coordinates":[-1.63854,49.63154]},"properties":{"nom":"VOLTAIRE","ag":["Réseau urbain Cap Cotentin","Agrégat des réseaux urbains et interurbains de Normandie"],"lt":0,"dept":"50"}},{"type":"Feature","geometry":{"type":"Point","coordinates":[-1.63855,49.63163]},"properties":{"nom":"VOLTAIRE","ag":["Réseau urbain Cap Cotentin","Agrégat des réseaux urbains et interurbains de Normandie"],"lt":0,"dept":"50"}},{"type":"Feature","geometry":{"type":"Point","coordinates":[-1.65829,49.64361]},"properties":{"nom":"VIEUX TOT","ag":["Réseau urbain Cap Cotentin","Agrégat des réseaux urbains et interurbains de Normandie"],"lt":0,"dept":"50"}},{"type":"Feature","geometry":{"type":"Point","coordinates":[-1.65794,49.64375]},"properties":{"nom":"VIEUX TOT","ag":["Réseau urbain Cap Cotentin","Agrégat des réseaux urbains et interurbains de Normandie"],"lt":0,"dept":"50"}},{"type":"Feature","geometry":{"type":"Point","coordinates":[-1.60666,49.63894]},"properties":{"nom":"OCTROI","ag":["Réseau urbain Cap Cotentin","Agrégat des réseaux urbains et interurbains de Normandie"],"lt":0,"dept":"50"}},{"type":"Feature","geometry":{"type":"Point","coordinates":[-1.606,49.63912]},"properties":{"nom":"OCTROI","ag":["Réseau urbain Cap Cotentin","Agrégat des réseaux urbains et interurbains de Normandie"],"lt":0,"dept":"50"}},{"type":"Feature","geometry":{"type":"Point","coordinates":[-1.66528,49.64141]},"properties":{"nom":"PARKING DE L'AGORA","ag":["Réseau urbain Cap Cotentin","Agrégat des réseaux urbains et interurbains de Normandie"],"lt":0,"dept":"50"}},{"type":"Feature","geometry":{"type":"Point","coordinates":[-1.60162,49.5974]},"properties":{"nom":"TOLLEVAST ZA","ag":["Réseau urbain Cap Cotentin","Agrégat des réseaux urbains et interurbains de Normandie"],"lt":0,"dept":"50"}},{"type":"Feature","geometry":{"type":"Point","coordinates":[-1.60183,49.59753]},"properties":{"nom":"TOLLEVAST ZA","ag":["Réseau urbain Cap Cotentin","Agrégat des réseaux urbains et interurbains de Normandie"],"lt":0,"dept":"50"}},{"type":"Feature","geometry":{"type":"Point","coordinates":[-1.65577,49.63165]},"properties":{"nom":"Z.A. LES FOURCHES","ag":["Réseau urbain Cap Cotentin","Agrégat des réseaux urbains et interurbains de Normandie"],"lt":0,"dept":"50"}},{"type":"Feature","geometry":{"type":"Point","coordinates":[-1.65582,49.63173]},"properties":{"nom":"Z.A. LES FOURCHES","ag":["Réseau urbain Cap Cotentin","Agrégat des réseaux urbains et interurbains de Normandie"],"lt":0,"dept":"50"}},{"type":"Feature","geometry":{"type":"Point","coordinates":[-1.66895,49.64734]},"properties":{"nom":"ZOLA","ag":["Réseau urbain Cap Cotentin","Agrégat des réseaux urbains et interurbains de Normandie"],"lt":0,"dept":"50"}},{"type":"Feature","geometry":{"type":"Point","coordinates":[-1.66853,49.64761]},"properties":{"nom":"ZOLA","ag":["Réseau urbain Cap Cotentin","Agrégat des réseaux urbains et interurbains de Normandie"],"lt":0,"dept":"50"}},{"type":"Feature","geometry":{"type":"Point","coordinates":[-1.58636,49.63788]},"properties":{"nom":"DEPOT CAP COTENTIN","ag":["Réseau urbain Cap Cotentin","Agrégat des réseaux urbains et interurbains de Normandie"],"lt":0,"dept":"50"}},{"type":"Feature","geometry":{"type":"Point","coordinates":[-1.58644,49.63791]},"properties":{"nom":"DEPOT CAP COTENTIN","ag":["Réseau urbain Cap Cotentin","Agrégat des réseaux urbains et interurbains de Normandie"],"lt":0,"dept":"50"}},{"type":"Feature","geometry":{"type":"Point","coordinates":[-1.58338,49.63495]},"properties":{"nom":"SAUXMARAIS","ag":["Réseau urbain Cap Cotentin","Agrégat des réseaux urbains et interurbains de Normandie"],"lt":0,"dept":"50"}},{"type":"Feature","geometry":{"type":"Point","coordinates":[-1.58352,49.63491]},"properties":{"nom":"SAUXMARAIS","ag":["Réseau urbain Cap Cotentin","Agrégat des réseaux urbains et interurbains de Normandie"],"lt":0,"dept":"50"}},{"type":"Feature","geometry":{"type":"Point","coordinates":[-1.74636,49.6005]},"properties":{"nom":"ACQUEVILLE La Croix Moulin","ag":["Réseau urbain Cap Cotentin","Agrégat des réseaux urbains et interurbains de Normandie"],"lt":0,"dept":"50"}},{"type":"Feature","geometry":{"type":"Point","coordinates":[-1.28606,49.63531]},"properties":{"nom":"ANNEVILLE-EN-SAIRE Place centrale","ag":["Réseau urbain Cap Cotentin","Agrégat des réseaux urbains et interurbains de Normandie"],"lt":0,"dept":"50"}},{"type":"Feature","geometry":{"type":"Point","coordinates":[-1.2862,49.63522]},"properties":{"nom":"ANNEVILLE-EN-SAIRE Place centrale","ag":["Réseau urbain Cap Cotentin","Agrégat des réseaux urbains et interurbains de Normandie"],"lt":0,"dept":"50"}},{"type":"Feature","geometry":{"type":"Point","coordinates":[-1.26639,49.66925]},"properties":{"nom":"BARFLEUR Mairie","ag":["Réseau urbain Cap Cotentin","Agrégat des réseaux urbains et interurbains de Normandie"],"lt":0,"dept":"50"}},{"type":"Feature","geometry":{"type":"Point","coordinates":[-1.26768,49.66872]},"properties":{"nom":"BARFLEUR Mairie","ag":["Réseau urbain Cap Cotentin","Agrégat des réseaux urbains et interurbains de Normandie"],"lt":0,"dept":"50"}},{"type":"Feature","geometry":{"type":"Point","coordinates":[-1.76711,49.36955]},"properties":{"nom":"BARNEVILLE-CARTERET Plage-Pôle Jeunesse","ag":["Réseau urbain Cap Cotentin","Agrégat des réseaux urbains et interurbains de Normandie"],"lt":0,"dept":"50"}},{"type":"Feature","geometry":{"type":"Point","coordinates":[-1.76405,49.37079]},"properties":{"nom":"BARNEVILLE-CARTERET Plage-Pôle Jeunesse","ag":["Réseau urbain Cap Cotentin"],"lt":0,"dept":"50"}},{"type":"Feature","geometry":{"type":"Point","coordinates":[-1.76406,49.37071]},"properties":{"nom":"BARNEVILLE-CARTERET Plage-Pôle Jeunesse","ag":["Réseau urbain Cap Cotentin"],"lt":0,"dept":"50"}},{"type":"Feature","geometry":{"type":"Point","coordinates":[-1.7821,49.38029]},"properties":{"nom":"BARNEVILLE-CARTERET Le Valnotte","ag":["Réseau urbain Cap Cotentin","Agrégat des réseaux urbains et interurbains de Normandie"],"lt":0,"dept":"50"}},{"type":"Feature","geometry":{"type":"Point","coordinates":[-1.667,49.48758]},"properties":{"nom":"QUETTETOT Le Bourg","ag":["Réseau urbain Cap Cotentin","Agrégat des réseaux urbains et interurbains de Normandie"],"lt":0,"dept":"50"}},{"type":"Feature","geometry":{"type":"Point","coordinates":[-1.66706,49.48767]},"properties":{"nom":"QUETTETOT Le Bourg","ag":["Réseau urbain Cap Cotentin","Agrégat des réseaux urbains et interurbains de Normandie"],"lt":0,"dept":"50"}},{"type":"Feature","geometry":{"type":"Point","coordinates":[-1.63119,49.46873]},"properties":{"nom":"BRICQUEBEC Collège Marcel Grillard","ag":["Réseau urbain Cap Cotentin","Agrégat des réseaux urbains et interurbains de Normandie"],"lt":0,"dept":"50"}},{"type":"Feature","geometry":{"type":"Point","coordinates":[-1.63997,49.46816]},"properties":{"nom":"BRICQUEBEC Rue B. d'Auxmesnil","ag":["Réseau urbain Cap Cotentin","Agrégat des réseaux urbains et interurbains de Normandie"],"lt":0,"dept":"50"}},{"type":"Feature","geometry":{"type":"Point","coordinates":[-1.63979,49.46749]},"properties":{"nom":"BRICQUEBEC Rue B. d'Auxmesnil","ag":["Réseau urbain Cap Cotentin","Agrégat des réseaux urbains et interurbains de Normandie"],"lt":0,"dept":"50"}},{"type":"Feature","geometry":{"type":"Point","coordinates":[-1.63201,49.46963]},"properties":{"nom":"BRICQUEBEC Square Frémine","ag":["Réseau urbain Cap Cotentin","Agrégat des réseaux urbains et interurbains de Normandie"],"lt":0,"dept":"50"}},{"type":"Feature","geometry":{"type":"Point","coordinates":[-1.63199,49.46971]},"properties":{"nom":"BRICQUEBEC Square Frémine","ag":["Réseau urbain Cap Cotentin","Agrégat des réseaux urbains et interurbains de Normandie"],"lt":0,"dept":"50"}},{"type":"Feature","geometry":{"type":"Point","coordinates":[-1.62096,49.47581]},"properties":{"nom":"BRICQUEBEC Route de Valognes","ag":["Réseau urbain Cap Cotentin","Agrégat des réseaux urbains et interurbains de Normandie"],"lt":0,"dept":"50"}},{"type":"Feature","geometry":{"type":"Point","coordinates":[-1.62098,49.47592]},"properties":{"nom":"BRICQUEBEC Route de Valognes","ag":["Réseau urbain Cap Cotentin","Agrégat des réseaux urbains et interurbains de Normandie"],"lt":0,"dept":"50"}},{"type":"Feature","geometry":{"type":"Point","coordinates":[-1.78187,49.5264]},"properties":{"nom":"BENOISTVILLE Le Bourg","ag":["Réseau urbain Cap Cotentin","Agrégat des réseaux urbains et interurbains de Normandie"],"lt":0,"dept":"50"}},{"type":"Feature","geometry":{"type":"Point","coordinates":[-1.78213,49.5263]},"properties":{"nom":"BENOISTVILLE Le Bourg","ag":["Réseau urbain Cap Cotentin","Agrégat des réseaux urbains et interurbains de Normandie"],"lt":0,"dept":"50"}},{"type":"Feature","geometry":{"type":"Point","coordinates":[-1.77491,49.53486]},"properties":{"nom":"BENOISTVILLE La Croix Georges","ag":["Réseau urbain Cap Cotentin","Agrégat des réseaux urbains et interurbains de Normandie"],"lt":0,"dept":"50"}},{"type":"Feature","geometry":{"type":"Point","coordinates":[-1.77523,49.53511]},"properties":{"nom":"BENOISTVILLE La Croix Georges","ag":["Réseau urbain Cap Cotentin","Agrégat des réseaux urbains et interurbains de Normandie"],"lt":0,"dept":"50"}},{"type":"Feature","geometry":{"type":"Point","coordinates":[-1.39843,49.60036]},"properties":{"nom":"TEURTHEVILLE-BOCAGE La Croix de Berteauville","ag":["Réseau urbain Cap Cotentin","Agrégat des réseaux urbains et interurbains de Normandie"],"lt":0,"dept":"50"}},{"type":"Feature","geometry":{"type":"Point","coordinates":[-1.79551,49.61532]},"properties":{"nom":"BIVILLE La Croix Frimot","ag":["Réseau urbain Cap Cotentin","Agrégat des réseaux urbains et interurbains de Normandie"],"lt":0,"dept":"50"}},{"type":"Feature","geometry":{"type":"Point","coordinates":[-1.79424,49.61526]},"properties":{"nom":"BIVILLE La Croix Frimot","ag":["Réseau urbain Cap Cotentin","Agrégat des réseaux urbains et interurbains de Normandie"],"lt":0,"dept":"50"}},{"type":"Feature","geometry":{"type":"Point","coordinates":[-1.81999,49.61339]},"properties":{"nom":"BIVILLE Ecole-Mairie","ag":["Réseau urbain Cap Cotentin","Agrégat des réseaux urbains et interurbains de Normandie"],"lt":0,"dept":"50"}},{"type":"Feature","geometry":{"type":"Point","coordinates":[-1.81994,49.61335]},"properties":{"nom":"BIVILLE Ecole-Mairie","ag":["Réseau urbain Cap Cotentin","Agrégat des réseaux urbains et interurbains de Normandie"],"lt":0,"dept":"50"}},{"type":"Feature","geometry":{"type":"Point","coordinates":[-1.80365,49.62181]},"properties":{"nom":"BIVILLE Haut de Biville","ag":["Réseau urbain Cap Cotentin","Agrégat des réseaux urbains et interurbains de Normandie"],"lt":0,"dept":"50"}},{"type":"Feature","geometry":{"type":"Point","coordinates":[-1.80358,49.62171]},"properties":{"nom":"BIVILLE Haut de Biville","ag":["Réseau urbain Cap Cotentin","Agrégat des réseaux urbains et interurbains de Normandie"],"lt":0,"dept":"50"}},{"type":"Feature","geometry":{"type":"Point","coordinates":[-1.81126,49.61756]},"properties":{"nom":"BIVILLE Hameau David","ag":["Réseau urbain Cap Cotentin","Agrégat des réseaux urbains et interurbains de Normandie"],"lt":0,"dept":"50"}},{"type":"Feature","geometry":{"type":"Point","coordinates":[-1.81138,49.61754]},"properties":{"nom":"BIVILLE Hameau David","ag":["Réseau urbain Cap Cotentin","Agrégat des réseaux urbains et interurbains de Normandie"],"lt":0,"dept":"50"}},{"type":"Feature","geometry":{"type":"Point","coordinates":[-1.81174,49.61327]},"properties":{"nom":"BIVILLE Hameau Moulin","ag":["Réseau urbain Cap Cotentin","Agrégat des réseaux urbains et interurbains de Normandie"],"lt":0,"dept":"50"}},{"type":"Feature","geometry":{"type":"Point","coordinates":[-1.81181,49.61325]},"properties":{"nom":"BIVILLE Hameau Moulin","ag":["Réseau urbain Cap Cotentin","Agrégat des réseaux urbains et interurbains de Normandie"],"lt":0,"dept":"50"}},{"type":"Feature","geometry":{"type":"Point","coordinates":[-1.77936,49.37892]},"properties":{"nom":"BARNEVILLE-CARTERET Capitainerie","ag":["Réseau urbain Cap Cotentin","Agrégat des réseaux urbains et interurbains de Normandie"],"lt":0,"dept":"50"}},{"type":"Feature","geometry":{"type":"Point","coordinates":[-1.75224,49.38172]},"properties":{"nom":"BARNEVILLE-CARTERET Place Dr Auvret","ag":["Réseau urbain Cap Cotentin","Agrégat des réseaux urbains et interurbains de Normandie"],"lt":0,"dept":"50"}},{"type":"Feature","geometry":{"type":"Point","coordinates":[-1.75228,49.38173]},"properties":{"nom":"BARNEVILLE-CARTERET Place Dr Auvret","ag":["Réseau urbain Cap Cotentin","Agrégat des réseaux urbains et interurbains de Normandie"],"lt":0,"dept":"50"}},{"type":"Feature","geometry":{"type":"Point","coordinates":[-1.75563,49.38252]},"properties":{"nom":"BARNEVILLE-CARTERET Mairie","ag":["Réseau urbain Cap Cotentin","Agrégat des réseaux urbains et interurbains de Normandie"],"lt":0,"dept":"50"}},{"type":"Feature","geometry":{"type":"Point","coordinates":[-1.75566,49.38244]},"properties":{"nom":"BARNEVILLE-CARTERET Mairie","ag":["Réseau urbain Cap Cotentin","Agrégat des réseaux urbains et interurbains de Normandie"],"lt":0,"dept":"50"}},{"type":"Feature","geometry":{"type":"Point","coordinates":[-1.51955,49.65723]},"properties":{"nom":"BRETTEVILLE-EN-SAIRE La Plage","ag":["Réseau urbain Cap Cotentin","Agrégat des réseaux urbains et interurbains de Normandie"],"lt":0,"dept":"50"}},{"type":"Feature","geometry":{"type":"Point","coordinates":[-1.5195,49.65716]},"properties":{"nom":"BRETTEVILLE-EN-SAIRE La Plage","ag":["Réseau urbain Cap Cotentin","Agrégat des réseaux urbains et interurbains de Normandie"],"lt":0,"dept":"50"}},{"type":"Feature","geometry":{"type":"Point","coordinates":[-1.53002,49.65459]},"properties":{"nom":"BRETTEVILLE-EN-SAIRE Saint Germain","ag":["Réseau urbain Cap Cotentin","Agrégat des réseaux urbains et interurbains de Normandie"],"lt":0,"dept":"50"}},{"type":"Feature","geometry":{"type":"Point","coordinates":[-1.5297,49.6546]},"properties":{"nom":"BRETTEVILLE-EN-SAIRE Saint Germain","ag":["Réseau urbain Cap Cotentin","Agrégat des réseaux urbains et interurbains de Normandie"],"lt":0,"dept":"50"}},{"type":"Feature","geometry":{"type":"Point","coordinates":[-1.71737,49.53703]},"properties":{"nom":"BRICQUEBOSQ Pont de Neuville","ag":["Réseau urbain Cap Cotentin","Agrégat des réseaux urbains et interurbains de Normandie"],"lt":0,"dept":"50"}},{"type":"Feature","geometry":{"type":"Point","coordinates":[-1.71784,49.53702]},"properties":{"nom":"BRICQUEBOSQ Pont de Neuville","ag":["Réseau urbain Cap Cotentin","Agrégat des réseaux urbains et interurbains de Normandie"],"lt":0,"dept":"50"}},{"type":"Feature","geometry":{"type":"Point","coordinates":[-1.58974,49.56338]},"properties":{"nom":"BRIX Beau Parlé","ag":["Réseau urbain Cap Cotentin","Agrégat des réseaux urbains et interurbains de Normandie"],"lt":0,"dept":"50"}},{"type":"Feature","geometry":{"type":"Point","coordinates":[-1.58986,49.56366]},"properties":{"nom":"BRIX Beau Parlé","ag":["Réseau urbain Cap Cotentin","Agrégat des réseaux urbains et interurbains de Normandie"],"lt":0,"dept":"50"}},{"type":"Feature","geometry":{"type":"Point","coordinates":[-1.56813,49.56405]},"properties":{"nom":"BRIX Delasse","ag":["Réseau urbain Cap Cotentin","Agrégat des réseaux urbains et interurbains de Normandie"],"lt":0,"dept":"50"}},{"type":"Feature","geometry":{"type":"Point","coordinates":[-1.57047,49.56427]},"properties":{"nom":"BRIX Delasse","ag":["Réseau urbain Cap Cotentin","Agrégat des réseaux urbains et interurbains de Normandie"],"lt":0,"dept":"50"}},{"type":"Feature","geometry":{"type":"Point","coordinates":[-1.58165,49.54825]},"properties":{"nom":"BRIX Le Stade","ag":["Réseau urbain Cap Cotentin","Agrégat des réseaux urbains et interurbains de Normandie"],"lt":0,"dept":"50"}},{"type":"Feature","geometry":{"type":"Point","coordinates":[-1.35022,49.64503]},"properties":{"nom":"CANTELOUP Le Bourg","ag":["Réseau urbain Cap Cotentin","Agrégat des réseaux urbains et interurbains de Normandie"],"lt":0,"dept":"50"}},{"type":"Feature","geometry":{"type":"Point","coordinates":[-1.37387,49.65684]},"properties":{"nom":"CLITOURPS Eglise","ag":["Réseau urbain Cap Cotentin","Agrégat des réseaux urbains et interurbains de Normandie"],"lt":0,"dept":"50"}},{"type":"Feature","geometry":{"type":"Point","coordinates":[-1.49273,49.45582]},"properties":{"nom":"COLOMBY Foyer Rural","ag":["Réseau urbain Cap Cotentin","Agrégat des réseaux urbains et interurbains de Normandie"],"lt":0,"dept":"50"}},{"type":"Feature","geometry":{"type":"Point","coordinates":[-1.49281,49.45583]},"properties":{"nom":"COLOMBY Foyer Rural","ag":["Réseau urbain Cap Cotentin","Agrégat des réseaux urbains et interurbains de Normandie"],"lt":0,"dept":"50"}},{"type":"Feature","geometry":{"type":"Point","coordinates":[-1.49462,49.44451]},"properties":{"nom":"COLOMBY Ravan","ag":["Réseau urbain Cap Cotentin","Agrégat des réseaux urbains et interurbains de Normandie"],"lt":0,"dept":"50"}},{"type":"Feature","geometry":{"type":"Point","coordinates":[-1.41184,49.69369]},"properties":{"nom":"COSQUEVILLE Le Bourg","ag":["Réseau urbain Cap Cotentin","Agrégat des réseaux urbains et interurbains de Normandie"],"lt":0,"dept":"50"}},{"type":"Feature","geometry":{"type":"Point","coordinates":[-1.41066,49.69324]},"properties":{"nom":"COSQUEVILLE Le Bourg","ag":["Réseau urbain Cap Cotentin","Agrégat des réseaux urbains et interurbains de Normandie"],"lt":0,"dept":"50"}},{"type":"Feature","geometry":{"type":"Point","coordinates":[-1.37209,49.69363]},"properties":{"nom":"COSQUEVILLE Vrasville","ag":["Réseau urbain Cap Cotentin","Agrégat des réseaux urbains et interurbains de Normandie"],"lt":0,"dept":"50"}},{"type":"Feature","geometry":{"type":"Point","coordinates":[-1.37254,49.69358]},"properties":{"nom":"COSQUEVILLE Vrasville","ag":["Réseau urbain Cap Cotentin","Agrégat des réseaux urbains et interurbains de Normandie"],"lt":0,"dept":"50"}},{"type":"Feature","geometry":{"type":"Point","coordinates":[-1.66743,49.55814]},"properties":{"nom":"COUVILLE Le Bourg Neuf","ag":["Réseau urbain Cap Cotentin","Agrégat des réseaux urbains et interurbains de Normandie"],"lt":0,"dept":"50"}},{"type":"Feature","geometry":{"type":"Point","coordinates":[-1.66816,49.55812]},"properties":{"nom":"COUVILLE Le Bourg Neuf","ag":["Réseau urbain Cap Cotentin","Agrégat des réseaux urbains et interurbains de Normandie"],"lt":0,"dept":"50"}},{"type":"Feature","geometry":{"type":"Point","coordinates":[-1.68522,49.5537]},"properties":{"nom":"COUVILLE Le Bourg/Mairie","ag":["Réseau urbain Cap Cotentin","Agrégat des réseaux urbains et interurbains de Normandie"],"lt":0,"dept":"50"}},{"type":"Feature","geometry":{"type":"Point","coordinates":[-1.6866,49.55333]},"properties":{"nom":"COUVILLE Le Bourg/Mairie","ag":["Réseau urbain Cap Cotentin","Agrégat des réseaux urbains et interurbains de Normandie"],"lt":0,"dept":"50"}},{"type":"Feature","geometry":{"type":"Point","coordinates":[-1.31915,49.54961]},"properties":{"nom":"CRASVILLE Le Bas","ag":["Réseau urbain Cap Cotentin","Agrégat des réseaux urbains et interurbains de Normandie"],"lt":0,"dept":"50"}},