{"type":"FeatureCollection","features":[{"type":"Feature","geometry":{"type":"Point","coordinates":[3.07097,50.63753]},"properties":{"nom":"Lille Centre (Flandre station)","ag":["Navettes Aéroport de Lille"],"lt":0,"dept":"59"}},{"type":"Feature","geometry":{"type":"Point","coordinates":[3.10594,50.57204]},"properties":{"nom":"Lille Airport (LIL)","ag":["Navettes Aéroport de Lille"],"lt":0,"dept":"59"}},{"type":"Feature","geometry":{"type":"Point","coordinates":[3.439,50.44452]},"properties":{"nom":"ST AMAND PISCINE","ag":["Réseau urbain Transvilles"],"lt":0,"dept":"59"}},{"type":"Feature","geometry":{"type":"Point","coordinates":[3.52108,50.36234]},"properties":{"nom":"REMPART","ag":["Réseau urbain Transvilles"],"lt":0,"dept":"59"}},{"type":"Feature","geometry":{"type":"Point","coordinates":[3.51806,50.36363]},"properties":{"nom":"VALENCIENNES GARE - QUAI C","ag":["Réseau urbain Transvilles"],"lt":0,"dept":"59"}},{"type":"Feature","geometry":{"type":"Point","coordinates":[3.5168,50.36002]},"properties":{"nom":"CARPEAUX","ag":["Réseau urbain Transvilles"],"lt":0,"dept":"59"}},{"type":"Feature","geometry":{"type":"Point","coordinates":[3.50364,50.35736]},"properties":{"nom":"DAMPIERRE","ag":["Réseau urbain Transvilles"],"lt":0,"dept":"59"}},{"type":"Feature","geometry":{"type":"Point","coordinates":[3.50064,50.35903]},"properties":{"nom":"VALENCIENNES HOPITAL","ag":["Réseau urbain Transvilles"],"lt":0,"dept":"59"}},{"type":"Feature","geometry":{"type":"Point","coordinates":[3.49368,50.36245]},"properties":{"nom":"ST WAAST PLACE","ag":["Réseau urbain Transvilles"],"lt":0,"dept":"59"}},{"type":"Feature","geometry":{"type":"Point","coordinates":[3.4933,50.35705]},"properties":{"nom":"BRUYERES","ag":["Réseau urbain Transvilles"],"lt":0,"dept":"59"}},{"type":"Feature","geometry":{"type":"Point","coordinates":[3.49737,50.36939]},"properties":{"nom":"ANZIN CHATEAU D' EAU","ag":["Réseau urbain Transvilles"],"lt":0,"dept":"59"}},{"type":"Feature","geometry":{"type":"Point","coordinates":[3.49235,50.37023]},"properties":{"nom":"ANZIN RESISTANCE","ag":["Réseau urbain Transvilles"],"lt":0,"dept":"59"}},{"type":"Feature","geometry":{"type":"Point","coordinates":[3.48218,50.37116]},"properties":{"nom":"LENINE","ag":["Réseau urbain Transvilles"],"lt":0,"dept":"59"}},{"type":"Feature","geometry":{"type":"Point","coordinates":[3.47665,50.37785]},"properties":{"nom":"PF CENTRE COMMERCIAL","ag":["Réseau urbain Transvilles"],"lt":0,"dept":"59"}},{"type":"Feature","geometry":{"type":"Point","coordinates":[3.46249,50.37356]},"properties":{"nom":"CORREZZOLA","ag":["Réseau urbain Transvilles"],"lt":0,"dept":"59"}},{"type":"Feature","geometry":{"type":"Point","coordinates":[3.47058,50.37211]},"properties":{"nom":"DUCLOS","ag":["Réseau urbain Transvilles"],"lt":0,"dept":"59"}},{"type":"Feature","geometry":{"type":"Point","coordinates":[3.53036,50.35477]},"properties":{"nom":"CARDON","ag":["Réseau urbain Transvilles"],"lt":0,"dept":"59"}},{"type":"Feature","geometry":{"type":"Point","coordinates":[3.52523,50.35258]},"properties":{"nom":"CANADA","ag":["Réseau urbain Transvilles"],"lt":0,"dept":"59"}},{"type":"Feature","geometry":{"type":"Point","coordinates":[3.52483,50.34821]},"properties":{"nom":"STADE NUNGESSER","ag":["Réseau urbain Transvilles"],"lt":0,"dept":"59"}},{"type":"Feature","geometry":{"type":"Point","coordinates":[3.52574,50.34526]},"properties":{"nom":"AVENUE DE REIMS","ag":["Réseau urbain Transvilles"],"lt":0,"dept":"59"}},{"type":"Feature","geometry":{"type":"Point","coordinates":[3.52597,50.34318]},"properties":{"nom":"BRIQUETTE EGLISE","ag":["Réseau urbain Transvilles"],"lt":0,"dept":"59"}},{"type":"Feature","geometry":{"type":"Point","coordinates":[3.51948,50.34371]},"properties":{"nom":"CHEMIN DES BOURGEOIS","ag":["Réseau urbain Transvilles"],"lt":0,"dept":"59"}},{"type":"Feature","geometry":{"type":"Point","coordinates":[3.52422,50.33583]},"properties":{"nom":"CFA AFOBAT","ag":["Réseau urbain Transvilles"],"lt":0,"dept":"59"}},{"type":"Feature","geometry":{"type":"Point","coordinates":[3.51371,50.33089]},"properties":{"nom":"CHEMIN VERT","ag":["Réseau urbain Transvilles"],"lt":0,"dept":"59"}},{"type":"Feature","geometry":{"type":"Point","coordinates":[3.51278,50.32875]},"properties":{"nom":"RES. UNIVERSITAIRE","ag":["Réseau urbain Transvilles"],"lt":0,"dept":"59"}},{"type":"Feature","geometry":{"type":"Point","coordinates":[3.51446,50.3656]},"properties":{"nom":"PONT JACOB","ag":["Réseau urbain Transvilles"],"lt":0,"dept":"59"}},{"type":"Feature","geometry":{"type":"Point","coordinates":[3.50084,50.37362]},"properties":{"nom":"KLEBER","ag":["Réseau urbain Transvilles"],"lt":0,"dept":"59"}},{"type":"Feature","geometry":{"type":"Point","coordinates":[3.49775,50.37686]},"properties":{"nom":"MONT DE SABLE","ag":["Réseau urbain Transvilles"],"lt":0,"dept":"59"}},{"type":"Feature","geometry":{"type":"Point","coordinates":[3.49603,50.37866]},"properties":{"nom":"CITE CARPEAUX","ag":["Réseau urbain Transvilles"],"lt":0,"dept":"59"}},{"type":"Feature","geometry":{"type":"Point","coordinates":[3.49236,50.38258]},"properties":{"nom":"GABRIEL PERI","ag":["Réseau urbain Transvilles"],"lt":0,"dept":"59"}},{"type":"Feature","geometry":{"type":"Point","coordinates":[3.49081,50.38465]},"properties":{"nom":"GILBERTE","ag":["Réseau urbain Transvilles"],"lt":0,"dept":"59"}},{"type":"Feature","geometry":{"type":"Point","coordinates":[3.48755,50.38905]},"properties":{"nom":"RUE DE BEUVRAGES","ag":["Réseau urbain Transvilles"],"lt":0,"dept":"59"}},{"type":"Feature","geometry":{"type":"Point","coordinates":[3.48374,50.39248]},"properties":{"nom":"RAISMES PLACE","ag":["Réseau urbain Transvilles"],"lt":0,"dept":"59"}},{"type":"Feature","geometry":{"type":"Point","coordinates":[3.47715,50.39232]},"properties":{"nom":"RAISMES SNCF","ag":["Réseau urbain Transvilles"],"lt":0,"dept":"59"}},{"type":"Feature","geometry":{"type":"Point","coordinates":[3.47095,50.39367]},"properties":{"nom":"PETIT VICOIGNE","ag":["Réseau urbain Transvilles"],"lt":0,"dept":"59"}},{"type":"Feature","geometry":{"type":"Point","coordinates":[3.46626,50.39709]},"properties":{"nom":"PONT DU ROI","ag":["Réseau urbain Transvilles"],"lt":0,"dept":"59"}},{"type":"Feature","geometry":{"type":"Point","coordinates":[3.46298,50.39975]},"properties":{"nom":"VICOIGNE PLACE","ag":["Réseau urbain Transvilles"],"lt":0,"dept":"59"}},{"type":"Feature","geometry":{"type":"Point","coordinates":[3.45983,50.40419]},"properties":{"nom":"VICOIGNE EGLISE","ag":["Réseau urbain Transvilles"],"lt":0,"dept":"59"}},{"type":"Feature","geometry":{"type":"Point","coordinates":[3.45744,50.40747]},"properties":{"nom":"CULBUTE","ag":["Réseau urbain Transvilles"],"lt":0,"dept":"59"}},{"type":"Feature","geometry":{"type":"Point","coordinates":[3.4486,50.41833]},"properties":{"nom":"FORET","ag":["Réseau urbain Transvilles"],"lt":0,"dept":"59"}},{"type":"Feature","geometry":{"type":"Point","coordinates":[3.44405,50.42552]},"properties":{"nom":"GRISE CHEMISE","ag":["Réseau urbain Transvilles"],"lt":0,"dept":"59"}},{"type":"Feature","geometry":{"type":"Point","coordinates":[3.43639,50.4323]},"properties":{"nom":"PONT DE PIERRE","ag":["Réseau urbain Transvilles"],"lt":0,"dept":"59"}},{"type":"Feature","geometry":{"type":"Point","coordinates":[3.43282,50.43651]},"properties":{"nom":"MOULIN DES LOUPS","ag":["Réseau urbain Transvilles"],"lt":0,"dept":"59"}},{"type":"Feature","geometry":{"type":"Point","coordinates":[3.43199,50.43927]},"properties":{"nom":"CROIX DU PETIT DIEU","ag":["Réseau urbain Transvilles"],"lt":0,"dept":"59"}},{"type":"Feature","geometry":{"type":"Point","coordinates":[3.43122,50.44639]},"properties":{"nom":"ST AMAND EGLISE","ag":["Réseau urbain Transvilles"],"lt":0,"dept":"59"}},{"type":"Feature","geometry":{"type":"Point","coordinates":[3.43394,50.44929]},"properties":{"nom":"AVENUE DU CLOS","ag":["Réseau urbain Transvilles"],"lt":0,"dept":"59"}},{"type":"Feature","geometry":{"type":"Point","coordinates":[3.50232,50.36857]},"properties":{"nom":"ANZIN HOTEL DE VILLE","ag":["Réseau urbain Transvilles"],"lt":0,"dept":"59"}},{"type":"Feature","geometry":{"type":"Point","coordinates":[3.58811,50.33466]},"properties":{"nom":"SAULT.CHATEAU D'EAU","ag":["Réseau urbain Transvilles"],"lt":0,"dept":"59"}},{"type":"Feature","geometry":{"type":"Point","coordinates":[3.41905,50.44365]},"properties":{"nom":"ST AMAND SNCF","ag":["Réseau urbain Transvilles"],"lt":0,"dept":"59"}},{"type":"Feature","geometry":{"type":"Point","coordinates":[3.49156,50.39718]},"properties":{"nom":"DUSSART","ag":["Réseau urbain Transvilles"],"lt":0,"dept":"59"}},{"type":"Feature","geometry":{"type":"Point","coordinates":[3.49664,50.39907]},"properties":{"nom":"RAISMES MARAIS","ag":["Réseau urbain Transvilles"],"lt":0,"dept":"59"}},{"type":"Feature","geometry":{"type":"Point","coordinates":[3.50117,50.40053]},"properties":{"nom":"REPOS DU CHASSEUR","ag":["Réseau urbain Transvilles"],"lt":0,"dept":"59"}},{"type":"Feature","geometry":{"type":"Point","coordinates":[3.50635,50.40427]},"properties":{"nom":"SABATIER","ag":["Réseau urbain Transvilles"],"lt":0,"dept":"59"}},{"type":"Feature","geometry":{"type":"Point","coordinates":[3.51096,50.40508]},"properties":{"nom":"PINSON","ag":["Réseau urbain Transvilles"],"lt":0,"dept":"59"}},{"type":"Feature","geometry":{"type":"Point","coordinates":[3.51505,50.40357]},"properties":{"nom":"PERIER","ag":["Réseau urbain Transvilles"],"lt":0,"dept":"59"}},{"type":"Feature","geometry":{"type":"Point","coordinates":[3.51859,50.40627]},"properties":{"nom":"CERNAY","ag":["Réseau urbain Transvilles"],"lt":0,"dept":"59"}},{"type":"Feature","geometry":{"type":"Point","coordinates":[3.52212,50.40269]},"properties":{"nom":"PINSON EGLISE","ag":["Réseau urbain Transvilles"],"lt":0,"dept":"59"}},{"type":"Feature","geometry":{"type":"Point","coordinates":[3.52549,50.39924]},"properties":{"nom":"LES SOUPIRS","ag":["Réseau urbain Transvilles"],"lt":0,"dept":"59"}},{"type":"Feature","geometry":{"type":"Point","coordinates":[3.52879,50.39964]},"properties":{"nom":"ROLLIN","ag":["Réseau urbain Transvilles"],"lt":0,"dept":"59"}},{"type":"Feature","geometry":{"type":"Point","coordinates":[3.53565,50.39731]},"properties":{"nom":"BRUAY PLACE","ag":["Réseau urbain Transvilles"],"lt":0,"dept":"59"}},{"type":"Feature","geometry":{"type":"Point","coordinates":[3.60544,50.38817]},"properties":{"nom":"BRABANT","ag":["Réseau urbain Transvilles"],"lt":0,"dept":"59"}},{"type":"Feature","geometry":{"type":"Point","coordinates":[3.40451,50.41688]},"properties":{"nom":"DEGUISE","ag":["Réseau urbain Transvilles"],"lt":0,"dept":"59"}},{"type":"Feature","geometry":{"type":"Point","coordinates":[3.40074,50.41495]},"properties":{"nom":"PELLOUTIER","ag":["Réseau urbain Transvilles"],"lt":0,"dept":"59"}},{"type":"Feature","geometry":{"type":"Point","coordinates":[3.39383,50.41494]},"properties":{"nom":"CHEMIN DES MOULINS","ag":["Réseau urbain Transvilles"],"lt":0,"dept":"59"}},{"type":"Feature","geometry":{"type":"Point","coordinates":[3.38751,50.41691]},"properties":{"nom":"HASNON CALVAIRE","ag":["Réseau urbain Transvilles"],"lt":0,"dept":"59"}},{"type":"Feature","geometry":{"type":"Point","coordinates":[3.38632,50.42398]},"properties":{"nom":"HASNON PLACE","ag":["Réseau urbain Transvilles"],"lt":0,"dept":"59"}},{"type":"Feature","geometry":{"type":"Point","coordinates":[3.37392,50.41796]},"properties":{"nom":"HASNON CATAINE","ag":["Réseau urbain Transvilles"],"lt":0,"dept":"59"}},{"type":"Feature","geometry":{"type":"Point","coordinates":[3.50807,50.3713]},"properties":{"nom":"MATHIEU","ag":["Réseau urbain Transvilles"],"lt":0,"dept":"59"}},{"type":"Feature","geometry":{"type":"Point","coordinates":[3.51204,50.37845]},"properties":{"nom":"ANZIN CHAPELLE","ag":["Réseau urbain Transvilles"],"lt":0,"dept":"59"}},{"type":"Feature","geometry":{"type":"Point","coordinates":[3.51332,50.38459]},"properties":{"nom":"MARGUERITE LEDUC","ag":["Réseau urbain Transvilles"],"lt":0,"dept":"59"}},{"type":"Feature","geometry":{"type":"Point","coordinates":[3.50935,50.38452]},"properties":{"nom":"PARC FENELON","ag":["Réseau urbain Transvilles"],"lt":0,"dept":"59"}},{"type":"Feature","geometry":{"type":"Point","coordinates":[3.50683,50.38584]},"properties":{"nom":"BEUVRAGES CENTRE","ag":["Réseau urbain Transvilles"],"lt":0,"dept":"59"}},{"type":"Feature","geometry":{"type":"Point","coordinates":[3.49752,50.38708]},"properties":{"nom":"DANNA","ag":["Réseau urbain Transvilles"],"lt":0,"dept":"59"}},{"type":"Feature","geometry":{"type":"Point","coordinates":[3.53455,50.3529]},"properties":{"nom":"ROMAINVILLE","ag":["Réseau urbain Transvilles"],"lt":0,"dept":"59"}},{"type":"Feature","geometry":{"type":"Point","coordinates":[3.53986,50.35131]},"properties":{"nom":"BLANCS BALLONS","ag":["Réseau urbain Transvilles"],"lt":0,"dept":"59"}},{"type":"Feature","geometry":{"type":"Point","coordinates":[3.5445,50.35007]},"properties":{"nom":"MARLY PLACE","ag":["Réseau urbain Transvilles"],"lt":0,"dept":"59"}},{"type":"Feature","geometry":{"type":"Point","coordinates":[3.55027,50.34759]},"properties":{"nom":"FONTINETTES","ag":["Réseau urbain Transvilles"],"lt":0,"dept":"59"}},{"type":"Feature","geometry":{"type":"Point","coordinates":[3.54336,50.3468]},"properties":{"nom":"RHONELLE","ag":["Réseau urbain Transvilles"],"lt":0,"dept":"59"}},{"type":"Feature","geometry":{"type":"Point","coordinates":[3.54679,50.34339]},"properties":{"nom":"PONT DES IMBECILES","ag":["Réseau urbain Transvilles"],"lt":0,"dept":"59"}},{"type":"Feature","geometry":{"type":"Point","coordinates":[3.54387,50.40056]},"properties":{"nom":"POINT DU JOUR","ag":["Réseau urbain Transvilles"],"lt":0,"dept":"59"}},{"type":"Feature","geometry":{"type":"Point","coordinates":[3.54559,50.40177]},"properties":{"nom":"FRUITIER","ag":["Réseau urbain Transvilles"],"lt":0,"dept":"59"}},{"type":"Feature","geometry":{"type":"Point","coordinates":[3.55015,50.40518]},"properties":{"nom":"HAUTS CHAMPS","ag":["Réseau urbain Transvilles"],"lt":0,"dept":"59"}},{"type":"Feature","geometry":{"type":"Point","coordinates":[3.55568,50.40928]},"properties":{"nom":"THIERS","ag":["Réseau urbain Transvilles"],"lt":0,"dept":"59"}},{"type":"Feature","geometry":{"type":"Point","coordinates":[3.55878,50.41469]},"properties":{"nom":"BRUNEHAUT","ag":["Réseau urbain Transvilles"],"lt":0,"dept":"59"}},{"type":"Feature","geometry":{"type":"Point","coordinates":[3.56062,50.42171]},"properties":{"nom":"ESCAUTPONT CIMETIERE","ag":["Réseau urbain Transvilles"],"lt":0,"dept":"59"}},{"type":"Feature","geometry":{"type":"Point","coordinates":[3.56334,50.4237]},"properties":{"nom":"ESCAUTPONT PLACE","ag":["Réseau urbain Transvilles"],"lt":0,"dept":"59"}},{"type":"Feature","geometry":{"type":"Point","coordinates":[3.57049,50.42897]},"properties":{"nom":"PASTEUR","ag":["Réseau urbain Transvilles"],"lt":0,"dept":"59"}},{"type":"Feature","geometry":{"type":"Point","coordinates":[3.57474,50.43131]},"properties":{"nom":"FRESNES GARE","ag":["Réseau urbain Transvilles"],"lt":0,"dept":"59"}},{"type":"Feature","geometry":{"type":"Point","coordinates":[3.57819,50.43301]},"properties":{"nom":"FRESNES MAIRIE","ag":["Réseau urbain Transvilles"],"lt":0,"dept":"59"}},{"type":"Feature","geometry":{"type":"Point","coordinates":[3.58329,50.43643]},"properties":{"nom":"BERGER","ag":["Réseau urbain Transvilles"],"lt":0,"dept":"59"}},{"type":"Feature","geometry":{"type":"Point","coordinates":[3.58913,50.44409]},"properties":{"nom":"CONDE GARE","ag":["Réseau urbain Transvilles"],"lt":0,"dept":"59"}},{"type":"Feature","geometry":{"type":"Point","coordinates":[3.5913,50.44627]},"properties":{"nom":"SQUARE DE L' ESCAUT","ag":["Réseau urbain Transvilles"],"lt":0,"dept":"59"}},{"type":"Feature","geometry":{"type":"Point","coordinates":[3.59394,50.44861]},"properties":{"nom":"CONDE PLACE","ag":["Réseau urbain Transvilles"],"lt":0,"dept":"59"}},{"type":"Feature","geometry":{"type":"Point","coordinates":[3.59287,50.45141]},"properties":{"nom":"ROMBAULT","ag":["Réseau urbain Transvilles"],"lt":0,"dept":"59"}},{"type":"Feature","geometry":{"type":"Point","coordinates":[3.58756,50.45438]},"properties":{"nom":"BIFURCATION","ag":["Réseau urbain Transvilles"],"lt":0,"dept":"59"}},{"type":"Feature","geometry":{"type":"Point","coordinates":[3.58346,50.45583]},"properties":{"nom":"MECANICIEN","ag":["Réseau urbain Transvilles"],"lt":0,"dept":"59"}},{"type":"Feature","geometry":{"type":"Point","coordinates":[3.57905,50.45626]},"properties":{"nom":"VIEUX CONDE STADE","ag":["Réseau urbain Transvilles"],"lt":0,"dept":"59"}},{"type":"Feature","geometry":{"type":"Point","coordinates":[3.57453,50.45676]},"properties":{"nom":"LE BOULON","ag":["Réseau urbain Transvilles"],"lt":0,"dept":"59"}},{"type":"Feature","geometry":{"type":"Point","coordinates":[3.55789,50.46076]},"properties":{"nom":"ST MARTIN","ag":["Réseau urbain Transvilles"],"lt":0,"dept":"59"}},{"type":"Feature","geometry":{"type":"Point","coordinates":[3.55464,50.46371]},"properties":{"nom":"TRIANGLE","ag":["Réseau urbain Transvilles"],"lt":0,"dept":"59"}},{"type":"Feature","geometry":{"type":"Point","coordinates":[3.54846,50.4663]},"properties":{"nom":"MALIN","ag":["Réseau urbain Transvilles"],"lt":0,"dept":"59"}},{"type":"Feature","geometry":{"type":"Point","coordinates":[3.54189,50.46851]},"properties":{"nom":"HERGNIES ECOLES","ag":["Réseau urbain Transvilles"],"lt":0,"dept":"59"}},{"type":"Feature","geometry":{"type":"Point","coordinates":[3.53123,50.47143]},"properties":{"nom":"LES QUENOY","ag":["Réseau urbain Transvilles"],"lt":0,"dept":"59"}},{"type":"Feature","geometry":{"type":"Point","coordinates":[3.569,50.46235]},"properties":{"nom":"PATTE D'OIE","ag":["Réseau urbain Transvilles"],"lt":0,"dept":"59"}},{"type":"Feature","geometry":{"type":"Point","coordinates":[3.57202,50.46955]},"properties":{"nom":"FLAQUIT","ag":["Réseau urbain Transvilles"],"lt":0,"dept":"59"}},{"type":"Feature","geometry":{"type":"Point","coordinates":[3.57369,50.47389]},"properties":{"nom":"CORON VERT","ag":["Réseau urbain Transvilles"],"lt":0,"dept":"59"}},{"type":"Feature","geometry":{"type":"Point","coordinates":[3.57689,50.47891]},"properties":{"nom":"SOLITUDE","ag":["Réseau urbain Transvilles"],"lt":0,"dept":"59"}},{"type":"Feature","geometry":{"type":"Point","coordinates":[3.58025,50.48236]},"properties":{"nom":"DELORY","ag":["Réseau urbain Transvilles"],"lt":0,"dept":"59"}},{"type":"Feature","geometry":{"type":"Point","coordinates":[3.58183,50.48862]},"properties":{"nom":"CAMELINAT","ag":["Réseau urbain Transvilles"],"lt":0,"dept":"59"}},{"type":"Feature","geometry":{"type":"Point","coordinates":[3.58492,50.4905]},"properties":{"nom":"MONT DE PERUWELZ","ag":["Réseau urbain Transvilles"],"lt":0,"dept":"59"}},{"type":"Feature","geometry":{"type":"Point","coordinates":[3.58686,50.45815]},"properties":{"nom":"CLG JOSQUIN DES PRES","ag":["Réseau urbain Transvilles"],"lt":0,"dept":"59"}},{"type":"Feature","geometry":{"type":"Point","coordinates":[3.58856,50.45691]},"properties":{"nom":"TABARY","ag":["Réseau urbain Transvilles"],"lt":0,"dept":"59"}},{"type":"Feature","geometry":{"type":"Point","coordinates":[3.60588,50.46719]},"properties":{"nom":"DIGUE NOIRE","ag":["Réseau urbain Transvilles"],"lt":0,"dept":"59"}},{"type":"Feature","geometry":{"type":"Point","coordinates":[3.60948,50.46958]},"properties":{"nom":"LORETTE","ag":["Réseau urbain Transvilles"],"lt":0,"dept":"59"}},{"type":"Feature","geometry":{"type":"Point","coordinates":[3.57918,50.48635]},"properties":{"nom":"ROSIERS","ag":["Réseau urbain Transvilles"],"lt":0,"dept":"59"}},{"type":"Feature","geometry":{"type":"Point","coordinates":[3.59957,50.47045]},"properties":{"nom":"COLISEE","ag":["Réseau urbain Transvilles"],"lt":0,"dept":"59"}},{"type":"Feature","geometry":{"type":"Point","coordinates":[3.59809,50.4729]},"properties":{"nom":"MAISON BLANCHE","ag":["Réseau urbain Transvilles"],"lt":0,"dept":"59"}},{"type":"Feature","geometry":{"type":"Point","coordinates":[3.56088,50.43353]},"properties":{"nom":"FRESNES CACHIN","ag":["Réseau urbain Transvilles"],"lt":0,"dept":"59"}},{"type":"Feature","geometry":{"type":"Point","coordinates":[3.60588,50.49468]},"properties":{"nom":"BONSECOURS","ag":["Réseau urbain Transvilles"],"lt":0,"dept":"59"}},{"type":"Feature","geometry":{"type":"Point","coordinates":[3.57038,50.43634]},"properties":{"nom":"JULES GUESDE","ag":["Réseau urbain Transvilles"],"lt":0,"dept":"59"}},{"type":"Feature","geometry":{"type":"Point","coordinates":[3.56465,50.43776]},"properties":{"nom":"VICTOR HUGO","ag":["Réseau urbain Transvilles"],"lt":0,"dept":"59"}},{"type":"Feature","geometry":{"type":"Point","coordinates":[3.55924,50.43695]},"properties":{"nom":"TRIEU DE FRESNES","ag":["Réseau urbain Transvilles"],"lt":0,"dept":"59"}},{"type":"Feature","geometry":{"type":"Point","coordinates":[3.53409,50.36302]},"properties":{"nom":"ROLEUR","ag":["Réseau urbain Transvilles"],"lt":0,"dept":"59"}},{"type":"Feature","geometry":{"type":"Point","coordinates":[3.54104,50.36556]},"properties":{"nom":"COLART CRESTE","ag":["Réseau urbain Transvilles"],"lt":0,"dept":"59"}},{"type":"Feature","geometry":{"type":"Point","coordinates":[3.54431,50.36662]},"properties":{"nom":"MARQUIS","ag":["Réseau urbain Transvilles"],"lt":0,"dept":"59"}},{"type":"Feature","geometry":{"type":"Point","coordinates":[3.54899,50.36843]},"properties":{"nom":"DUCHESNOIS","ag":["Réseau urbain Transvilles"],"lt":0,"dept":"59"}},{"type":"Feature","geometry":{"type":"Point","coordinates":[3.55159,50.36936]},"properties":{"nom":"ST SAULVE EGLISE","ag":["Réseau urbain Transvilles"],"lt":0,"dept":"59"}},{"type":"Feature","geometry":{"type":"Point","coordinates":[3.55797,50.3717]},"properties":{"nom":"ST SAULVE DOUANE","ag":["Réseau urbain Transvilles"],"lt":0,"dept":"59"}},{"type":"Feature","geometry":{"type":"Point","coordinates":[3.5631,50.37361]},"properties":{"nom":"GUINDAL","ag":["Réseau urbain Transvilles"],"lt":0,"dept":"59"}},{"type":"Feature","geometry":{"type":"Point","coordinates":[3.57125,50.3765]},"properties":{"nom":"PETIT ST SAULVE","ag":["Réseau urbain Transvilles"],"lt":0,"dept":"59"}},{"type":"Feature","geometry":{"type":"Point","coordinates":[3.58847,50.38266]},"properties":{"nom":"ONNAING CALVAIRE","ag":["Réseau urbain Transvilles"],"lt":0,"dept":"59"}},{"type":"Feature","geometry":{"type":"Point","coordinates":[3.59351,50.38484]},"properties":{"nom":"ONNAING ST JOSEPH","ag":["Réseau urbain Transvilles"],"lt":0,"dept":"59"}},{"type":"Feature","geometry":{"type":"Point","coordinates":[3.59764,50.38592]},"properties":{"nom":"ZOLA","ag":["Réseau urbain Transvilles"],"lt":0,"dept":"59"}},{"type":"Feature","geometry":{"type":"Point","coordinates":[3.60082,50.38681]},"properties":{"nom":"ONNAING PLACE","ag":["Réseau urbain Transvilles"],"lt":0,"dept":"59"}},{"type":"Feature","geometry":{"type":"Point","coordinates":[3.60917,50.38902]},"properties":{"nom":"ONNAING CIMETIERE","ag":["Réseau urbain Transvilles"],"lt":0,"dept":"59"}},{"type":"Feature","geometry":{"type":"Point","coordinates":[3.61529,50.39047]},"properties":{"nom":"DANGREAU","ag":["Réseau urbain Transvilles"],"lt":0,"dept":"59"}},{"type":"Feature","geometry":{"type":"Point","coordinates":[3.61893,50.39133]},"properties":{"nom":"QUAROUBLE 4 PAVES","ag":["Réseau urbain Transvilles"],"lt":0,"dept":"59"}},{"type":"Feature","geometry":{"type":"Point","coordinates":[3.62663,50.3931]},"properties":{"nom":"RICHARD","ag":["Réseau urbain Transvilles"],"lt":0,"dept":"59"}},{"type":"Feature","geometry":{"type":"Point","coordinates":[3.63442,50.39493]},"properties":{"nom":"PRINCE DE LIGNE","ag":["Réseau urbain Transvilles"],"lt":0,"dept":"59"}},{"type":"Feature","geometry":{"type":"Point","coordinates":[3.64185,50.39668]},"properties":{"nom":"AUNICHE","ag":["Réseau urbain Transvilles"],"lt":0,"dept":"59"}},{"type":"Feature","geometry":{"type":"Point","coordinates":[3.6488,50.39831]},"properties":{"nom":"EMBLISE","ag":["Réseau urbain Transvilles"],"lt":0,"dept":"59"}},{"type":"Feature","geometry":{"type":"Point","coordinates":[3.65441,50.39961]},"properties":{"nom":"POSTILLON","ag":["Réseau urbain Transvilles"],"lt":0,"dept":"59"}},{"type":"Feature","geometry":{"type":"Point","coordinates":[3.65889,50.40068]},"properties":{"nom":"CRONTE VOYE","ag":["Réseau urbain Transvilles"],"lt":0,"dept":"59"}},{"type":"Feature","geometry":{"type":"Point","coordinates":[3.66808,50.4025]},"properties":{"nom":"BL MISSERON 4 PAVES","ag":["Réseau urbain Transvilles"],"lt":0,"dept":"59"}},{"type":"Feature","geometry":{"type":"Point","coordinates":[3.66323,50.41093]},"properties":{"nom":"TRAVERSIERE","ag":["Réseau urbain Transvilles"],"lt":0,"dept":"59"}},{"type":"Feature","geometry":{"type":"Point","coordinates":[3.66156,50.41515]},"properties":{"nom":"CRESPIN ECOLE","ag":["Réseau urbain Transvilles"],"lt":0,"dept":"59"}},{"type":"Feature","geometry":{"type":"Point","coordinates":[3.4743,50.37584]},"properties":{"nom":"GAY LUSSAC","ag":["Réseau urbain Transvilles"],"lt":0,"dept":"59"}},{"type":"Feature","geometry":{"type":"Point","coordinates":[3.65421,50.42094]},"properties":{"nom":"LE CORON","ag":["Réseau urbain Transvilles"],"lt":0,"dept":"59"}},{"type":"Feature","geometry":{"type":"Point","coordinates":[3.65955,50.42411]},"properties":{"nom":"LOUVIERE","ag":["Réseau urbain Transvilles"],"lt":0,"dept":"59"}},{"type":"Feature","geometry":{"type":"Point","coordinates":[3.66342,50.42178]},"properties":{"nom":"CRESPIN ANC. MAIRIE","ag":["Réseau urbain Transvilles"],"lt":0,"dept":"59"}},{"type":"Feature","geometry":{"type":"Point","coordinates":[3.66328,50.39466]},"properties":{"nom":"RUE DU QUESNOY","ag":["Réseau urbain Transvilles"],"lt":0,"dept":"59"}},{"type":"Feature","geometry":{"type":"Point","coordinates":[3.66342,50.39216]},"properties":{"nom":"QUIEVRECH. CALVAIRE","ag":["Réseau urbain Transvilles"],"lt":0,"dept":"59"}},{"type":"Feature","geometry":{"type":"Point","coordinates":[3.66931,50.3915]},"properties":{"nom":"AVENUE PASTEUR","ag":["Réseau urbain Transvilles"],"lt":0,"dept":"59"}},{"type":"Feature","geometry":{"type":"Point","coordinates":[3.59434,50.39024]},"properties":{"nom":"RUE DE LA LIBERTE","ag":["Réseau urbain Transvilles"],"lt":0,"dept":"59"}},{"type":"Feature","geometry":{"type":"Point","coordinates":[3.5953,50.39287]},"properties":{"nom":"BERTHELOT","ag":["Réseau urbain Transvilles"],"lt":0,"dept":"59"}},{"type":"Feature","geometry":{"type":"Point","coordinates":[3.59194,50.39515]},"properties":{"nom":"LES 4 CHASSES","ag":["Réseau urbain Transvilles"],"lt":0,"dept":"59"}},{"type":"Feature","geometry":{"type":"Point","coordinates":[3.59639,50.39823]},"properties":{"nom":"CUVINOT","ag":["Réseau urbain Transvilles"],"lt":0,"dept":"59"}},{"type":"Feature","geometry":{"type":"Point","coordinates":[3.60265,50.40194]},"properties":{"nom":"CUVINOT ECOLE","ag":["Réseau urbain Transvilles"],"lt":0,"dept":"59"}},{"type":"Feature","geometry":{"type":"Point","coordinates":[3.60303,50.40712]},"properties":{"nom":"EDGAR SIZAIRE","ag":["Réseau urbain Transvilles"],"lt":0,"dept":"59"}},{"type":"Feature","geometry":{"type":"Point","coordinates":[3.60181,50.40948]},"properties":{"nom":"CARPENTIER","ag":["Réseau urbain Transvilles"],"lt":0,"dept":"59"}},{"type":"Feature","geometry":{"type":"Point","coordinates":[3.60013,50.412]},"properties":{"nom":"VICQ MARAIS","ag":["Réseau urbain Transvilles"],"lt":0,"dept":"59"}},{"type":"Feature","geometry":{"type":"Point","coordinates":[3.62483,50.38591]},"properties":{"nom":"QUAROUBLE CENTRE","ag":["Réseau urbain Transvilles"],"lt":0,"dept":"59"}},{"type":"Feature","geometry":{"type":"Point","coordinates":[3.6269,50.38173]},"properties":{"nom":"QUAROUBLE MESANGES","ag":["Réseau urbain Transvilles"],"lt":0,"dept":"59"}},{"type":"Feature","geometry":{"type":"Point","coordinates":[3.49477,50.35243]},"properties":{"nom":"CHASSE ROYALE","ag":["Réseau urbain Transvilles"],"lt":0,"dept":"59"}},{"type":"Feature","geometry":{"type":"Point","coordinates":[3.49172,50.351]},"properties":{"nom":"QUARTIER LOMPREZ","ag":["Réseau urbain Transvilles"],"lt":0,"dept":"59"}},{"type":"Feature","geometry":{"type":"Point","coordinates":[3.48562,50.34809]},"properties":{"nom":"LA SENTINELLE","ag":["Réseau urbain Transvilles"],"lt":0,"dept":"59"}},{"type":"Feature","geometry":{"type":"Point","coordinates":[3.46143,50.33667]},"properties":{"nom":"PETIT COUVENT","ag":["Réseau urbain Transvilles"],"lt":0,"dept":"59"}},{"type":"Feature","geometry":{"type":"Point","coordinates":[3.44193,50.32741]},"properties":{"nom":"ROUVIGNIES MAIRIE","ag":["Réseau urbain Transvilles"],"lt":0,"dept":"59"}},{"type":"Feature","geometry":{"type":"Point","coordinates":[3.4376,50.32539]},"properties":{"nom":"ROUVIGNIES EGLISE","ag":["Réseau urbain Transvilles"],"lt":0,"dept":"59"}},{"type":"Feature","geometry":{"type":"Point","coordinates":[3.42973,50.32871]},"properties":{"nom":"PRISE D' EAU","ag":["Réseau urbain Transvilles"],"lt":0,"dept":"59"}},{"type":"Feature","geometry":{"type":"Point","coordinates":[3.42496,50.32968]},"properties":{"nom":"BLIGNIERES","ag":["Réseau urbain Transvilles"],"lt":0,"dept":"59"}},{"type":"Feature","geometry":{"type":"Point","coordinates":[3.41684,50.33068]},"properties":{"nom":"BASE DE LOISIRS","ag":["Réseau urbain Transvilles"],"lt":0,"dept":"59"}},{"type":"Feature","geometry":{"type":"Point","coordinates":[3.4131,50.33069]},"properties":{"nom":"WAVRECHAIN","ag":["Réseau urbain Transvilles"],"lt":0,"dept":"59"}},{"type":"Feature","geometry":{"type":"Point","coordinates":[3.40753,50.32947]},"properties":{"nom":"LYCEES KASTLER","ag":["Réseau urbain Transvilles"],"lt":0,"dept":"59"}},{"type":"Feature","geometry":{"type":"Point","coordinates":[3.40268,50.33118]},"properties":{"nom":"RUE D'HAVELUY","ag":["Réseau urbain Transvilles"],"lt":0,"dept":"59"}},{"type":"Feature","geometry":{"type":"Point","coordinates":[3.3812,50.34101]},"properties":{"nom":"CHEMIN LATERAL","ag":["Réseau urbain Transvilles"],"lt":0,"dept":"59"}},{"type":"Feature","geometry":{"type":"Point","coordinates":[3.39269,50.32603]},"properties":{"nom":"ESPACE VILLARS","ag":["Réseau urbain Transvilles"],"lt":0,"dept":"59"}},{"type":"Feature","geometry":{"type":"Point","coordinates":[3.38771,50.32633]},"properties":{"nom":"MOUSSERON","ag":["Réseau urbain Transvilles"],"lt":0,"dept":"59"}},{"type":"Feature","geometry":{"type":"Point","coordinates":[3.38178,50.32444]},"properties":{"nom":"ORLEANS","ag":["Réseau urbain Transvilles"],"lt":0,"dept":"59"}},{"type":"Feature","geometry":{"type":"Point","coordinates":[3.37669,50.32243]},"properties":{"nom":"BAUDIN","ag":["Réseau urbain Transvilles"],"lt":0,"dept":"59"}},{"type":"Feature","geometry":{"type":"Point","coordinates":[3.37014,50.31977]},"properties":{"nom":"BESSEMER","ag":["Réseau urbain Transvilles"],"lt":0,"dept":"59"}},{"type":"Feature","geometry":{"type":"Point","coordinates":[3.36141,50.31706]},"properties":{"nom":"LOURCHES CHAPELLE","ag":["Réseau urbain Transvilles"],"lt":0,"dept":"59"}},{"type":"Feature","geometry":{"type":"Point","coordinates":[3.3555,50.31557]},"properties":{"nom":"COLLEGE VOLTAIRE","ag":["Réseau urbain Transvilles"],"lt":0,"dept":"59"}},{"type":"Feature","geometry":{"type":"Point","coordinates":[3.35242,50.31468]},"properties":{"nom":"LOURCHES EGLISE","ag":["Réseau urbain Transvilles"],"lt":0,"dept":"59"}},{"type":"Feature","geometry":{"type":"Point","coordinates":[3.34687,50.31295]},"properties":{"nom":"ECLAIREUR","ag":["Réseau urbain Transvilles"],"lt":0,"dept":"59"}},{"type":"Feature","geometry":{"type":"Point","coordinates":[3.33944,50.31126]},"properties":{"nom":"OLEJNICZAK","ag":["Réseau urbain Transvilles"],"lt":0,"dept":"59"}},{"type":"Feature","geometry":{"type":"Point","coordinates":[3.33453,50.30686]},"properties":{"nom":"ROEULX MAIRIE","ag":["Réseau urbain Transvilles"],"lt":0,"dept":"59"}},{"type":"Feature","geometry":{"type":"Point","coordinates":[3.3428,50.31652]},"properties":{"nom":"SCHNEIDER","ag":["Réseau urbain Transvilles"],"lt":0,"dept":"59"}},{"type":"Feature","geometry":{"type":"Point","coordinates":[3.34289,50.32015]},"properties":{"nom":"FOSSE DE ROEULX","ag":["Réseau urbain Transvilles"],"lt":0,"dept":"59"}},{"type":"Feature","geometry":{"type":"Point","coordinates":[3.34368,50.32805]},"properties":{"nom":"ESCAUDAIN 4 CHEMINS","ag":["Réseau urbain Transvilles"],"lt":0,"dept":"59"}},{"type":"Feature","geometry":{"type":"Point","coordinates":[3.34433,50.33388]},"properties":{"nom":"ESCAUDAIN PLACE","ag":["Réseau urbain Transvilles"],"lt":0,"dept":"59"}},{"type":"Feature","geometry":{"type":"Point","coordinates":[3.34531,50.33851]},"properties":{"nom":"GARE DES MINES","ag":["Réseau urbain Transvilles"],"lt":0,"dept":"59"}},{"type":"Feature","geometry":{"type":"Point","coordinates":[3.34626,50.34101]},"properties":{"nom":"ESCAUDAIN MAROC","ag":["Réseau urbain Transvilles"],"lt":0,"dept":"59"}},{"type":"Feature","geometry":{"type":"Point","coordinates":[3.34629,50.30984]},"properties":{"nom":"SOCRATE","ag":["Réseau urbain Transvilles"],"lt":0,"dept":"59"}},{"type":"Feature","geometry":{"type":"Point","coordinates":[3.3485,50.3049]},"properties":{"nom":"ALBERT COUSIN","ag":["Réseau urbain Transvilles"],"lt":0,"dept":"59"}},{"type":"Feature","geometry":{"type":"Point","coordinates":[3.3524,50.29915]},"properties":{"nom":"NEUVILLE MAIRIE","ag":["Réseau urbain Transvilles"],"lt":0,"dept":"59"}},{"type":"Feature","geometry":{"type":"Point","coordinates":[3.64254,50.36419]},"properties":{"nom":"ROMBIES CENTRE","ag":["Réseau urbain Transvilles"],"lt":0,"dept":"59"}},{"type":"Feature","geometry":{"type":"Point","coordinates":[3.44988,50.31852]},"properties":{"nom":"PROUVY PLACE","ag":["Réseau urbain Transvilles"],"lt":0,"dept":"59"}},{"type":"Feature","geometry":{"type":"Point","coordinates":[3.51621,50.35735]},"properties":{"nom":"ESPLANADE","ag":["Réseau urbain Transvilles"],"lt":0,"dept":"59"}},{"type":"Feature","geometry":{"type":"Point","coordinates":[3.51357,50.35318]},"properties":{"nom":"FAUBOURG DE PARIS","ag":["Réseau urbain Transvilles"],"lt":0,"dept":"59"}},{"type":"Feature","geometry":{"type":"Point","coordinates":[3.50863,50.35442]},"properties":{"nom":"GIARD","ag":["Réseau urbain Transvilles"],"lt":0,"dept":"59"}},{"type":"Feature","geometry":{"type":"Point","coordinates":[3.48996,50.35405]},"properties":{"nom":"ROSERAIE","ag":["Réseau urbain Transvilles"],"lt":0,"dept":"59"}},{"type":"Feature","geometry":{"type":"Point","coordinates":[3.48304,50.35256]},"properties":{"nom":"SENTINELLE POSTE","ag":["Réseau urbain Transvilles"],"lt":0,"dept":"59"}},{"type":"Feature","geometry":{"type":"Point","coordinates":[3.47809,50.35296]},"properties":{"nom":"LEGRAND","ag":["Réseau urbain Transvilles"],"lt":0,"dept":"59"}},{"type":"Feature","geometry":{"type":"Point","coordinates":[3.47336,50.35315]},"properties":{"nom":"8 MAISONS","ag":["Réseau urbain Transvilles"],"lt":0,"dept":"59"}},{"type":"Feature","geometry":{"type":"Point","coordinates":[3.53782,50.35752]},"properties":{"nom":"DUVANT","ag":["Réseau urbain Transvilles"],"lt":0,"dept":"59"}},{"type":"Feature","geometry":{"type":"Point","coordinates":[3.54093,50.35892]},"properties":{"nom":"PIERARD","ag":["Réseau urbain Transvilles"],"lt":0,"dept":"59"}},{"type":"Feature","geometry":{"type":"Point","coordinates":[3.54093,50.36125]},"properties":{"nom":"GENDARMERIE","ag":["Réseau urbain Transvilles"],"lt":0,"dept":"59"}},{"type":"Feature","geometry":{"type":"Point","coordinates":[3.54773,50.36319]},"properties":{"nom":"ALOUETTES","ag":["Réseau urbain Transvilles"],"lt":0,"dept":"59"}},{"type":"Feature","geometry":{"type":"Point","coordinates":[3.55142,50.36462]},"properties":{"nom":"EUROPE","ag":["Réseau urbain Transvilles"],"lt":0,"dept":"59"}},{"type":"Feature","geometry":{"type":"Point","coordinates":[3.55719,50.36671]},"properties":{"nom":"CHATAIGNERAIE","ag":["Réseau urbain Transvilles"],"lt":0,"dept":"59"}},{"type":"Feature","geometry":{"type":"Point","coordinates":[3.55992,50.36753]},"properties":{"nom":"ROUTE D' ESTREUX","ag":["Réseau urbain Transvilles"],"lt":0,"dept":"59"}},{"type":"Feature","geometry":{"type":"Point","coordinates":[3.5597,50.36498]},"properties":{"nom":"SCHUMAN","ag":["Réseau urbain Transvilles"],"lt":0,"dept":"59"}},{"type":"Feature","geometry":{"type":"Point","coordinates":[3.56177,50.36373]},"properties":{"nom":"MERMOZ","ag":["Réseau urbain Transvilles"],"lt":0,"dept":"59"}},{"type":"Feature","geometry":{"type":"Point","coordinates":[3.55432,50.37525]},"properties":{"nom":"ST SAULVE PLACE","ag":["Réseau urbain Transvilles"],"lt":0,"dept":"59"}},{"type":"Feature","geometry":{"type":"Point","coordinates":[3.55672,50.38236]},"properties":{"nom":"BAS MARAIS","ag":["Réseau urbain Transvilles"],"lt":0,"dept":"59"}},{"type":"Feature","geometry":{"type":"Point","coordinates":[3.39247,50.33202]},"properties":{"nom":"JAURES","ag":["Réseau urbain Transvilles"],"lt":0,"dept":"59"}},{"type":"Feature","geometry":{"type":"Point","coordinates":[3.38842,50.33406]},"properties":{"nom":"GARE DU NORD","ag":["Réseau urbain Transvilles"],"lt":0,"dept":"59"}},{"type":"Feature","geometry":{"type":"Point","coordinates":[3.38483,50.3303]},"properties":{"nom":"CARAMAN","ag":["Réseau urbain Transvilles"],"lt":0,"dept":"59"}},{"type":"Feature","geometry":{"type":"Point","coordinates":[3.38197,50.33117]},"properties":{"nom":"MATHILDE","ag":["Réseau urbain Transvilles"],"lt":0,"dept":"59"}},{"type":"Feature","geometry":{"type":"Point","coordinates":[3.37782,50.3321]},"properties":{"nom":"NAPOLEON","ag":["Réseau urbain Transvilles"],"lt":0,"dept":"59"}},{"type":"Feature","geometry":{"type":"Point","coordinates":[3.36834,50.33302]},"properties":{"nom":"PONT LUCE","ag":["Réseau urbain Transvilles"],"lt":0,"dept":"59"}},{"type":"Feature","geometry":{"type":"Point","coordinates":[3.35943,50.33297]},"properties":{"nom":"PEUPLIERS","ag":["Réseau urbain Transvilles"],"lt":0,"dept":"59"}},{"type":"Feature","geometry":{"type":"Point","coordinates":[3.35312,50.33202]},"properties":{"nom":"ESCAUDAIN CIMETIERE","ag":["Réseau urbain Transvilles"],"lt":0,"dept":"59"}},{"type":"Feature","geometry":{"type":"Point","coordinates":[3.33879,50.33583]},"properties":{"nom":"FRANCINE","ag":["Réseau urbain Transvilles"],"lt":0,"dept":"59"}},{"type":"Feature","geometry":{"type":"Point","coordinates":[3.33238,50.33552]},"properties":{"nom":"PHILIPPE","ag":["Réseau urbain Transvilles"],"lt":0,"dept":"59"}},{"type":"Feature","geometry":{"type":"Point","coordinates":[3.31596,50.33146]},"properties":{"nom":"LES 2 FERMES","ag":["Réseau urbain Transvilles"],"lt":0,"dept":"59"}},{"type":"Feature","geometry":{"type":"Point","coordinates":[3.30596,50.33305]},"properties":{"nom":"CORON DE LA GUERRE","ag":["Réseau urbain Transvilles"],"lt":0,"dept":"59"}},{"type":"Feature","geometry":{"type":"Point","coordinates":[3.30168,50.33373]},"properties":{"nom":"ABSCON PLACE","ag":["Réseau urbain Transvilles"],"lt":0,"dept":"59"}},{"type":"Feature","geometry":{"type":"Point","coordinates":[3.30085,50.32901]},"properties":{"nom":"BOULIEZ","ag":["Réseau urbain Transvilles"],"lt":0,"dept":"59"}},{"type":"Feature","geometry":{"type":"Point","coordinates":[3.29645,50.32562]},"properties":{"nom":"ABSCON REPUBLIQUE","ag":["Réseau urbain Transvilles"],"lt":0,"dept":"59"}},{"type":"Feature","geometry":{"type":"Point","coordinates":[3.38521,50.3369]},"properties":{"nom":"COLLEGE BAYARD","ag":["Réseau urbain Transvilles"],"lt":0,"dept":"59"}},{"type":"Feature","geometry":{"type":"Point","coordinates":[3.37462,50.34563]},"properties":{"nom":"LES QUARANTE","ag":["Réseau urbain Transvilles"],"lt":0,"dept":"59"}},{"type":"Feature","geometry":{"type":"Point","coordinates":[3.36794,50.35006]},"properties":{"nom":"LAMBRECHT","ag":["Réseau urbain Transvilles"],"lt":0,"dept":"59"}},{"type":"Feature","geometry":{"type":"Point","coordinates":[3.3592,50.35666]},"properties":{"nom":"HELESMES MOULIN","ag":["Réseau urbain Transvilles"],"lt":0,"dept":"59"}},{"type":"Feature","geometry":{"type":"Point","coordinates":[3.36013,50.36169]},"properties":{"nom":"HELESMES CHATEAU","ag":["Réseau urbain Transvilles"],"lt":0,"dept":"59"}},{"type":"Feature","geometry":{"type":"Point","coordinates":[3.35977,50.36396]},"properties":{"nom":"HELESMES EGLISE","ag":["Réseau urbain Transvilles"],"lt":0,"dept":"59"}},{"type":"Feature","geometry":{"type":"Point","coordinates":[3.35724,50.36753]},"properties":{"nom":"HELESMES MAIRIE","ag":["Réseau urbain Transvilles"],"lt":0,"dept":"59"}},{"type":"Feature","geometry":{"type":"Point","coordinates":[3.35873,50.37078]},"properties":{"nom":"HENRI DURRE","ag":["Réseau urbain Transvilles"],"lt":0,"dept":"59"}},{"type":"Feature","geometry":{"type":"Point","coordinates":[3.35961,50.37317]},"properties":{"nom":"JUSTIN GUIOT","ag":["Réseau urbain Transvilles"],"lt":0,"dept":"59"}},{"type":"Feature","geometry":{"type":"Point","coordinates":[3.36124,50.37697]},"properties":{"nom":"HELESMES TERMINUS","ag":["Réseau urbain Transvilles"],"lt":0,"dept":"59"}},{"type":"Feature","geometry":{"type":"Point","coordinates":[3.40224,50.34828]},"properties":{"nom":"GRANDS CHAMPS","ag":["Réseau urbain Transvilles"],"lt":0,"dept":"59"}},{"type":"Feature","geometry":{"type":"Point","coordinates":[3.40436,50.34885]},"properties":{"nom":"COQUELICOTS","ag":["Réseau urbain Transvilles"],"lt":0,"dept":"59"}},{"type":"Feature","geometry":{"type":"Point","coordinates":[3.41007,50.35005]},"properties":{"nom":"ARTHUR BRUNET","ag":["Réseau urbain Transvilles"],"lt":0,"dept":"59"}},{"type":"Feature","geometry":{"type":"Point","coordinates":[3.40935,50.35264]},"properties":{"nom":"FELIX FAURE","ag":["Réseau urbain Transvilles"],"lt":0,"dept":"59"}},{"type":"Feature","geometry":{"type":"Point","coordinates":[3.40549,50.35645]},"properties":{"nom":"DESCARPENTRY","ag":["Réseau urbain Transvilles"],"lt":0,"dept":"59"}},{"type":"Feature","geometry":{"type":"Point","coordinates":[3.40245,50.35615]},"properties":{"nom":"HAVELUY MAIRIE","ag":["Réseau urbain Transvilles"],"lt":0,"dept":"59"}},{"type":"Feature","geometry":{"type":"Point","coordinates":[3.39726,50.32309]},"properties":{"nom":"LYCEE POLYVALENT","ag":["Réseau urbain Transvilles"],"lt":0,"dept":"59"}},{"type":"Feature","geometry":{"type":"Point","coordinates":[3.3976,50.31921]},"properties":{"nom":"PONT DE L'ENCLOS","ag":["Réseau urbain Transvilles"],"lt":0,"dept":"59"}},{"type":"Feature","geometry":{"type":"Point","coordinates":[3.40234,50.3206]},"properties":{"nom":"JACQUES BREL","ag":["Réseau urbain Transvilles"],"lt":0,"dept":"59"}},{"type":"Feature","geometry":{"type":"Point","coordinates":[3.40933,50.32008]},"properties":{"nom":"ANATOLE FRANCE","ag":["Réseau urbain Transvilles"],"lt":0,"dept":"59"}},{"type":"Feature","geometry":{"type":"Point","coordinates":[3.41237,50.32076]},"properties":{"nom":"MOLIERE","ag":["Réseau urbain Transvilles"],"lt":0,"dept":"59"}},{"type":"Feature","geometry":{"type":"Point","coordinates":[3.4172,50.3198]},"properties":{"nom":"HAULCHIN RACINE","ag":["Réseau urbain Transvilles"],"lt":0,"dept":"59"}},{"type":"Feature","geometry":{"type":"Point","coordinates":[3.39653,50.30197]},"properties":{"nom":"DOUCHY HAINAUT","ag":["Réseau urbain Transvilles"],"lt":0,"dept":"59"}},{"type":"Feature","geometry":{"type":"Point","coordinates":[3.39271,50.30014]},"properties":{"nom":"JULIEN RENARD","ag":["Réseau urbain Transvilles"],"lt":0,"dept":"59"}},{"type":"Feature","geometry":{"type":"Point","coordinates":[3.3877,50.30272]},"properties":{"nom":"DOUCHY MAIRIE ANNEXE","ag":["Réseau urbain Transvilles"],"lt":0,"dept":"59"}},{"type":"Feature","geometry":{"type":"Point","coordinates":[3.51944,50.32366]},"properties":{"nom":"KILOMETRE","ag":["Réseau urbain Transvilles"],"lt":0,"dept":"59"}},{"type":"Feature","geometry":{"type":"Point","coordinates":[3.51833,50.31924]},"properties":{"nom":"MINEUR","ag":["Réseau urbain Transvilles"],"lt":0,"dept":"59"}},{"type":"Feature","geometry":{"type":"Point","coordinates":[3.51876,50.3145]},"properties":{"nom":"FAMARS PLACE","ag":["Réseau urbain Transvilles"],"lt":0,"dept":"59"}},{"type":"Feature","geometry":{"type":"Point","coordinates":[3.51758,50.31129]},"properties":{"nom":"LES 3 BOULEAUX","ag":["Réseau urbain Transvilles"],"lt":0,"dept":"59"}},{"type":"Feature","geometry":{"type":"Point","coordinates":[3.53928,50.29184]},"properties":{"nom":"MARRONNIER","ag":["Réseau urbain Transvilles"],"lt":0,"dept":"59"}},{"type":"Feature","geometry":{"type":"Point","coordinates":[3.5423,50.29638]},"properties":{"nom":"ARTRES CAVINS","ag":["Réseau urbain Transvilles"],"lt":0,"dept":"59"}},{"type":"Feature","geometry":{"type":"Point","coordinates":[3.52713,50.32868]},"properties":{"nom":"AULNOY MONUMENT","ag":["Réseau urbain Transvilles"],"lt":0,"dept":"59"}},{"type":"Feature","geometry":{"type":"Point","coordinates":[3.52449,50.32584]},"properties":{"nom":"MARIE CURIE","ag":["Réseau urbain Transvilles"],"lt":0,"dept":"59"}},{"type":"Feature","geometry":{"type":"Point","coordinates":[3.33878,50.28776]},"properties":{"nom":"CIMENTERIE","ag":["Réseau urbain Transvilles"],"lt":0,"dept":"59"}},{"type":"Feature","geometry":{"type":"Point","coordinates":[3.56347,50.3411]},"properties":{"nom":"SAULTAIN BARRIERE","ag":["Réseau urbain Transvilles"],"lt":0,"dept":"59"}},{"type":"Feature","geometry":{"type":"Point","coordinates":[3.57543,50.33664]},"properties":{"nom":"SAULTAIN EGLISE","ag":["Réseau urbain Transvilles"],"lt":0,"dept":"59"}},{"type":"Feature","geometry":{"type":"Point","coordinates":[3.58207,50.33596]},"properties":{"nom":"CHEMIN DES WUILLONS","ag":["Réseau urbain Transvilles"],"lt":0,"dept":"59"}},{"type":"Feature","geometry":{"type":"Point","coordinates":[3.60146,50.33032]},"properties":{"nom":"CURGIES MAIRIE","ag":["Réseau urbain Transvilles"],"lt":0,"dept":"59"}},{"type":"Feature","geometry":{"type":"Point","coordinates":[3.60768,50.32866]},"properties":{"nom":"CURGIES CHAPELLE","ag":["Réseau urbain Transvilles"],"lt":0,"dept":"59"}},{"type":"Feature","geometry":{"type":"Point","coordinates":[3.58816,50.343]},"properties":{"nom":"LE GRAND CHAMP","ag":["Réseau urbain Transvilles"],"lt":0,"dept":"59"}},{"type":"Feature","geometry":{"type":"Point","coordinates":[3.59111,50.34771]},"properties":{"nom":"FERME DU MOULIN","ag":["Réseau urbain Transvilles"],"lt":0,"dept":"59"}},{"type":"Feature","geometry":{"type":"Point","coordinates":[3.59453,50.35049]},"properties":{"nom":"ESTREUX EGLISE","ag":["Réseau urbain Transvilles"],"lt":0,"dept":"59"}},{"type":"Feature","geometry":{"type":"Point","coordinates":[3.5958,50.35261]},"properties":{"nom":"PAS DE CHEVAL","ag":["Réseau urbain Transvilles"],"lt":0,"dept":"59"}},{"type":"Feature","geometry":{"type":"Point","coordinates":[3.38,50.32553]},"properties":{"nom":"MERRHEIM","ag":["Réseau urbain Transvilles"],"lt":0,"dept":"59"}},{"type":"Feature","geometry":{"type":"Point","coordinates":[3.36689,50.32485]},"properties":{"nom":"CAMBRESIS","ag":["Réseau urbain Transvilles"],"lt":0,"dept":"59"}},{"type":"Feature","geometry":{"type":"Point","coordinates":[3.35942,50.32516]},"properties":{"nom":"1/4 DE 6 HEURES","ag":["Réseau urbain Transvilles"],"lt":0,"dept":"59"}},{"type":"Feature","geometry":{"type":"Point","coordinates":[3.33463,50.32856]},"properties":{"nom":"SIX MARIANNES","ag":["Réseau urbain Transvilles"],"lt":0,"dept":"59"}},{"type":"Feature","geometry":{"type":"Point","coordinates":[3.29524,50.33588]},"properties":{"nom":"BOURRELIER","ag":["Réseau urbain Transvilles"],"lt":0,"dept":"59"}},{"type":"Feature","geometry":{"type":"Point","coordinates":[3.2878,50.33697]},"properties":{"nom":"LES BAILLONS","ag":["Réseau urbain Transvilles"],"lt":0,"dept":"59"}},{"type":"Feature","geometry":{"type":"Point","coordinates":[3.40052,50.33405]},"properties":{"nom":"CHABAUD LATOUR","ag":["Réseau urbain Transvilles"],"lt":0,"dept":"59"}},{"type":"Feature","geometry":{"type":"Point","coordinates":[3.39251,50.37343]},"properties":{"nom":"WALLERS 4 RUES","ag":["Réseau urbain Transvilles"],"lt":0,"dept":"59"}},{"type":"Feature","geometry":{"type":"Point","coordinates":[3.39348,50.37867]},"properties":{"nom":"ABREUVOIR","ag":["Réseau urbain Transvilles"],"lt":0,"dept":"59"}},{"type":"Feature","geometry":{"type":"Point","coordinates":[3.39478,50.38379]},"properties":{"nom":"WALLERS GARE","ag":["Réseau urbain Transvilles"],"lt":0,"dept":"59"}},{"type":"Feature","geometry":{"type":"Point","coordinates":[3.4024,50.41005]},"properties":{"nom":"GRAND BRAY","ag":["Réseau urbain Transvilles"],"lt":0,"dept":"59"}},{"type":"Feature","geometry":{"type":"Point","coordinates":[3.40927,50.44368]},"properties":{"nom":"COLLEGE MOULIN BLANC","ag":["Réseau urbain Transvilles"],"lt":0,"dept":"59"}},{"type":"Feature","geometry":{"type":"Point","coordinates":[3.40918,50.44394]},"properties":{"nom":"COLLEGE MOULIN BLANC","ag":["Réseau urbain Transvilles"],"lt":0,"dept":"59"}},{"type":"Feature","geometry":{"type":"Point","coordinates":[3.37892,50.32063]},"properties":{"nom":"VICTOR NOIR","ag":["Réseau urbain Transvilles"],"lt":0,"dept":"59"}},{"type":"Feature","geometry":{"type":"Point","coordinates":[3.37505,50.31846]},"properties":{"nom":"FAIDHERBE","ag":["Réseau urbain Transvilles"],"lt":0,"dept":"59"}},{"type":"Feature","geometry":{"type":"Point","coordinates":[3.37251,50.31662]},"properties":{"nom":"MARTIN","ag":["Réseau urbain Transvilles"],"lt":0,"dept":"59"}},{"type":"Feature","geometry":{"type":"Point","coordinates":[3.3673,50.31222]},"properties":{"nom":"MIRABEAU","ag":["Réseau urbain Transvilles"],"lt":0,"dept":"59"}},{"type":"Feature","geometry":{"type":"Point","coordinates":[3.38381,50.30734]},"properties":{"nom":"BOCCA","ag":["Réseau urbain Transvilles"],"lt":0,"dept":"59"}},{"type":"Feature","geometry":{"type":"Point","coordinates":[3.38151,50.2983]},"properties":{"nom":"PARRAIN","ag":["Réseau urbain Transvilles"],"lt":0,"dept":"59"}},{"type":"Feature","geometry":{"type":"Point","coordinates":[3.40655,50.27634]},"properties":{"nom":"FLEURY","ag":["Réseau urbain Transvilles"],"lt":0,"dept":"59"}},{"type":"Feature","geometry":{"type":"Point","coordinates":[3.41024,50.26418]},"properties":{"nom":"L'AUBETTE","ag":["Réseau urbain Transvilles"],"lt":0,"dept":"59"}},{"type":"Feature","geometry":{"type":"Point","coordinates":[3.41447,50.26135]},"properties":{"nom":"HASPRES GARE","ag":["Réseau urbain Transvilles"],"lt":0,"dept":"59"}},{"type":"Feature","geometry":{"type":"Point","coordinates":[3.41761,50.25874]},"properties":{"nom":"HASPRES PLACE","ag":["Réseau urbain Transvilles"],"lt":0,"dept":"59"}},{"type":"Feature","geometry":{"type":"Point","coordinates":[3.38934,50.31456]},"properties":{"nom":"SAINT PE","ag":["Réseau urbain Transvilles"],"lt":0,"dept":"59"}},{"type":"Feature","geometry":{"type":"Point","coordinates":[3.38766,50.30629]},"properties":{"nom":"JOLIOT CURIE","ag":["Réseau urbain Transvilles"],"lt":0,"dept":"59"}},{"type":"Feature","geometry":{"type":"Point","coordinates":[3.38883,50.30347]},"properties":{"nom":"BARBUSSE","ag":["Réseau urbain Transvilles"],"lt":0,"dept":"59"}},{"type":"Feature","geometry":{"type":"Point","coordinates":[3.33535,50.28302]},"properties":{"nom":"ZINCIQUES","ag":["Réseau urbain Transvilles"],"lt":0,"dept":"59"}},{"type":"Feature","geometry":{"type":"Point","coordinates":[3.34541,50.27467]},"properties":{"nom":"TABAC","ag":["Réseau urbain Transvilles"],"lt":0,"dept":"59"}},{"type":"Feature","geometry":{"type":"Point","coordinates":[3.34053,50.27131]},"properties":{"nom":"LIEU ST AMAND STADE","ag":["Réseau urbain Transvilles"],"lt":0,"dept":"59"}},{"type":"Feature","geometry":{"type":"Point","coordinates":[3.33176,50.27846]},"properties":{"nom":"BOUCHAIN GARE","ag":["Réseau urbain Transvilles"],"lt":0,"dept":"59"}},{"type":"Feature","geometry":{"type":"Point","coordinates":[3.32101,50.28184]},"properties":{"nom":"BOUCHAIN PLACE","ag":["Réseau urbain Transvilles"],"lt":0,"dept":"59"}},{"type":"Feature","geometry":{"type":"Point","coordinates":[3.31735,50.28398]},"properties":{"nom":"BOUCHAIN EGLISE","ag":["Réseau urbain Transvilles"],"lt":0,"dept":"59"}},{"type":"Feature","geometry":{"type":"Point","coordinates":[3.31265,50.28531]},"properties":{"nom":"BOUCHAIN OSTREVANT","ag":["Réseau urbain Transvilles"],"lt":0,"dept":"59"}},{"type":"Feature","geometry":{"type":"Point","coordinates":[3.32065,50.26347]},"properties":{"nom":"HORDAIN LE PAVE","ag":["Réseau urbain Transvilles"],"lt":0,"dept":"59"}},{"type":"Feature","geometry":{"type":"Point","coordinates":[3.31502,50.26223]},"properties":{"nom":"HORDAIN S. DE SPORT","ag":["Réseau urbain Transvilles"],"lt":0,"dept":"59"}},{"type":"Feature","geometry":{"type":"Point","coordinates":[3.51623,50.34258]},"properties":{"nom":"VOSGES","ag":["Réseau urbain Transvilles"],"lt":0,"dept":"59"}},{"type":"Feature","geometry":{"type":"Point","coordinates":[3.42116,50.31765]},"properties":{"nom":"HAULCHIN PYRAMIDE","ag":["Réseau urbain Transvilles"],"lt":0,"dept":"59"}},{"type":"Feature","geometry":{"type":"Point","coordinates":[3.42747,50.31558]},"properties":{"nom":"SENTIER DE DOUCHY","ag":["Réseau urbain Transvilles"],"lt":0,"dept":"59"}},{"type":"Feature","geometry":{"type":"Point","coordinates":[3.43375,50.31778]},"properties":{"nom":"HAULCHIN CENTRE","ag":["Réseau urbain Transvilles"],"lt":0,"dept":"59"}},{"type":"Feature","geometry":{"type":"Point","coordinates":[3.43864,50.31506]},"properties":{"nom":"CITE USINOR","ag":["Réseau urbain Transvilles"],"lt":0,"dept":"59"}},{"type":"Feature","geometry":{"type":"Point","coordinates":[3.43238,50.31168]},"properties":{"nom":"HAULCHIN GARE","ag":["Réseau urbain Transvilles"],"lt":0,"dept":"59"}},{"type":"Feature","geometry":{"type":"Point","coordinates":[3.59156,50.45726]},"properties":{"nom":"BERNISSART","ag":["Réseau urbain Transvilles"],"lt":0,"dept":"59"}},{"type":"Feature","geometry":{"type":"Point","coordinates":[3.50731,50.36154]},"properties":{"nom":"CHEMINOTS","ag":["Réseau urbain Transvilles"],"lt":0,"dept":"59"}},{"type":"Feature","geometry":{"type":"Point","coordinates":[3.5057,50.35903]},"properties":{"nom":"MONACO","ag":["Réseau urbain Transvilles"],"lt":0,"dept":"59"}},{"type":"Feature","geometry":{"type":"Point","coordinates":[3.3393,50.33136]},"properties":{"nom":"ESCAUDAIN STADE","ag":["Réseau urbain Transvilles"],"lt":0,"dept":"59"}},{"type":"Feature","geometry":{"type":"Point","coordinates":[3.46939,50.35315]},"properties":{"nom":"CENTRE F.P.A.","ag":["Réseau urbain Transvilles"],"lt":0,"dept":"59"}},{"type":"Feature","geometry":{"type":"Point","coordinates":[3.4614,50.35261]},"properties":{"nom":"JACQUET","ag":["Réseau urbain Transvilles"],"lt":0,"dept":"59"}},{"type":"Feature","geometry":{"type":"Point","coordinates":[3.45579,50.35253]},"properties":{"nom":"RAPART","ag":["Réseau urbain Transvilles"],"lt":0,"dept":"59"}},{"type":"Feature","geometry":{"type":"Point","coordinates":[3.45329,50.35538]},"properties":{"nom":"HERIN PL DU MONUMENT","ag":["Réseau urbain Transvilles"],"lt":0,"dept":"59"}},{"type":"Feature","geometry":{"type":"Point","coordinates":[3.45218,50.35797]},"properties":{"nom":"HERIN GRAND PLACE","ag":["Réseau urbain Transvilles"],"lt":0,"dept":"59"}},{"type":"Feature","geometry":{"type":"Point","coordinates":[3.53922,50.37445]},"properties":{"nom":"LA ROUGEVILLE","ag":["Réseau urbain Transvilles"],"lt":0,"dept":"59"}},{"type":"Feature","geometry":{"type":"Point","coordinates":[3.53451,50.37084]},"properties":{"nom":"MACAREZ","ag":["Réseau urbain Transvilles"],"lt":0,"dept":"59"}},{"type":"Feature","geometry":{"type":"Point","coordinates":[3.52841,50.36647]},"properties":{"nom":"HOTEL DES IMPOTS","ag":["Réseau urbain Transvilles"],"lt":0,"dept":"59"}},{"type":"Feature","geometry":{"type":"Point","coordinates":[3.48311,50.33676]},"properties":{"nom":"FLORENT GILLES","ag":["Réseau urbain Transvilles"],"lt":0,"dept":"59"}},{"type":"Feature","geometry":{"type":"Point","coordinates":[3.48804,50.33123]},"properties":{"nom":"TRITH GARE","ag":["Réseau urbain Transvilles"],"lt":0,"dept":"59"}},{"type":"Feature","geometry":{"type":"Point","coordinates":[3.483,50.32354]},"properties":{"nom":"TRITH PLACE","ag":["Réseau urbain Transvilles"],"lt":0,"dept":"59"}},{"type":"Feature","geometry":{"type":"Point","coordinates":[3.47997,50.32072]},"properties":{"nom":"TRITH FORT","ag":["Réseau urbain Transvilles"],"lt":0,"dept":"59"}},{"type":"Feature","geometry":{"type":"Point","coordinates":[3.47221,50.31951]},"properties":{"nom":"CLOUTERIE","ag":["Réseau urbain Transvilles"],"lt":0,"dept":"59"}},{"type":"Feature","geometry":{"type":"Point","coordinates":[3.46118,50.31634]},"properties":{"nom":"PROUVY GARE","ag":["Réseau urbain Transvilles"],"lt":0,"dept":"59"}},{"type":"Feature","geometry":{"type":"Point","coordinates":[3.45508,50.31546]},"properties":{"nom":"PROUVY P.N.","ag":["Réseau urbain Transvilles"],"lt":0,"dept":"59"}},{"type":"Feature","geometry":{"type":"Point","coordinates":[3.45139,50.32176]},"properties":{"nom":"SQUARE BEUGNIES","ag":["Réseau urbain Transvilles"],"lt":0,"dept":"59"}},{"type":"Feature","geometry":{"type":"Point","coordinates":[3.46614,50.36977]},"properties":{"nom":"AUBRY PLACE","ag":["Réseau urbain Transvilles"],"lt":0,"dept":"59"}},{"type":"Feature","geometry":{"type":"Point","coordinates":[3.45964,50.36783]},"properties":{"nom":"AUBRY LE MARAIS","ag":["Réseau urbain Transvilles"],"lt":0,"dept":"59"}},{"type":"Feature","geometry":{"type":"Point","coordinates":[3.45023,50.36058]},"properties":{"nom":"MARECHAL","ag":["Réseau urbain Transvilles"],"lt":0,"dept":"59"}},{"type":"Feature","geometry":{"type":"Point","coordinates":[3.44716,50.35972]},"properties":{"nom":"LE PLUS COURT","ag":["Réseau urbain Transvilles"],"lt":0,"dept":"59"}},{"type":"Feature","geometry":{"type":"Point","coordinates":[3.50702,50.34011]},"properties":{"nom":"LES SAULES","ag":["Réseau urbain Transvilles"],"lt":0,"dept":"59"}},{"type":"Feature","geometry":{"type":"Point","coordinates":[3.50405,50.33493]},"properties":{"nom":"HOTEL DES FORGES","ag":["Réseau urbain Transvilles"],"lt":0,"dept":"59"}},{"type":"Feature","geometry":{"type":"Point","coordinates":[3.50044,50.32186]},"properties":{"nom":"FONTENELLE","ag":["Réseau urbain Transvilles"],"lt":0,"dept":"59"}},{"type":"Feature","geometry":{"type":"Point","coordinates":[3.4834,50.32658]},"properties":{"nom":"TRITH CIMETIERE","ag":["Réseau urbain Transvilles"],"lt":0,"dept":"59"}},{"type":"Feature","geometry":{"type":"Point","coordinates":[3.48401,50.30824]},"properties":{"nom":"MAING MAIRIE","ag":["Réseau urbain Transvilles"],"lt":0,"dept":"59"}},{"type":"Feature","geometry":{"type":"Point","coordinates":[3.4793,50.30549]},"properties":{"nom":"CUVELIER","ag":["Réseau urbain Transvilles"],"lt":0,"dept":"59"}},{"type":"Feature","geometry":{"type":"Point","coordinates":[3.45101,50.30457]},"properties":{"nom":"THIANT PLACE","ag":["Réseau urbain Transvilles"],"lt":0,"dept":"59"}},{"type":"Feature","geometry":{"type":"Point","coordinates":[3.44807,50.30929]},"properties":{"nom":"THIANT CAOUTI","ag":["Réseau urbain Transvilles"],"lt":0,"dept":"59"}},{"type":"Feature","geometry":{"type":"Point","coordinates":[3.44571,50.30305]},"properties":{"nom":"THIANT JAURES","ag":["Réseau urbain Transvilles"],"lt":0,"dept":"59"}},{"type":"Feature","geometry":{"type":"Point","coordinates":[3.5765,50.3784]},"properties":{"nom":"BEAUDELIERS","ag":["Réseau urbain Transvilles"],"lt":0,"dept":"59"}},{"type":"Feature","geometry":{"type":"Point","coordinates":[3.48229,50.32503]},"properties":{"nom":"HUMANITE","ag":["Réseau urbain Transvilles"],"lt":0,"dept":"59"}},{"type":"Feature","geometry":{"type":"Point","coordinates":[3.52493,50.33948]},"properties":{"nom":"CHAMPAGNE","ag":["Réseau urbain Transvilles"],"lt":0,"dept":"59"}},{"type":"Feature","geometry":{"type":"Point","coordinates":[3.48553,50.39378]},"properties":{"nom":"MARAICAUX","ag":["Réseau urbain Transvilles"],"lt":0,"dept":"59"}},{"type":"Feature","geometry":{"type":"Point","coordinates":[3.56677,50.42633]},"properties":{"nom":"CAMBRINUS","ag":["Réseau urbain Transvilles"],"lt":0,"dept":"59"}},{"type":"Feature","geometry":{"type":"Point","coordinates":[3.38277,50.32251]},"properties":{"nom":"ETS DES FORGES","ag":["Réseau urbain Transvilles"],"lt":0,"dept":"59"}},{"type":"Feature","geometry":{"type":"Point","coordinates":[3.6407,50.34431]},"properties":{"nom":"CHAPELLE ST MARTIN","ag":["Réseau urbain Transvilles"],"lt":0,"dept":"59"}},{"type":"Feature","geometry":{"type":"Point","coordinates":[3.63796,50.35148]},"properties":{"nom":"CINQ QUARTS","ag":["Réseau urbain Transvilles"],"lt":0,"dept":"59"}},{"type":"Feature","geometry":{"type":"Point","coordinates":[3.6503,50.35225]},"properties":{"nom":"SEBOURQUIAUX CASCADE","ag":["Réseau urbain Transvilles"],"lt":0,"dept":"59"}},{"type":"Feature","geometry":{"type":"Point","coordinates":[3.6519,50.34055]},"properties":{"nom":"VERIMETZ","ag":["Réseau urbain Transvilles"],"lt":0,"dept":"59"}},{"type":"Feature","geometry":{"type":"Point","coordinates":[3.65248,50.33487]},"properties":{"nom":"SEBOURG TRIEZ","ag":["Réseau urbain Transvilles"],"lt":0,"dept":"59"}},{"type":"Feature","geometry":{"type":"Point","coordinates":[3.64515,50.34454]},"properties":{"nom":"SEBOURG EGLISE","ag":["Réseau urbain Transvilles"],"lt":0,"dept":"59"}},{"type":"Feature","geometry":{"type":"Point","coordinates":[3.64892,50.35038]},"properties":{"nom":"CORBEAU","ag":["Réseau urbain Transvilles"],"lt":0,"dept":"59"}},{"type":"Feature","geometry":{"type":"Point","coordinates":[3.65295,50.35119]},"properties":{"nom":"RUE D'EN HAUT","ag":["Réseau urbain Transvilles"],"lt":0,"dept":"59"}},{"type":"Feature","geometry":{"type":"Point","coordinates":[3.50109,50.3676]},"properties":{"nom":"ANZIN CIMETIERE","ag":["Réseau urbain Transvilles"],"lt":0,"dept":"59"}},{"type":"Feature","geometry":{"type":"Point","coordinates":[3.48113,50.33925]},"properties":{"nom":"7 CHEMINS","ag":["Réseau urbain Transvilles"],"lt":0,"dept":"59"}},{"type":"Feature","geometry":{"type":"Point","coordinates":[3.38312,50.37376]},"properties":{"nom":"WALLERS HERTAIN","ag":["Réseau urbain Transvilles"],"lt":0,"dept":"59"}},{"type":"Feature","geometry":{"type":"Point","coordinates":[3.38866,50.37251]},"properties":{"nom":"FERRER","ag":["Réseau urbain Transvilles"],"lt":0,"dept":"59"}},{"type":"Feature","geometry":{"type":"Point","coordinates":[3.40171,50.37577]},"properties":{"nom":"MERONETTE","ag":["Réseau urbain Transvilles"],"lt":0,"dept":"59"}},{"type":"Feature","geometry":{"type":"Point","coordinates":[3.4088,50.38033]},"properties":{"nom":"BLANQUART","ag":["Réseau urbain Transvilles"],"lt":0,"dept":"59"}},{"type":"Feature","geometry":{"type":"Point","coordinates":[3.41219,50.37721]},"properties":{"nom":"BOUTON","ag":["Réseau urbain Transvilles"],"lt":0,"dept":"59"}},{"type":"Feature","geometry":{"type":"Point","coordinates":[3.42265,50.37777]},"properties":{"nom":"ARENBERG BARRIERE","ag":["Réseau urbain Transvilles"],"lt":0,"dept":"59"}},{"type":"Feature","geometry":{"type":"Point","coordinates":[3.42669,50.38446]},"properties":{"nom":"ARENBERG FOSSE","ag":["Réseau urbain Transvilles"],"lt":0,"dept":"59"}},{"type":"Feature","geometry":{"type":"Point","coordinates":[3.42997,50.37914]},"properties":{"nom":"COUCOU","ag":["Réseau urbain Transvilles"],"lt":0,"dept":"59"}},{"type":"Feature","geometry":{"type":"Point","coordinates":[3.43006,50.37623]},"properties":{"nom":"VERDUN","ag":["Réseau urbain Transvilles"],"lt":0,"dept":"59"}},{"type":"Feature","geometry":{"type":"Point","coordinates":[3.43057,50.37275]},"properties":{"nom":"BELLAING ECOLES","ag":["Réseau urbain Transvilles"],"lt":0,"dept":"59"}},{"type":"Feature","geometry":{"type":"Point","coordinates":[3.42872,50.36808]},"properties":{"nom":"BELLAING CALVAIRE","ag":["Réseau urbain Transvilles"],"lt":0,"dept":"59"}},{"type":"Feature","geometry":{"type":"Point","coordinates":[3.43742,50.36359]},"properties":{"nom":"OISY PAQUERETTES","ag":["Réseau urbain Transvilles"],"lt":0,"dept":"59"}},{"type":"Feature","geometry":{"type":"Point","coordinates":[3.44304,50.3605]},"properties":{"nom":"MARTIAL REGNIER","ag":["Réseau urbain Transvilles"],"lt":0,"dept":"59"}},{"type":"Feature","geometry":{"type":"Point","coordinates":[3.30901,50.30468]},"properties":{"nom":"MASTAING CHAPELLE","ag":["Réseau urbain Transvilles"],"lt":0,"dept":"59"}},{"type":"Feature","geometry":{"type":"Point","coordinates":[3.30664,50.30699]},"properties":{"nom":"JULES FERRY","ag":["Réseau urbain Transvilles"],"lt":0,"dept":"59"}},{"type":"Feature","geometry":{"type":"Point","coordinates":[3.3028,50.30701]},"properties":{"nom":"MASTAING MAIRIE","ag":["Réseau urbain Transvilles"],"lt":0,"dept":"59"}},{"type":"Feature","geometry":{"type":"Point","coordinates":[3.39996,50.35795]},"properties":{"nom":"ANCIENNE GARE","ag":["Réseau urbain Transvilles"],"lt":0,"dept":"59"}},{"type":"Feature","geometry":{"type":"Point","coordinates":[3.42448,50.36726]},"properties":{"nom":"BELLAING PLACE","ag":["Réseau urbain Transvilles"],"lt":0,"dept":"59"}},{"type":"Feature","geometry":{"type":"Point","coordinates":[3.42026,50.36564]},"properties":{"nom":"NOUVELLES MAISONS","ag":["Réseau urbain Transvilles"],"lt":0,"dept":"59"}},{"type":"Feature","geometry":{"type":"Point","coordinates":[3.50012,50.37869]},"properties":{"nom":"LUCIEN JONAS","ag":["Réseau urbain Transvilles"],"lt":0,"dept":"59"}},{"type":"Feature","geometry":{"type":"Point","coordinates":[3.50489,50.37802]},"properties":{"nom":"LE RUISSARD","ag":["Réseau urbain Transvilles"],"lt":0,"dept":"59"}},{"type":"Feature","geometry":{"type":"Point","coordinates":[3.3504,50.33494]},"properties":{"nom":"MARCEAU","ag":["Réseau urbain Transvilles"],"lt":0,"dept":"59"}},{"type":"Feature","geometry":{"type":"Point","coordinates":[3.48764,50.37059]},"properties":{"nom":"LAURIERS","ag":["Réseau urbain Transvilles"],"lt":0,"dept":"59"}},{"type":"Feature","geometry":{"type":"Point","coordinates":[3.45415,50.36229]},"properties":{"nom":"HERIN CIMETIERE","ag":["Réseau urbain Transvilles"],"lt":0,"dept":"59"}},{"type":"Feature","geometry":{"type":"Point","coordinates":[3.42884,50.43376]},"properties":{"nom":"COLLINIERE","ag":["Réseau urbain Transvilles"],"lt":0,"dept":"59"}},{"type":"Feature","geometry":{"type":"Point","coordinates":[3.55406,50.34592]},"properties":{"nom":"ALBERT SCHWEITZER","ag":["Réseau urbain Transvilles"],"lt":0,"dept":"59"}},{"type":"Feature","geometry":{"type":"Point","coordinates":[3.5977,50.33181]},"properties":{"nom":"AUBEPINES","ag":["Réseau urbain Transvilles"],"lt":0,"dept":"59"}},{"type":"Feature","geometry":{"type":"Point","coordinates":[3.4764,50.36874]},"properties":{"nom":"PETITE FORET PLACE","ag":["Réseau urbain Transvilles"],"lt":0,"dept":"59"}},{"type":"Feature","geometry":{"type":"Point","coordinates":[3.51258,50.31998]},"properties":{"nom":"UNIVERSITE","ag":["Réseau urbain Transvilles"],"lt":0,"dept":"59"}},{"type":"Feature","geometry":{"type":"Point","coordinates":[3.56094,50.36858]},"properties":{"nom":"ST SAULVE BOSQUET","ag":["Réseau urbain Transvilles"],"lt":0,"dept":"59"}},{"type":"Feature","geometry":{"type":"Point","coordinates":[3.40968,50.42784]},"properties":{"nom":"ANGUILLE","ag":["Réseau urbain Transvilles"],"lt":0,"dept":"59"}},{"type":"Feature","geometry":{"type":"Point","coordinates":[3.43827,50.44328]},"properties":{"nom":"PASINO","ag":["Réseau urbain Transvilles"],"lt":0,"dept":"59"}},{"type":"Feature","geometry":{"type":"Point","coordinates":[3.52766,50.3639]},"properties":{"nom":"HARPIGNIES","ag":["Réseau urbain Transvilles"],"lt":0,"dept":"59"}},{"type":"Feature","geometry":{"type":"Point","coordinates":[3.50672,50.36456]},"properties":{"nom":"VALMONT","ag":["Réseau urbain Transvilles"],"lt":0,"dept":"59"}},{"type":"Feature","geometry":{"type":"Point","coordinates":[3.62511,50.38931]},"properties":{"nom":"GAMBETTA","ag":["Réseau urbain Transvilles"],"lt":0,"dept":"59"}},{"type":"Feature","geometry":{"type":"Point","coordinates":[3.5502,50.38789]},"properties":{"nom":"ST SAULVE LECUYER","ag":["Réseau urbain Transvilles"],"lt":0,"dept":"59"}},{"type":"Feature","geometry":{"type":"Point","coordinates":[3.31067,50.33824]},"properties":{"nom":"ST MARK","ag":["Réseau urbain Transvilles"],"lt":0,"dept":"59"}},{"type":"Feature","geometry":{"type":"Point","coordinates":[3.30637,50.33974]},"properties":{"nom":"CHARMILLES","ag":["Réseau urbain Transvilles"],"lt":0,"dept":"59"}},{"type":"Feature","geometry":{"type":"Point","coordinates":[3.51678,50.35134]},"properties":{"nom":"VAL STE CATHERINE","ag":["Réseau urbain Transvilles"],"lt":0,"dept":"59"}},{"type":"Feature","geometry":{"type":"Point","coordinates":[3.44273,50.43972]},"properties":{"nom":"ST AMAND TRETOIRE","ag":["Réseau urbain Transvilles"],"lt":0,"dept":"59"}},{"type":"Feature","geometry":{"type":"Point","coordinates":[3.44637,50.43882]},"properties":{"nom":"COUTEAUX","ag":["Réseau urbain Transvilles"],"lt":0,"dept":"59"}},{"type":"Feature","geometry":{"type":"Point","coordinates":[3.45212,50.4373]},"properties":{"nom":"MONT DES BRUYERES","ag":["Réseau urbain Transvilles"],"lt":0,"dept":"59"}},{"type":"Feature","geometry":{"type":"Point","coordinates":[3.45547,50.44067]},"properties":{"nom":"CHENE CRUPEAU","ag":["Réseau urbain Transvilles"],"lt":0,"dept":"59"}},{"type":"Feature","geometry":{"type":"Point","coordinates":[3.46038,50.44559]},"properties":{"nom":"CROISETTE","ag":["Réseau urbain Transvilles"],"lt":0,"dept":"59"}},{"type":"Feature","geometry":{"type":"Point","coordinates":[3.50305,50.38613]},"properties":{"nom":"PARC DERASSE","ag":["Réseau urbain Transvilles"],"lt":0,"dept":"59"}},{"type":"Feature","geometry":{"type":"Point","coordinates":[3.57358,50.43385]},"properties":{"nom":"BANCEL","ag":["Réseau urbain Transvilles"],"lt":0,"dept":"59"}},{"type":"Feature","geometry":{"type":"Point","coordinates":[3.5628,50.43978]},"properties":{"nom":"HARDY","ag":["Réseau urbain Transvilles"],"lt":0,"dept":"59"}},{"type":"Feature","geometry":{"type":"Point","coordinates":[3.5534,50.43979]},"properties":{"nom":"RUE DU BOIS","ag":["Réseau urbain Transvilles"],"lt":0,"dept":"59"}},{"type":"Feature","geometry":{"type":"Point","coordinates":[3.55382,50.44399]},"properties":{"nom":"PYCK","ag":["Réseau urbain Transvilles"],"lt":0,"dept":"59"}},{"type":"Feature","geometry":{"type":"Point","coordinates":[3.55469,50.44857]},"properties":{"nom":"CHENE A L' IMAGE","ag":["Réseau urbain Transvilles"],"lt":0,"dept":"59"}},{"type":"Feature","geometry":{"type":"Point","coordinates":[3.546,50.4526]},"properties":{"nom":"ODOMEZ CITE","ag":["Réseau urbain Transvilles"],"lt":0,"dept":"59"}},{"type":"Feature","geometry":{"type":"Point","coordinates":[3.53693,50.45581]},"properties":{"nom":"ODOMEZ MAIRIE","ag":["Réseau urbain Transvilles"],"lt":0,"dept":"59"}},{"type":"Feature","geometry":{"type":"Point","coordinates":[3.63419,50.43958]},"properties":{"nom":"THIVENCELLE MAIRIE","ag":["Réseau urbain Transvilles"],"lt":0,"dept":"59"}},{"type":"Feature","geometry":{"type":"Point","coordinates":[3.66082,50.42458]},"properties":{"nom":"O'REILLY","ag":["Réseau urbain Transvilles"],"lt":0,"dept":"59"}},{"type":"Feature","geometry":{"type":"Point","coordinates":[3.66045,50.42856]},"properties":{"nom":"LA FOLIE","ag":["Réseau urbain Transvilles"],"lt":0,"dept":"59"}},{"type":"Feature","geometry":{"type":"Point","coordinates":[3.64613,50.44511]},"properties":{"nom":"BELLEUSE","ag":["Réseau urbain Transvilles"],"lt":0,"dept":"59"}},{"type":"Feature","geometry":{"type":"Point","coordinates":[3.64187,50.44371]},"properties":{"nom":"CALVAIRE ST ROCH","ag":["Réseau urbain Transvilles"],"lt":0,"dept":"59"}},{"type":"Feature","geometry":{"type":"Point","coordinates":[3.59389,50.4461]},"properties":{"nom":"ST PIERRE","ag":["Réseau urbain Transvilles"],"lt":0,"dept":"59"}},{"type":"Feature","geometry":{"type":"Point","coordinates":[3.60362,50.3929]},"properties":{"nom":"VENOT","ag":["Réseau urbain Transvilles"],"lt":0,"dept":"59"}},{"type":"Feature","geometry":{"type":"Point","coordinates":[3.60414,50.3981]},"properties":{"nom":"POUDRIERE","ag":["Réseau urbain Transvilles"],"lt":0,"dept":"59"}},{"type":"Feature","geometry":{"type":"Point","coordinates":[3.608,50.39893]},"properties":{"nom":"RIBERY","ag":["Réseau urbain Transvilles"],"lt":0,"dept":"59"}},{"type":"Feature","geometry":{"type":"Point","coordinates":[3.6125,50.39756]},"properties":{"nom":"CHAPELLE DU MARAIS","ag":["Réseau urbain Transvilles"],"lt":0,"dept":"59"}},{"type":"Feature","geometry":{"type":"Point","coordinates":[3.61007,50.4038]},"properties":{"nom":"LES ECUMEES","ag":["Réseau urbain Transvilles"],"lt":0,"dept":"59"}},{"type":"Feature","geometry":{"type":"Point","coordinates":[3.59601,50.41501]},"properties":{"nom":"RUE DE FRESNES","ag":["Réseau urbain Transvilles"],"lt":0,"dept":"59"}},{"type":"Feature","geometry":{"type":"Point","coordinates":[3.58619,50.41972]},"properties":{"nom":"SPIRO GILLS","ag":["Réseau urbain Transvilles"],"lt":0,"dept":"59"}},{"type":"Feature","geometry":{"type":"Point","coordinates":[3.57951,50.43047]},"properties":{"nom":"PLATEAU","ag":["Réseau urbain Transvilles"],"lt":0,"dept":"59"}},{"type":"Feature","geometry":{"type":"Point","coordinates":[3.33247,50.30504]},"properties":{"nom":"GHESQUIERE","ag":["Réseau urbain Transvilles"],"lt":0,"dept":"59"}},{"type":"Feature","geometry":{"type":"Point","coordinates":[3.32619,50.30687]},"properties":{"nom":"ROEULX ALOUETTE","ag":["Réseau urbain Transvilles"],"lt":0,"dept":"59"}},{"type":"Feature","geometry":{"type":"Point","coordinates":[3.32822,50.30959]},"properties":{"nom":"ROEULX ROQUEBRUNE","ag":["Réseau urbain Transvilles"],"lt":0,"dept":"59"}},{"type":"Feature","geometry":{"type":"Point","coordinates":[3.6378,50.44256]},"properties":{"nom":"VARSOVIE","ag":["Réseau urbain Transvilles"],"lt":0,"dept":"59"}},{"type":"Feature","geometry":{"type":"Point","coordinates":[3.53676,50.39316]},"properties":{"nom":"LOUISE MICHEL","ag":["Réseau urbain Transvilles"],"lt":0,"dept":"59"}},{"type":"Feature","geometry":{"type":"Point","coordinates":[3.54576,50.49344]},"properties":{"nom":"BAYONNE PLACE","ag":["Réseau urbain Transvilles"],"lt":0,"dept":"59"}},{"type":"Feature","geometry":{"type":"Point","coordinates":[3.44119,50.44719]},"properties":{"nom":"LYCEE COUTEAUX","ag":["Réseau urbain Transvilles"],"lt":0,"dept":"59"}},{"type":"Feature","geometry":{"type":"Point","coordinates":[3.43522,50.45082]},"properties":{"nom":"INTERVILLE","ag":["Réseau urbain Transvilles"],"lt":0,"dept":"59"}},{"type":"Feature","geometry":{"type":"Point","coordinates":[3.43457,50.45361]},"properties":{"nom":"PLATANES","ag":["Réseau urbain Transvilles"],"lt":0,"dept":"59"}},{"type":"Feature","geometry":{"type":"Point","coordinates":[3.37818,50.34308]},"properties":{"nom":"SALLE BAUDUIN","ag":["Réseau urbain Transvilles"],"lt":0,"dept":"59"}},{"type":"Feature","geometry":{"type":"Point","coordinates":[3.4449,50.3276]},"properties":{"nom":"ROUVIGNIES HERLY","ag":["Réseau urbain Transvilles"],"lt":0,"dept":"59"}},{"type":"Feature","geometry":{"type":"Point","coordinates":[3.47674,50.36556]},"properties":{"nom":"CLG P.-G. DE GENNES","ag":["Réseau urbain Transvilles"],"lt":0,"dept":"59"}},{"type":"Feature","geometry":{"type":"Point","coordinates":[3.44029,50.43575]},"properties":{"nom":"ST AMAND CENTRE COM.","ag":["Réseau urbain Transvilles"],"lt":0,"dept":"59"}},{"type":"Feature","geometry":{"type":"Point","coordinates":[3.39929,50.29898]},"properties":{"nom":"COLLEGE EMILE LITTRE","ag":["Réseau urbain Transvilles"],"lt":0,"dept":"59"}},{"type":"Feature","geometry":{"type":"Point","coordinates":[3.33656,50.27335]},"properties":{"nom":"TANNERIE","ag":["Réseau urbain Transvilles"],"lt":0,"dept":"59"}},{"type":"Feature","geometry":{"type":"Point","coordinates":[3.44866,50.43772]},"properties":{"nom":"GROS PIN","ag":["Réseau urbain Transvilles"],"lt":0,"dept":"59"}},{"type":"Feature","geometry":{"type":"Point","coordinates":[3.6049,50.46995]},"properties":{"nom":"DEFRICHE CIMETIERE","ag":["Réseau urbain Transvilles"],"lt":0,"dept":"59"}},{"type":"Feature","geometry":{"type":"Point","coordinates":[3.44867,50.44849]},"properties":{"nom":"ROUTE DE CONDE","ag":["Réseau urbain Transvilles"],"lt":0,"dept":"59"}},{"type":"Feature","geometry":{"type":"Point","coordinates":[3.39463,50.36902]},"properties":{"nom":"EPI D' OR","ag":["Réseau urbain Transvilles"],"lt":0,"dept":"59"}},{"type":"Feature","geometry":{"type":"Point","coordinates":[3.54628,50.28645]},"properties":{"nom":"ARTRES GARE","ag":["Réseau urbain Transvilles"],"lt":0,"dept":"59"}},{"type":"Feature","geometry":{"type":"Point","coordinates":[3.36696,50.31413]},"properties":{"nom":"RESIDENCE DU CHATEAU","ag":["Réseau urbain Transvilles"],"lt":0,"dept":"59"}},{"type":"Feature","geometry":{"type":"Point","coordinates":[3.36227,50.31245]},"properties":{"nom":"LOURCHES CIMETIERE","ag":["Réseau urbain Transvilles"],"lt":0,"dept":"59"}},{"type":"Feature","geometry":{"type":"Point","coordinates":[3.42593,50.44879]},"properties":{"nom":"RUE DU BRUILLE","ag":["Réseau urbain Transvilles"],"lt":0,"dept":"59"}},{"type":"Feature","geometry":{"type":"Point","coordinates":[3.49779,50.35156]},"properties":{"nom":"ROMANEE","ag":["Réseau urbain Transvilles"],"lt":0,"dept":"59"}},{"type":"Feature","geometry":{"type":"Point","coordinates":[3.49562,50.35077]},"properties":{"nom":"DIANE","ag":["Réseau urbain Transvilles"],"lt":0,"dept":"59"}},{"type":"Feature","geometry":{"type":"Point","coordinates":[3.51568,50.46377]},"properties":{"nom":"LES 4 VENTS","ag":["Réseau urbain Transvilles"],"lt":0,"dept":"59"}},{"type":"Feature","geometry":{"type":"Point","coordinates":[3.52048,50.45468]},"properties":{"nom":"BRUILLE MAIRIE","ag":["Réseau urbain Transvilles"],"lt":0,"dept":"59"}},{"type":"Feature","geometry":{"type":"Point","coordinates":[3.51009,50.45718]},"properties":{"nom":"BRUILLE CIMETIERE","ag":["Réseau urbain Transvilles"],"lt":0,"dept":"59"}},{"type":"Feature","geometry":{"type":"Point","coordinates":[3.36363,50.35347]},"properties":{"nom":"LEBAS","ag":["Réseau urbain Transvilles"],"lt":0,"dept":"59"}},{"type":"Feature","geometry":{"type":"Point","coordinates":[3.55829,50.34403]},"properties":{"nom":"MARLY HENRI BARBUSSE","ag":["Réseau urbain Transvilles"],"lt":0,"dept":"59"}},{"type":"Feature","geometry":{"type":"Point","coordinates":[3.37618,50.25181]},"properties":{"nom":"AVESNES EGLISE","ag":["Réseau urbain Transvilles"],"lt":0,"dept":"59"}},{"type":"Feature","geometry":{"type":"Point","coordinates":[3.37481,50.2492]},"properties":{"nom":"AVESNES MAIRIE","ag":["Réseau urbain Transvilles"],"lt":0,"dept":"59"}},{"type":"Feature","geometry":{"type":"Point","coordinates":[3.43011,50.45365]},"properties":{"nom":"ST AMAND ELNON","ag":["Réseau urbain Transvilles"],"lt":0,"dept":"59"}},{"type":"Feature","geometry":{"type":"Point","coordinates":[3.49452,50.31701]},"properties":{"nom":"LA ROUGE PLIE","ag":["Réseau urbain Transvilles"],"lt":0,"dept":"59"}},{"type":"Feature","geometry":{"type":"Point","coordinates":[3.31565,50.26307]},"properties":{"nom":"HORDAIN S. DE SPORT","ag":["Réseau urbain Transvilles"],"lt":0,"dept":"59"}},{"type":"Feature","geometry":{"type":"Point","coordinates":[3.57656,50.46159]},"properties":{"nom":"AUGUSTIN BAY","ag":["Réseau urbain Transvilles"],"lt":0,"dept":"59"}},{"type":"Feature","geometry":{"type":"Point","coordinates":[3.37719,50.24836]},"properties":{"nom":"PLACE DU MARCLAU","ag":["Réseau urbain Transvilles"],"lt":0,"dept":"59"}},{"type":"Feature","geometry":{"type":"Point","coordinates":[3.3861,50.24471]},"properties":{"nom":"AVESNES GARE","ag":["Réseau urbain Transvilles"],"lt":0,"dept":"59"}},{"type":"Feature","geometry":{"type":"Point","coordinates":[3.47122,50.3707]},"properties":{"nom":"FOYER NOTRE DAME","ag":["Réseau urbain Transvilles"],"lt":0,"dept":"59"}},{"type":"Feature","geometry":{"type":"Point","coordinates":[3.46148,50.36926]},"properties":{"nom":"LES CHARMES","ag":["Réseau urbain Transvilles"],"lt":0,"dept":"59"}},{"type":"Feature","geometry":{"type":"Point","coordinates":[3.45932,50.3038]},"properties":{"nom":"CLG J.-J. ROUSSEAU","ag":["Réseau urbain Transvilles"],"lt":0,"dept":"59"}},{"type":"Feature","geometry":{"type":"Point","coordinates":[3.48339,50.33293]},"properties":{"nom":"TRITH DE VINCI","ag":["Réseau urbain Transvilles"],"lt":0,"dept":"59"}},{"type":"Feature","geometry":{"type":"Point","coordinates":[3.4794,50.33006]},"properties":{"nom":"CEZANNE","ag":["Réseau urbain Transvilles"],"lt":0,"dept":"59"}},{"type":"Feature","geometry":{"type":"Point","coordinates":[3.47955,50.32802]},"properties":{"nom":"CLOS ARAGON","ag":["Réseau urbain Transvilles"],"lt":0,"dept":"59"}},{"type":"Feature","geometry":{"type":"Point","coordinates":[3.48482,50.38838]},"properties":{"nom":"LE PLOUICH","ag":["Réseau urbain Transvilles"],"lt":0,"dept":"59"}},{"type":"Feature","geometry":{"type":"Point","coordinates":[3.48727,50.386]},"properties":{"nom":"MUSMEAUX","ag":["Réseau urbain Transvilles"],"lt":0,"dept":"59"}},{"type":"Feature","geometry":{"type":"Point","coordinates":[3.48294,50.38357]},"properties":{"nom":"MARCEL SEMBAT","ag":["Réseau urbain Transvilles"],"lt":0,"dept":"59"}},{"type":"Feature","geometry":{"type":"Point","coordinates":[3.47804,50.38174]},"properties":{"nom":"BOSQUET","ag":["Réseau urbain Transvilles"],"lt":0,"dept":"59"}},{"type":"Feature","geometry":{"type":"Point","coordinates":[3.53171,50.35926]},"properties":{"nom":"PATER","ag":["Réseau urbain Transvilles"],"lt":0,"dept":"59"}},{"type":"Feature","geometry":{"type":"Point","coordinates":[3.34581,50.29681]},"properties":{"nom":"LAMENDIN","ag":["Réseau urbain Transvilles"],"lt":0,"dept":"59"}},{"type":"Feature","geometry":{"type":"Point","coordinates":[3.3835,50.41061]},"properties":{"nom":"CHOQUE","ag":["Réseau urbain Transvilles"],"lt":0,"dept":"59"}},{"type":"Feature","geometry":{"type":"Point","coordinates":[3.37615,50.41323]},"properties":{"nom":"LE CREUSOT","ag":["Réseau urbain Transvilles"],"lt":0,"dept":"59"}},{"type":"Feature","geometry":{"type":"Point","coordinates":[3.43218,50.44781]},"properties":{"nom":"ST AMAND HOPITAL","ag":["Réseau urbain Transvilles"],"lt":0,"dept":"59"}},{"type":"Feature","geometry":{"type":"Point","coordinates":[3.65824,50.44451]},"properties":{"nom":"LA SAVERNIERE","ag":["Réseau urbain Transvilles"],"lt":0,"dept":"59"}},{"type":"Feature","geometry":{"type":"Point","coordinates":[3.65466,50.44786]},"properties":{"nom":"ST AYBERT PLACE","ag":["Réseau urbain Transvilles"],"lt":0,"dept":"59"}},{"type":"Feature","geometry":{"type":"Point","coordinates":[3.64791,50.44699]},"properties":{"nom":"CITE LEDE","ag":["Réseau urbain Transvilles"],"lt":0,"dept":"59"}},{"type":"Feature","geometry":{"type":"Point","coordinates":[3.54042,50.34964]},"properties":{"nom":"MARLY EGLISE","ag":["Réseau urbain Transvilles"],"lt":0,"dept":"59"}},{"type":"Feature","geometry":{"type":"Point","coordinates":[3.47611,50.26717]},"properties":{"nom":"VERCHAIN EGLISE","ag":["Réseau urbain Transvilles"],"lt":0,"dept":"59"}},{"type":"Feature","geometry":{"type":"Point","coordinates":[3.46402,50.26901]},"properties":{"nom":"LA LAYETTE","ag":["Réseau urbain Transvilles"],"lt":0,"dept":"59"}},{"type":"Feature","geometry":{"type":"Point","coordinates":[3.46881,50.26721]},"properties":{"nom":"LA JARDINIERE","ag":["Réseau urbain Transvilles"],"lt":0,"dept":"59"}},{"type":"Feature","geometry":{"type":"Point","coordinates":[3.47579,50.26617]},"properties":{"nom":"HECQUET","ag":["Réseau urbain Transvilles"],"lt":0,"dept":"59"}},{"type":"Feature","geometry":{"type":"Point","coordinates":[3.5226,50.36006]},"properties":{"nom":"PLACE DU HAINAUT","ag":["Réseau urbain Transvilles"],"lt":0,"dept":"59"}},{"type":"Feature","geometry":{"type":"Point","coordinates":[3.47691,50.26908]},"properties":{"nom":"VERCHAIN MAIRIE","ag":["Réseau urbain Transvilles"],"lt":0,"dept":"59"}},{"type":"Feature","geometry":{"type":"Point","coordinates":[3.40852,50.45067]},"properties":{"nom":"RUE DU CARME","ag":["Réseau urbain Transvilles"],"lt":0,"dept":"59"}},{"type":"Feature","geometry":{"type":"Point","coordinates":[3.40278,50.44825]},"properties":{"nom":"PLACE SAUBOIS","ag":["Réseau urbain Transvilles"],"lt":0,"dept":"59"}},{"type":"Feature","geometry":{"type":"Point","coordinates":[3.64616,50.36445]},"properties":{"nom":"PLACE DU PARQUIAU","ag":["Réseau urbain Transvilles"],"lt":0,"dept":"59"}},{"type":"Feature","geometry":{"type":"Point","coordinates":[3.66038,50.38719]},"properties":{"nom":"QUIEVRECHAIN PUITS 2","ag":["Réseau urbain Transvilles"],"lt":0,"dept":"59"}},{"type":"Feature","geometry":{"type":"Point","coordinates":[3.66519,50.39756]},"properties":{"nom":"GUY MORELLE","ag":["Réseau urbain Transvilles"],"lt":0,"dept":"59"}},{"type":"Feature","geometry":{"type":"Point","coordinates":[3.65478,50.34606]},"properties":{"nom":"BAISIEUX","ag":["Réseau urbain Transvilles"],"lt":0,"dept":"59"}},{"type":"Feature","geometry":{"type":"Point","coordinates":[3.4008,50.44414]},"properties":{"nom":"ESPACE SANTE","ag":["Réseau urbain Transvilles"],"lt":0,"dept":"59"}},{"type":"Feature","geometry":{"type":"Point","coordinates":[3.34807,50.27165]},"properties":{"nom":"CALMETTE","ag":["Réseau urbain Transvilles"],"lt":0,"dept":"59"}},{"type":"Feature","geometry":{"type":"Point","coordinates":[3.39029,50.43967]},"properties":{"nom":"CHAMP DES OISEAUX","ag":["Réseau urbain Transvilles"],"lt":0,"dept":"59"}},{"type":"Feature","geometry":{"type":"Point","coordinates":[3.3946,50.44018]},"properties":{"nom":"PA MOULIN BLANC","ag":["Réseau urbain Transvilles"],"lt":0,"dept":"59"}},{"type":"Feature","geometry":{"type":"Point","coordinates":[3.49112,50.30796]},"properties":{"nom":"FRANC MANTEAU","ag":["Réseau urbain Transvilles"],"lt":0,"dept":"59"}},{"type":"Feature","geometry":{"type":"Point","coordinates":[3.4288,50.32127]},"properties":{"nom":"LE SCOTCH","ag":["Réseau urbain Transvilles"],"lt":0,"dept":"59"}},{"type":"Feature","geometry":{"type":"Point","coordinates":[3.44902,50.28591]},"properties":{"nom":"MONCHAUX CHAPELLE","ag":["Réseau urbain Transvilles"],"lt":0,"dept":"59"}},{"type":"Feature","geometry":{"type":"Point","coordinates":[3.57312,50.34369]},"properties":{"nom":"SAULTAIN PARADIS","ag":["Réseau urbain Transvilles"],"lt":0,"dept":"59"}},{"type":"Feature","geometry":{"type":"Point","coordinates":[3.45552,50.28616]},"properties":{"nom":"MONCHAUX MAIRIE","ag":["Réseau urbain Transvilles"],"lt":0,"dept":"59"}},{"type":"Feature","geometry":{"type":"Point","coordinates":[3.39979,50.31521]},"properties":{"nom":"CITE MUSMEAUX","ag":["Réseau urbain Transvilles"],"lt":0,"dept":"59"}},{"type":"Feature","geometry":{"type":"Point","coordinates":[3.48349,50.3297]},"properties":{"nom":"CASANOVA","ag":["Réseau urbain Transvilles"],"lt":0,"dept":"59"}},{"type":"Feature","geometry":{"type":"Point","coordinates":[3.43172,50.36631]},"properties":{"nom":"BELLAING VIRAGES","ag":["Réseau urbain Transvilles"],"lt":0,"dept":"59"}},{"type":"Feature","geometry":{"type":"Point","coordinates":[3.25427,50.31319]},"properties":{"nom":"EMERCHICOURT MAIRIE","ag":["Réseau urbain Transvilles"],"lt":0,"dept":"59"}},{"type":"Feature","geometry":{"type":"Point","coordinates":[3.53479,50.36151]},"properties":{"nom":"327 IEME R.I","ag":["Réseau urbain Transvilles"],"lt":0,"dept":"59"}},{"type":"Feature","geometry":{"type":"Point","coordinates":[3.44318,50.31062]},"properties":{"nom":"CASTOR","ag":["Réseau urbain Transvilles"],"lt":0,"dept":"59"}},{"type":"Feature","geometry":{"type":"Point","coordinates":[3.31101,50.25885]},"properties":{"nom":"CH. D' EXPLOITATION","ag":["Réseau urbain Transvilles"],"lt":0,"dept":"59"}},{"type":"Feature","geometry":{"type":"Point","coordinates":[3.30544,50.25497]},"properties":{"nom":"HORDAIN PONT","ag":["Réseau urbain Transvilles"],"lt":0,"dept":"59"}},{"type":"Feature","geometry":{"type":"Point","coordinates":[3.30053,50.25617]},"properties":{"nom":"BOUCHAIN BASSIN ROND","ag":["Réseau urbain Transvilles"],"lt":0,"dept":"59"}},{"type":"Feature","geometry":{"type":"Point","coordinates":[3.40523,50.32061]},"properties":{"nom":"FERME THONVILLE","ag":["Réseau urbain Transvilles"],"lt":0,"dept":"59"}},{"type":"Feature","geometry":{"type":"Point","coordinates":[3.6445,50.36748]},"properties":{"nom":"DAUPHIN","ag":["Réseau urbain Transvilles"],"lt":0,"dept":"59"}},{"type":"Feature","geometry":{"type":"Point","coordinates":[3.51181,50.37663]},"properties":{"nom":"RUE DE PARIS","ag":["Réseau urbain Transvilles"],"lt":0,"dept":"59"}},{"type":"Feature","geometry":{"type":"Point","coordinates":[3.45231,50.32498]},"properties":{"nom":"BLERIOT","ag":["Réseau urbain Transvilles"],"lt":0,"dept":"59"}},{"type":"Feature","geometry":{"type":"Point","coordinates":[3.46752,50.45338]},"properties":{"nom":"GSK","ag":["Réseau urbain Transvilles"],"lt":0,"dept":"59"}},{"type":"Feature","geometry":{"type":"Point","coordinates":[3.49125,50.31115]},"properties":{"nom":"LA RIE","ag":["Réseau urbain Transvilles"],"lt":0,"dept":"59"}},{"type":"Feature","geometry":{"type":"Point","coordinates":[3.33723,50.27958]},"properties":{"nom":"RN 30","ag":["Réseau urbain Transvilles"],"lt":0,"dept":"59"}},{"type":"Feature","geometry":{"type":"Point","coordinates":[3.34136,50.29036]},"properties":{"nom":"LES CARRIERES","ag":["Réseau urbain Transvilles"],"lt":0,"dept":"59"}},{"type":"Feature","geometry":{"type":"Point","coordinates":[3.2647,50.31575]},"properties":{"nom":"BOUCHAIN","ag":["Réseau urbain Transvilles"],"lt":0,"dept":"59"}},{"type":"Feature","geometry":{"type":"Point","coordinates":[3.47688,50.4438]},"properties":{"nom":"CENTRE THERMAL","ag":["Réseau urbain Transvilles"],"lt":0,"dept":"59"}},{"type":"Feature","geometry":{"type":"Point","coordinates":[3.49098,50.3518]},"properties":{"nom":"DUBLED","ag":["Réseau urbain Transvilles"],"lt":0,"dept":"59"}},{"type":"Feature","geometry":{"type":"Point","coordinates":[3.46324,50.45616]},"properties":{"nom":"CUBRAY","ag":["Réseau urbain Transvilles"],"lt":0,"dept":"59"}},{"type":"Feature","geometry":{"type":"Point","coordinates":[3.47021,50.45723]},"properties":{"nom":"LES ROSIERES","ag":["Réseau urbain Transvilles"],"lt":0,"dept":"59"}},{"type":"Feature","geometry":{"type":"Point","coordinates":[3.49438,50.46016]},"properties":{"nom":"LA TAILLETTE","ag":["Réseau urbain Transvilles"],"lt":0,"dept":"59"}},{"type":"Feature","geometry":{"type":"Point","coordinates":[3.48434,50.46731]},"properties":{"nom":"HAUTERIVE","ag":["Réseau urbain Transvilles"],"lt":0,"dept":"59"}},{"type":"Feature","geometry":{"type":"Point","coordinates":[3.48669,50.47113]},"properties":{"nom":"LE LONG BUHOT","ag":["Réseau urbain Transvilles"],"lt":0,"dept":"59"}},{"type":"Feature","geometry":{"type":"Point","coordinates":[3.49947,50.47328]},"properties":{"nom":"BRUILLE EGLISE","ag":["Réseau urbain Transvilles"],"lt":0,"dept":"59"}},{"type":"Feature","geometry":{"type":"Point","coordinates":[3.50718,50.46829]},"properties":{"nom":"LA SOURCE","ag":["Réseau urbain Transvilles"],"lt":0,"dept":"59"}},{"type":"Feature","geometry":{"type":"Point","coordinates":[3.52724,50.46005]},"properties":{"nom":"FERME LEMER","ag":["Réseau urbain Transvilles"],"lt":0,"dept":"59"}},{"type":"Feature","geometry":{"type":"Point","coordinates":[3.52597,50.45652]},"properties":{"nom":"NOTRE DAME AU BOIS","ag":["Réseau urbain Transvilles"],"lt":0,"dept":"59"}},{"type":"Feature","geometry":{"type":"Point","coordinates":[3.52343,50.45188]},"properties":{"nom":"BEU D'ABBY","ag":["Réseau urbain Transvilles"],"lt":0,"dept":"59"}},{"type":"Feature","geometry":{"type":"Point","coordinates":[3.57256,50.31526]},"properties":{"nom":"LES VUILLONS","ag":["Réseau urbain Transvilles"],"lt":0,"dept":"59"}},{"type":"Feature","geometry":{"type":"Point","coordinates":[3.40312,50.43778]},"properties":{"nom":"PLACE DE LA BRUYERE","ag":["Réseau urbain Transvilles"],"lt":0,"dept":"59"}},{"type":"Feature","geometry":{"type":"Point","coordinates":[3.40439,50.44331]},"properties":{"nom":"RUE DE LA BRUYERE","ag":["Réseau urbain Transvilles"],"lt":0,"dept":"59"}},{"type":"Feature","geometry":{"type":"Point","coordinates":[3.4647,50.4436]},"properties":{"nom":"FONTAINE BOUILLON","ag":["Réseau urbain Transvilles"],"lt":0,"dept":"59"}},{"type":"Feature","geometry":{"type":"Point","coordinates":[3.42406,50.44704]},"properties":{"nom":"DUNANT","ag":["Réseau urbain Transvilles"],"lt":0,"dept":"59"}},{"type":"Feature","geometry":{"type":"Point","coordinates":[3.4368,50.44759]},"properties":{"nom":"MALECOT","ag":["Réseau urbain Transvilles"],"lt":0,"dept":"59"}},{"type":"Feature","geometry":{"type":"Point","coordinates":[3.39576,50.43507]},"properties":{"nom":"LES ORMEAUX","ag":["Réseau urbain Transvilles"],"lt":0,"dept":"59"}},{"type":"Feature","geometry":{"type":"Point","coordinates":[3.51997,50.40497]},"properties":{"nom":"RAISMES TAFFIN","ag":["Réseau urbain Transvilles"],"lt":0,"dept":"59"}},{"type":"Feature","geometry":{"type":"Point","coordinates":[3.61457,50.3784]},"properties":{"nom":"OGURA","ag":["Réseau urbain Transvilles"],"lt":0,"dept":"59"}},{"type":"Feature","geometry":{"type":"Point","coordinates":[3.5193,50.32923]},"properties":{"nom":"COLLEGE MME D'EPINAY","ag":["Réseau urbain Transvilles"],"lt":0,"dept":"59"}},{"type":"Feature","geometry":{"type":"Point","coordinates":[3.39096,50.43546]},"properties":{"nom":"BICENTENAIRE","ag":["Réseau urbain Transvilles"],"lt":0,"dept":"59"}},{"type":"Feature","geometry":{"type":"Point","coordinates":[3.38527,50.43331]},"properties":{"nom":"MILLONFOSSE ECOLES","ag":["Réseau urbain Transvilles"],"lt":0,"dept":"59"}},{"type":"Feature","geometry":{"type":"Point","coordinates":[3.66565,50.40525]},"properties":{"nom":"EMAILLERIE","ag":["Réseau urbain Transvilles"],"lt":0,"dept":"59"}},{"type":"Feature","geometry":{"type":"Point","coordinates":[3.45385,50.33501]},"properties":{"nom":"MARC LEFRANCQ","ag":["Réseau urbain Transvilles"],"lt":0,"dept":"59"}},{"type":"Feature","geometry":{"type":"Point","coordinates":[3.57564,50.31289]},"properties":{"nom":"PRESEAU PARC","ag":["Réseau urbain Transvilles"],"lt":0,"dept":"59"}},{"type":"Feature","geometry":{"type":"Point","coordinates":[3.57622,50.31132]},"properties":{"nom":"SALLE DE SPORT","ag":["Réseau urbain Transvilles"],"lt":0,"dept":"59"}},{"type":"Feature","geometry":{"type":"Point","coordinates":[3.57319,50.31137]},"properties":{"nom":"PRESEAU MAIRIE","ag":["Réseau urbain Transvilles"],"lt":0,"dept":"59"}},{"type":"Feature","geometry":{"type":"Point","coordinates":[3.48109,50.39502]},"properties":{"nom":"COLLEGE GERMINAL","ag":["Réseau urbain Transvilles"],"lt":0,"dept":"59"}},{"type":"Feature","geometry":{"type":"Point","coordinates":[3.45964,50.34171]},"properties":{"nom":"AERODROME OUEST","ag":["Réseau urbain Transvilles"],"lt":0,"dept":"59"}},{"type":"Feature","geometry":{"type":"Point","coordinates":[3.51346,50.28756]},"properties":{"nom":"QUERENAING MAIRIE","ag":["Réseau urbain Transvilles"],"lt":0,"dept":"59"}},{"type":"Feature","geometry":{"type":"Point","coordinates":[3.51415,50.29203]},"properties":{"nom":"CIMETIERE","ag":["Réseau urbain Transvilles"],"lt":0,"dept":"59"}},{"type":"Feature","geometry":{"type":"Point","coordinates":[3.44549,50.49735]},"properties":{"nom":"MORTAGNE GARE","ag":["Réseau urbain Transvilles"],"lt":0,"dept":"59"}},{"type":"Feature","geometry":{"type":"Point","coordinates":[3.45125,50.49949]},"properties":{"nom":"MORTAGNE PONT SCARPE","ag":["Réseau urbain Transvilles"],"lt":0,"dept":"59"}},{"type":"Feature","geometry":{"type":"Point","coordinates":[3.47042,50.48772]},"properties":{"nom":"CHATEAU GRAND RUE","ag":["Réseau urbain Transvilles"],"lt":0,"dept":"59"}},{"type":"Feature","geometry":{"type":"Point","coordinates":[3.47569,50.48717]},"properties":{"nom":"RUE DE FLINES","ag":["Réseau urbain Transvilles"],"lt":0,"dept":"59"}},{"type":"Feature","geometry":{"type":"Point","coordinates":[3.47742,50.48326]},"properties":{"nom":"RUE DE LA FONTAINE","ag":["Réseau urbain Transvilles"],"lt":0,"dept":"59"}},{"type":"Feature","geometry":{"type":"Point","coordinates":[3.47366,50.4765]},"properties":{"nom":"RUE DU RIEU","ag":["Réseau urbain Transvilles"],"lt":0,"dept":"59"}},{"type":"Feature","geometry":{"type":"Point","coordinates":[3.4778,50.47233]},"properties":{"nom":"RUELLE DU BOIS","ag":["Réseau urbain Transvilles"],"lt":0,"dept":"59"}},{"type":"Feature","geometry":{"type":"Point","coordinates":[3.47865,50.46729]},"properties":{"nom":"RUE DE LA CHASSE","ag":["Réseau urbain Transvilles"],"lt":0,"dept":"59"}},{"type":"Feature","geometry":{"type":"Point","coordinates":[3.46863,50.47054]},"properties":{"nom":"NIVELLE PONT","ag":["Réseau urbain Transvilles"],"lt":0,"dept":"59"}},{"type":"Feature","geometry":{"type":"Point","coordinates":[3.45804,50.46898]},"properties":{"nom":"NIVELLE CALVAIRE","ag":["Réseau urbain Transvilles"],"lt":0,"dept":"59"}},{"type":"Feature","geometry":{"type":"Point","coordinates":[3.45522,50.46977]},"properties":{"nom":"NIVELLE R. HENNEBICQ","ag":["Réseau urbain Transvilles"],"lt":0,"dept":"59"}},{"type":"Feature","geometry":{"type":"Point","coordinates":[3.4661,50.34315]},"properties":{"nom":"LE RIPAILLEUR","ag":["Réseau urbain Transvilles"],"lt":0,"dept":"59"}},{"type":"Feature","geometry":{"type":"Point","coordinates":[3.43404,50.49774]},"properties":{"nom":"RUE DE LA TRINQUETTE","ag":["Réseau urbain Transvilles"],"lt":0,"dept":"59"}},{"type":"Feature","geometry":{"type":"Point","coordinates":[3.43196,50.5031]},"properties":{"nom":"MAULDE PLACE","ag":["Réseau urbain Transvilles"],"lt":0,"dept":"59"}},{"type":"Feature","geometry":{"type":"Point","coordinates":[3.43707,50.5005]},"properties":{"nom":"FACTEUR","ag":["Réseau urbain Transvilles"],"lt":0,"dept":"59"}},{"type":"Feature","geometry":{"type":"Point","coordinates":[3.44167,50.4967]},"properties":{"nom":"SABOTIER","ag":["Réseau urbain Transvilles"],"lt":0,"dept":"59"}},{"type":"Feature","geometry":{"type":"Point","coordinates":[3.45401,50.50337]},"properties":{"nom":"MORTAGNE PLACE","ag":["Réseau urbain Transvilles"],"lt":0,"dept":"59"}},{"type":"Feature","geometry":{"type":"Point","coordinates":[3.46004,50.50382]},"properties":{"nom":"URBAIN","ag":["Réseau urbain Transvilles"],"lt":0,"dept":"59"}},{"type":"Feature","geometry":{"type":"Point","coordinates":[3.46424,50.50332]},"properties":{"nom":"FLINES PLACE","ag":["Réseau urbain Transvilles"],"lt":0,"dept":"59"}},{"type":"Feature","geometry":{"type":"Point","coordinates":[3.46603,50.50602]},"properties":{"nom":"FOURNIER","ag":["Réseau urbain Transvilles"],"lt":0,"dept":"59"}},{"type":"Feature","geometry":{"type":"Point","coordinates":[3.46862,50.50843]},"properties":{"nom":"CHAPELLE D. DOULEURS","ag":["Réseau urbain Transvilles"],"lt":0,"dept":"59"}},{"type":"Feature","geometry":{"type":"Point","coordinates":[3.4828,50.51126]},"properties":{"nom":"LEGIES PLACE","ag":["Réseau urbain Transvilles"],"lt":0,"dept":"59"}},{"type":"Feature","geometry":{"type":"Point","coordinates":[3.49049,50.51086]},"properties":{"nom":"ECOLE DECOBECQ","ag":["Réseau urbain Transvilles"],"lt":0,"dept":"59"}},{"type":"Feature","geometry":{"type":"Point","coordinates":[3.50003,50.51361]},"properties":{"nom":"FLINES ROUILLON","ag":["Réseau urbain Transvilles"],"lt":0,"dept":"59"}},{"type":"Feature","geometry":{"type":"Point","coordinates":[3.28729,50.27281]},"properties":{"nom":"WAVRECHAIN\\FAULX PL.","ag":["Réseau urbain Transvilles"],"lt":0,"dept":"59"}},{"type":"Feature","geometry":{"type":"Point","coordinates":[3.28702,50.27435]},"properties":{"nom":"RUE DE BOUCHAIN","ag":["Réseau urbain Transvilles"],"lt":0,"dept":"59"}},{"type":"Feature","geometry":{"type":"Point","coordinates":[3.26123,50.27048]},"properties":{"nom":"WASNES AU BAC MAIRIE","ag":["Réseau urbain Transvilles"],"lt":0,"dept":"59"}},{"type":"Feature","geometry":{"type":"Point","coordinates":[3.25645,50.2707]},"properties":{"nom":"RUE DES ROTISSEURS","ag":["Réseau urbain Transvilles"],"lt":0,"dept":"59"}},{"type":"Feature","geometry":{"type":"Point","coordinates":[3.26594,50.28632]},"properties":{"nom":"MARQUETTE EGLISE","ag":["Réseau urbain Transvilles"],"lt":0,"dept":"59"}},