{"type":"FeatureCollection","features":[{"type":"Feature","geometry":{"type":"Point","coordinates":[0.72847,48.75421]},"properties":{"nom":"Place de l'Église","ag":["Réseau interurbain Nomad Car","Agrégat des réseaux urbains et interurbains de Normandie"],"lt":0,"dept":"61"}},{"type":"Feature","geometry":{"type":"Point","coordinates":[0.63067,48.76266]},"properties":{"nom":"Collège Foch","ag":["Réseau interurbain Nomad Car","Agrégat des réseaux urbains et interurbains de Normandie"],"lt":0,"dept":"61"}},{"type":"Feature","geometry":{"type":"Point","coordinates":[0.62887,48.76574]},"properties":{"nom":"Place du 19 mars","ag":["Réseau interurbain Nomad Car","Agrégat des réseaux urbains et interurbains de Normandie"],"lt":0,"dept":"61"}},{"type":"Feature","geometry":{"type":"Point","coordinates":[0.67422,48.79209]},"properties":{"nom":"École","ag":["Réseau interurbain Nomad Car","Agrégat des réseaux urbains et interurbains de Normandie"],"lt":0,"dept":"61"}},{"type":"Feature","geometry":{"type":"Point","coordinates":[0.66794,48.7605]},"properties":{"nom":"Anglure","ag":["Réseau interurbain Nomad Car","Agrégat des réseaux urbains et interurbains de Normandie"],"lt":0,"dept":"61"}},{"type":"Feature","geometry":{"type":"Point","coordinates":[-0.55506,48.8426]},"properties":{"nom":"CONDE-SUR-NOIREAU - Avenue de la Gare","ag":["Réseau interurbain Nomad Car","Agrégat des réseaux urbains et interurbains de Normandie"],"lt":0,"dept":"61"}},{"type":"Feature","geometry":{"type":"Point","coordinates":[-0.55493,48.84268]},"properties":{"nom":"CONDE-SUR-NOIREAU - Avenue de la Gare","ag":["Réseau interurbain Nomad Car","Agrégat des réseaux urbains et interurbains de Normandie"],"lt":0,"dept":"61"}},{"type":"Feature","geometry":{"type":"Point","coordinates":[-0.56072,48.74845]},"properties":{"nom":"Champ de Foire","ag":["Réseau interurbain Nomad Car","Agrégat des réseaux urbains et interurbains de Normandie"],"lt":0,"dept":"61"}},{"type":"Feature","geometry":{"type":"Point","coordinates":[-0.55532,48.74289]},"properties":{"nom":"Cité scolaire","ag":["Réseau interurbain Nomad Car","Agrégat des réseaux urbains et interurbains de Normandie"],"lt":0,"dept":"61"}},{"type":"Feature","geometry":{"type":"Point","coordinates":[-0.57038,48.7398]},"properties":{"nom":"Hauts Vents","ag":["Réseau interurbain Nomad Car","Agrégat des réseaux urbains et interurbains de Normandie"],"lt":0,"dept":"61"}},{"type":"Feature","geometry":{"type":"Point","coordinates":[-0.56609,48.765]},"properties":{"nom":"Launay Cornu","ag":["Réseau interurbain Nomad Car","Agrégat des réseaux urbains et interurbains de Normandie"],"lt":0,"dept":"61"}},{"type":"Feature","geometry":{"type":"Point","coordinates":[-0.5662,48.76538]},"properties":{"nom":"Launay Cornu","ag":["Réseau interurbain Nomad Car","Agrégat des réseaux urbains et interurbains de Normandie"],"lt":0,"dept":"61"}},{"type":"Feature","geometry":{"type":"Point","coordinates":[0.09456,48.41084]},"properties":{"nom":"Lycée Professionnel Marechal Leclerc","ag":["Réseau interurbain Nomad Car","Agrégat des réseaux urbains et interurbains de Normandie"],"lt":0,"dept":"61"}},{"type":"Feature","geometry":{"type":"Point","coordinates":[0.10318,48.43608]},"properties":{"nom":"Collège Public Saint-Exupéry","ag":["Réseau interurbain Nomad Car","Agrégat des réseaux urbains et interurbains de Normandie"],"lt":0,"dept":"61"}},{"type":"Feature","geometry":{"type":"Point","coordinates":[0.07742,48.4394]},"properties":{"nom":"Collège Public Balzac","ag":["Réseau interurbain Nomad Car","Agrégat des réseaux urbains et interurbains de Normandie"],"lt":0,"dept":"61"}},{"type":"Feature","geometry":{"type":"Point","coordinates":[-0.00957,48.75259]},"properties":{"nom":"Lycée technique Gabriel","ag":["Réseau interurbain Nomad Car","Agrégat des réseaux urbains et interurbains de Normandie"],"lt":0,"dept":"61"}},{"type":"Feature","geometry":{"type":"Point","coordinates":[-0.00733,48.75438]},"properties":{"nom":"Collège Jean Rostand","ag":["Réseau interurbain Nomad Car","Agrégat des réseaux urbains et interurbains de Normandie"],"lt":0,"dept":"61"}},{"type":"Feature","geometry":{"type":"Point","coordinates":[0.56676,48.36848]},"properties":{"nom":"Collège Roger Martin du Gard","ag":["Réseau interurbain Nomad Car","Agrégat des réseaux urbains et interurbains de Normandie"],"lt":0,"dept":"61"}},{"type":"Feature","geometry":{"type":"Point","coordinates":[-0.64229,48.5924]},"properties":{"nom":"DOMFRONT - Lycée Auguste Chevalier","ag":["Réseau interurbain Nomad Car","Agrégat des réseaux urbains et interurbains de Normandie"],"lt":0,"dept":"61"}},{"type":"Feature","geometry":{"type":"Point","coordinates":[-0.64628,48.58791]},"properties":{"nom":"DOMFRONT - École Georges Brassens / Jacques Brel","ag":["Réseau interurbain Nomad Car","Agrégat des réseaux urbains et interurbains de Normandie"],"lt":0,"dept":"61"}},{"type":"Feature","geometry":{"type":"Point","coordinates":[-0.64489,48.58744]},"properties":{"nom":"DOMFRONT - Collège Public Jacques Prévert","ag":["Réseau interurbain Nomad Car","Agrégat des réseaux urbains et interurbains de Normandie"],"lt":0,"dept":"61"}},{"type":"Feature","geometry":{"type":"Point","coordinates":[-0.65158,48.59114]},"properties":{"nom":"DOMFRONT - Collège Privé Sacré Cœur","ag":["Réseau interurbain Nomad Car","Agrégat des réseaux urbains et interurbains de Normandie"],"lt":0,"dept":"61"}},{"type":"Feature","geometry":{"type":"Point","coordinates":[-0.5165,48.66459]},"properties":{"nom":"Collège Public Charles Léandre","ag":["Réseau interurbain Nomad Car","Agrégat des réseaux urbains et interurbains de Normandie"],"lt":0,"dept":"61"}},{"type":"Feature","geometry":{"type":"Point","coordinates":[-0.36047,48.59337]},"properties":{"nom":"LA FERTE-MACE - Lycée Professionnel Flora Tristan","ag":["Réseau interurbain Nomad Car","Agrégat des réseaux urbains et interurbains de Normandie"],"lt":0,"dept":"61"}},{"type":"Feature","geometry":{"type":"Point","coordinates":[-0.35914,48.58555]},"properties":{"nom":"LA FERTE-MACE - Lycées des Andaines","ag":["Réseau interurbain Nomad Car","Agrégat des réseaux urbains et interurbains de Normandie"],"lt":0,"dept":"61"}},{"type":"Feature","geometry":{"type":"Point","coordinates":[-0.34982,48.59826]},"properties":{"nom":"LA FERTE-MACE - E.R.E.A Pierre-Mendès-France","ag":["Réseau interurbain Nomad Car","Agrégat des réseaux urbains et interurbains de Normandie"],"lt":0,"dept":"61"}},{"type":"Feature","geometry":{"type":"Point","coordinates":[-0.57038,48.73984]},"properties":{"nom":"Collège Jean Monnet","ag":["Réseau interurbain Nomad Car","Agrégat des réseaux urbains et interurbains de Normandie"],"lt":0,"dept":"61"}},{"type":"Feature","geometry":{"type":"Point","coordinates":[0.63247,48.76284]},"properties":{"nom":"Collège Françoise Dolto","ag":["Réseau interurbain Nomad Car","Agrégat des réseaux urbains et interurbains de Normandie"],"lt":0,"dept":"61"}},{"type":"Feature","geometry":{"type":"Point","coordinates":[0.63007,48.76273]},"properties":{"nom":"Collège Privé Foch","ag":["Réseau interurbain Nomad Car","Agrégat des réseaux urbains et interurbains de Normandie"],"lt":0,"dept":"61"}},{"type":"Feature","geometry":{"type":"Point","coordinates":[0.55372,48.5138]},"properties":{"nom":"Lycée Jean Monnet","ag":["Réseau interurbain Nomad Car"],"lt":0,"dept":"61"}},{"type":"Feature","geometry":{"type":"Point","coordinates":[0.54643,48.51347]},"properties":{"nom":"Collège Emile Chartier","ag":["Réseau interurbain Nomad Car","Agrégat des réseaux urbains et interurbains de Normandie"],"lt":0,"dept":"61"}},{"type":"Feature","geometry":{"type":"Point","coordinates":[0.54691,48.5137]},"properties":{"nom":"Collège Emile Chartier","ag":["Réseau interurbain Nomad Car","Agrégat des réseaux urbains et interurbains de Normandie"],"lt":0,"dept":"61"}},{"type":"Feature","geometry":{"type":"Point","coordinates":[0.54494,48.52303]},"properties":{"nom":"Etablissement Bignon","ag":["Réseau interurbain Nomad Car","Agrégat des réseaux urbains et interurbains de Normandie"],"lt":0,"dept":"61"}},{"type":"Feature","geometry":{"type":"Point","coordinates":[0.9011,48.54198]},"properties":{"nom":"NEUILLY-SUR-EURE - École Publique","ag":["Réseau interurbain Nomad Car","Agrégat des réseaux urbains et interurbains de Normandie"],"lt":0,"dept":"61"}},{"type":"Feature","geometry":{"type":"Point","coordinates":[0.22523,48.7098]},"properties":{"nom":"Lycée Professionnel Rural Privé","ag":["Réseau interurbain Nomad Car","Agrégat des réseaux urbains et interurbains de Normandie"],"lt":0,"dept":"61"}},{"type":"Feature","geometry":{"type":"Point","coordinates":[-0.24799,48.75942]},"properties":{"nom":"PUTANGES-PONT-ECREPIN - Collège Public Gaston Lefavrais","ag":["Réseau interurbain Nomad Car","Agrégat des réseaux urbains et interurbains de Normandie"],"lt":0,"dept":"61"}},{"type":"Feature","geometry":{"type":"Point","coordinates":[0.78216,48.42674]},"properties":{"nom":"REMALARD - Collège Public Paul Harel","ag":["Réseau interurbain Nomad Car"],"lt":0,"dept":"61"}},{"type":"Feature","geometry":{"type":"Point","coordinates":[0.17139,48.5939]},"properties":{"nom":"Lycée Agricole Auguste Loutreuil","ag":["Réseau interurbain Nomad Car","Agrégat des réseaux urbains et interurbains de Normandie"],"lt":0,"dept":"61"}},{"type":"Feature","geometry":{"type":"Point","coordinates":[0.17286,48.59554]},"properties":{"nom":"Collège Nicolas Jacques Conté","ag":["Réseau interurbain Nomad Car","Agrégat des réseaux urbains et interurbains de Normandie"],"lt":0,"dept":"61"}},{"type":"Feature","geometry":{"type":"Point","coordinates":[-0.73342,48.76608]},"properties":{"nom":"TINCHEBRAY - Collège Albert Camus","ag":["Réseau interurbain Nomad Car","Agrégat des réseaux urbains et interurbains de Normandie"],"lt":0,"dept":"61"}},{"type":"Feature","geometry":{"type":"Point","coordinates":[0.03247,48.8416]},"properties":{"nom":"École Primaire Sainte Famille","ag":["Réseau interurbain Nomad Car","Agrégat des réseaux urbains et interurbains de Normandie"],"lt":0,"dept":"61"}},{"type":"Feature","geometry":{"type":"Point","coordinates":[0.09363,48.41005]},"properties":{"nom":"Route du Mans (3 I.F.A)","ag":["Réseau interurbain Nomad Car","Agrégat des réseaux urbains et interurbains de Normandie"],"lt":0,"dept":"61"}},{"type":"Feature","geometry":{"type":"Point","coordinates":[0.08126,48.43834]},"properties":{"nom":"Lycée Alain Boulevard Mézeray","ag":["Réseau interurbain Nomad Car","Agrégat des réseaux urbains et interurbains de Normandie"],"lt":0,"dept":"61"}},{"type":"Feature","geometry":{"type":"Point","coordinates":[0.08718,48.42243]},"properties":{"nom":"Collège Racine Boulevard Koutiala","ag":["Réseau interurbain Nomad Car","Agrégat des réseaux urbains et interurbains de Normandie"],"lt":0,"dept":"61"}},{"type":"Feature","geometry":{"type":"Point","coordinates":[0.29822,48.79209]},"properties":{"nom":"École Primaire Edgar Degas","ag":["Réseau interurbain Nomad Car","Agrégat des réseaux urbains et interurbains de Normandie"],"lt":0,"dept":"61"}},{"type":"Feature","geometry":{"type":"Point","coordinates":[0.29538,48.79353]},"properties":{"nom":"Établissement Tregaro - Sainte Thérese","ag":["Réseau interurbain Nomad Car","Agrégat des réseaux urbains et interurbains de Normandie"],"lt":0,"dept":"61"}},{"type":"Feature","geometry":{"type":"Point","coordinates":[0.08245,48.43983]},"properties":{"nom":"Lycée Alain Chemin de Maures","ag":["Réseau interurbain Nomad Car","Agrégat des réseaux urbains et interurbains de Normandie"],"lt":0,"dept":"61"}},{"type":"Feature","geometry":{"type":"Point","coordinates":[0.4568,48.86232]},"properties":{"nom":"VILLIERS-EN-OUCHE - École","ag":["Réseau interurbain Nomad Car","Agrégat des réseaux urbains et interurbains de Normandie"],"lt":0,"dept":"61"}},{"type":"Feature","geometry":{"type":"Point","coordinates":[0.64521,48.57361]},"properties":{"nom":"TOUROUVRE - Le Gué à Pont","ag":["Réseau interurbain Nomad Car","Agrégat des réseaux urbains et interurbains de Normandie"],"lt":0,"dept":"61"}},{"type":"Feature","geometry":{"type":"Point","coordinates":[0.64532,48.57517]},"properties":{"nom":"TOUROUVRE - Le Gué à Pont","ag":["Réseau interurbain Nomad Car","Agrégat des réseaux urbains et interurbains de Normandie"],"lt":0,"dept":"61"}},{"type":"Feature","geometry":{"type":"Point","coordinates":[0.54504,48.51916]},"properties":{"nom":"Rue Montcacune","ag":["Réseau interurbain Nomad Car","Agrégat des réseaux urbains et interurbains de Normandie"],"lt":0,"dept":"61"}},{"type":"Feature","geometry":{"type":"Point","coordinates":[0.63769,48.74455]},"properties":{"nom":"Zone Industrielle n°1 / CAT","ag":["Réseau interurbain Nomad Car","Agrégat des réseaux urbains et interurbains de Normandie"],"lt":0,"dept":"61"}},{"type":"Feature","geometry":{"type":"Point","coordinates":[-0.41472,48.51227]},"properties":{"nom":"COUTERNE - Mairie","ag":["Réseau interurbain Nomad Car","Agrégat des réseaux urbains et interurbains de Normandie"],"lt":0,"dept":"61"}},{"type":"Feature","geometry":{"type":"Point","coordinates":[0.1959,48.65226]},"properties":{"nom":"CHAILLOUE - Bourg / École","ag":["Réseau interurbain Nomad Car","Agrégat des réseaux urbains et interurbains de Normandie"],"lt":0,"dept":"61"}},{"type":"Feature","geometry":{"type":"Point","coordinates":[-0.5196,48.67801]},"properties":{"nom":"l'Etre Gallet (RD 18)","ag":["Réseau interurbain Nomad Car","Agrégat des réseaux urbains et interurbains de Normandie"],"lt":0,"dept":"61"}},{"type":"Feature","geometry":{"type":"Point","coordinates":[-0.37541,48.60724]},"properties":{"nom":"SAINT-MAURICE-DU-DESERT - Beausoleil (RD 18)","ag":["Réseau interurbain Nomad Car","Agrégat des réseaux urbains et interurbains de Normandie"],"lt":0,"dept":"61"}},{"type":"Feature","geometry":{"type":"Point","coordinates":[0.68997,48.59938]},"properties":{"nom":"TOUROUVRE - Sainte-Anne","ag":["Réseau interurbain Nomad Car","Agrégat des réseaux urbains et interurbains de Normandie"],"lt":0,"dept":"61"}},{"type":"Feature","geometry":{"type":"Point","coordinates":[0.14959,48.47537]},"properties":{"nom":"Mairie","ag":["Réseau interurbain Nomad Car","Agrégat des réseaux urbains et interurbains de Normandie"],"lt":0,"dept":"61"}},{"type":"Feature","geometry":{"type":"Point","coordinates":[-0.21001,48.64119]},"properties":{"nom":"Rue Marquet","ag":["Réseau interurbain Nomad Car","Agrégat des réseaux urbains et interurbains de Normandie"],"lt":0,"dept":"61"}},{"type":"Feature","geometry":{"type":"Point","coordinates":[-0.53777,48.7122]},"properties":{"nom":"Rue Riegler","ag":["Réseau interurbain Nomad Car","Agrégat des réseaux urbains et interurbains de Normandie"],"lt":0,"dept":"61"}},{"type":"Feature","geometry":{"type":"Point","coordinates":[0.67176,48.6484]},"properties":{"nom":"RANDONNAI - École Nouvelle France","ag":["Réseau interurbain Nomad Car","Agrégat des réseaux urbains et interurbains de Normandie"],"lt":0,"dept":"61"}},{"type":"Feature","geometry":{"type":"Point","coordinates":[0.1889,48.50817]},"properties":{"nom":"Mairie","ag":["Réseau interurbain Nomad Car","Agrégat des réseaux urbains et interurbains de Normandie"],"lt":0,"dept":"61"}},{"type":"Feature","geometry":{"type":"Point","coordinates":[-0.56081,48.74841]},"properties":{"nom":"Gare scolaire (Champ de Foire)","ag":["Réseau interurbain Nomad Car","Agrégat des réseaux urbains et interurbains de Normandie"],"lt":0,"dept":"61"}},{"type":"Feature","geometry":{"type":"Point","coordinates":[-0.55435,48.74303]},"properties":{"nom":"Cité Scolaire (rue de la Géroudière)","ag":["Réseau interurbain Nomad Car","Agrégat des réseaux urbains et interurbains de Normandie"],"lt":0,"dept":"61"}},{"type":"Feature","geometry":{"type":"Point","coordinates":[0.45944,48.51686]},"properties":{"nom":"La Gottière","ag":["Réseau interurbain Nomad Car","Agrégat des réseaux urbains et interurbains de Normandie"],"lt":0,"dept":"61"}},{"type":"Feature","geometry":{"type":"Point","coordinates":[0.10618,48.76115]},"properties":{"nom":"LE BOURG-SAINT-LÉONARD - Place de la Liberté","ag":["Réseau interurbain Nomad Car","Agrégat des réseaux urbains et interurbains de Normandie"],"lt":0,"dept":"61"}},{"type":"Feature","geometry":{"type":"Point","coordinates":[0.00252,48.79734]},"properties":{"nom":"Place Ulysse Houel","ag":["Réseau interurbain Nomad Car","Agrégat des réseaux urbains et interurbains de Normandie"],"lt":0,"dept":"61"}},{"type":"Feature","geometry":{"type":"Point","coordinates":[0.46846,48.37093]},"properties":{"nom":"ORIGNY-LE-BUTIN - Mairie","ag":["Réseau interurbain Nomad Car","Agrégat des réseaux urbains et interurbains de Normandie"],"lt":0,"dept":"61"}},{"type":"Feature","geometry":{"type":"Point","coordinates":[0.46837,48.37089]},"properties":{"nom":"ORIGNY-LE-BUTIN - Mairie","ag":["Réseau interurbain Nomad Car","Agrégat des réseaux urbains et interurbains de Normandie"],"lt":0,"dept":"61"}},{"type":"Feature","geometry":{"type":"Point","coordinates":[-0.0004,48.44727]},"properties":{"nom":"La Gouverie (RN12)","ag":["Réseau interurbain Nomad Car","Agrégat des réseaux urbains et interurbains de Normandie"],"lt":0,"dept":"61"}},{"type":"Feature","geometry":{"type":"Point","coordinates":[0.38438,48.35049]},"properties":{"nom":"Centre Commercial","ag":["Réseau interurbain Nomad Car","Agrégat des réseaux urbains et interurbains de Normandie"],"lt":0,"dept":"61"}},{"type":"Feature","geometry":{"type":"Point","coordinates":[0.38487,48.35042]},"properties":{"nom":"Centre Commercial","ag":["Réseau interurbain Nomad Car","Agrégat des réseaux urbains et interurbains de Normandie"],"lt":0,"dept":"61"}},{"type":"Feature","geometry":{"type":"Point","coordinates":[0.58667,48.75435]},"properties":{"nom":"Maison Pour tous (Rue Pierre Quentin)","ag":["Réseau interurbain Nomad Car","Agrégat des réseaux urbains et interurbains de Normandie"],"lt":0,"dept":"61"}},{"type":"Feature","geometry":{"type":"Point","coordinates":[0.44369,48.36417]},"properties":{"nom":"Place de l'Église","ag":["Réseau interurbain Nomad Car","Agrégat des réseaux urbains et interurbains de Normandie"],"lt":0,"dept":"61"}},{"type":"Feature","geometry":{"type":"Point","coordinates":[0.26558,48.56142]},"properties":{"nom":"Mairie (Parking)","ag":["Réseau interurbain Nomad Car","Agrégat des réseaux urbains et interurbains de Normandie"],"lt":0,"dept":"61"}},{"type":"Feature","geometry":{"type":"Point","coordinates":[-0.55748,48.74138]},"properties":{"nom":"Le Moulin (Arrêt Urbain)","ag":["Réseau interurbain Nomad Car","Agrégat des réseaux urbains et interurbains de Normandie"],"lt":0,"dept":"61"}},{"type":"Feature","geometry":{"type":"Point","coordinates":[0.85045,48.38036]},"properties":{"nom":"CONDE-SUR-HUISNE - Plc du Général de Gaulle","ag":["Réseau interurbain Nomad Car","Agrégat des réseaux urbains et interurbains de Normandie"],"lt":0,"dept":"61"}},{"type":"Feature","geometry":{"type":"Point","coordinates":[0.66527,48.70477]},"properties":{"nom":"Place du Lavoir","ag":["Réseau interurbain Nomad Car","Agrégat des réseaux urbains et interurbains de Normandie"],"lt":0,"dept":"61"}},{"type":"Feature","geometry":{"type":"Point","coordinates":[-0.02968,48.75036]},"properties":{"nom":"Musiciens (Arrêt urbain)","ag":["Réseau interurbain Nomad Car","Agrégat des réseaux urbains et interurbains de Normandie"],"lt":0,"dept":"61"}},{"type":"Feature","geometry":{"type":"Point","coordinates":[0.40588,48.50903]},"properties":{"nom":"La Choletière","ag":["Réseau interurbain Nomad Car","Agrégat des réseaux urbains et interurbains de Normandie"],"lt":0,"dept":"61"}},{"type":"Feature","geometry":{"type":"Point","coordinates":[0.6327,48.76078]},"properties":{"nom":"Rue Marcel Angot","ag":["Réseau interurbain Nomad Car","Agrégat des réseaux urbains et interurbains de Normandie"],"lt":0,"dept":"61"}},{"type":"Feature","geometry":{"type":"Point","coordinates":[-0.03264,48.51278]},"properties":{"nom":"LIVAIE - Bourg (Aire d'Arrêt)","ag":["Réseau interurbain Nomad Car","Agrégat des réseaux urbains et interurbains de Normandie"],"lt":0,"dept":"61"}},{"type":"Feature","geometry":{"type":"Point","coordinates":[0.24451,48.54114]},"properties":{"nom":"Parking de la Communauté de Communes","ag":["Réseau interurbain Nomad Car","Agrégat des réseaux urbains et interurbains de Normandie"],"lt":0,"dept":"61"}},{"type":"Feature","geometry":{"type":"Point","coordinates":[0.42067,48.87929]},"properties":{"nom":"MONNAI - Ternant (RD 12)","ag":["Réseau interurbain Nomad Car","Agrégat des réseaux urbains et interurbains de Normandie"],"lt":0,"dept":"61"}},{"type":"Feature","geometry":{"type":"Point","coordinates":[0.45038,48.51308]},"properties":{"nom":"Mairie","ag":["Réseau interurbain Nomad Car","Agrégat des réseaux urbains et interurbains de Normandie"],"lt":0,"dept":"61"}},{"type":"Feature","geometry":{"type":"Point","coordinates":[0.65994,48.58947]},"properties":{"nom":"TOUROUVRE - Rue Victor Linart","ag":["Réseau interurbain Nomad Car","Agrégat des réseaux urbains et interurbains de Normandie"],"lt":0,"dept":"61"}},{"type":"Feature","geometry":{"type":"Point","coordinates":[0.44573,48.87137]},"properties":{"nom":"VILLIERS-EN-OUCHE - La Boulaye / Gournay","ag":["Réseau interurbain Nomad Car","Agrégat des réseaux urbains et interurbains de Normandie"],"lt":0,"dept":"61"}},{"type":"Feature","geometry":{"type":"Point","coordinates":[0.47887,48.8521]},"properties":{"nom":"VILLIERS-EN-OUCHE - La Brousse (RD 12)","ag":["Réseau interurbain Nomad Car","Agrégat des réseaux urbains et interurbains de Normandie"],"lt":0,"dept":"61"}},{"type":"Feature","geometry":{"type":"Point","coordinates":[0.49938,48.84834]},"properties":{"nom":"ANCEINS - Noirval","ag":["Réseau interurbain Nomad Car","Agrégat des réseaux urbains et interurbains de Normandie"],"lt":0,"dept":"61"}},{"type":"Feature","geometry":{"type":"Point","coordinates":[0.74323,48.34652]},"properties":{"nom":"Salle des Fêtes","ag":["Réseau interurbain Nomad Car","Agrégat des réseaux urbains et interurbains de Normandie"],"lt":0,"dept":"61"}},{"type":"Feature","geometry":{"type":"Point","coordinates":[-0.41993,48.54805]},"properties":{"nom":"BAGNOLES DE L'ORNE - Camping - Avenue du Président Coty","ag":["Réseau interurbain Nomad Car","Agrégat des réseaux urbains et interurbains de Normandie"],"lt":0,"dept":"61"}},{"type":"Feature","geometry":{"type":"Point","coordinates":[-0.17098,48.58206]},"properties":{"nom":"La Babizière","ag":["Réseau interurbain Nomad Car","Agrégat des réseaux urbains et interurbains de Normandie"],"lt":0,"dept":"61"}},{"type":"Feature","geometry":{"type":"Point","coordinates":[0.06914,48.44319]},"properties":{"nom":"Pont du Fresne-Arrêt urbain","ag":["Réseau interurbain Nomad Car","Agrégat des réseaux urbains et interurbains de Normandie"],"lt":0,"dept":"61"}},{"type":"Feature","geometry":{"type":"Point","coordinates":[0.49908,48.6643]},"properties":{"nom":"Le Bourg (RD 3)","ag":["Réseau interurbain Nomad Car","Agrégat des réseaux urbains et interurbains de Normandie"],"lt":0,"dept":"61"}},{"type":"Feature","geometry":{"type":"Point","coordinates":[0.09364,48.44611]},"properties":{"nom":"Lazare Carnot-Arrêt urbain","ag":["Réseau interurbain Nomad Car","Agrégat des réseaux urbains et interurbains de Normandie"],"lt":0,"dept":"61"}},{"type":"Feature","geometry":{"type":"Point","coordinates":[0.70849,48.69002]},"properties":{"nom":"Chalumêle","ag":["Réseau interurbain Nomad Car","Agrégat des réseaux urbains et interurbains de Normandie"],"lt":0,"dept":"61"}},{"type":"Feature","geometry":{"type":"Point","coordinates":[0.70576,48.6722]},"properties":{"nom":"Champ Hubert","ag":["Réseau interurbain Nomad Car","Agrégat des réseaux urbains et interurbains de Normandie"],"lt":0,"dept":"61"}},{"type":"Feature","geometry":{"type":"Point","coordinates":[0.53496,48.52545]},"properties":{"nom":"Hôtel des Impôts","ag":["Réseau interurbain Nomad Car","Agrégat des réseaux urbains et interurbains de Normandie"],"lt":0,"dept":"61"}},{"type":"Feature","geometry":{"type":"Point","coordinates":[0.53506,48.52557]},"properties":{"nom":"Hôtel des Impôts","ag":["Réseau interurbain Nomad Car","Agrégat des réseaux urbains et interurbains de Normandie"],"lt":0,"dept":"61"}},{"type":"Feature","geometry":{"type":"Point","coordinates":[0.62105,48.45064]},"properties":{"nom":"Le Bourg / Mini-Golf","ag":["Réseau interurbain Nomad Car","Agrégat des réseaux urbains et interurbains de Normandie"],"lt":0,"dept":"61"}},{"type":"Feature","geometry":{"type":"Point","coordinates":[0.49142,48.37767]},"properties":{"nom":"LE-GUE-DE-LA-CHAINE - Les Batailles","ag":["Réseau interurbain Nomad Car","Agrégat des réseaux urbains et interurbains de Normandie"],"lt":0,"dept":"61"}},{"type":"Feature","geometry":{"type":"Point","coordinates":[0.48278,48.35582]},"properties":{"nom":"Carrefour du Calvaire (RD 374)","ag":["Réseau interurbain Nomad Car","Agrégat des réseaux urbains et interurbains de Normandie"],"lt":0,"dept":"61"}},{"type":"Feature","geometry":{"type":"Point","coordinates":[-0.01158,48.75293]},"properties":{"nom":"Le Cocqueret (Centre Commercial)","ag":["Réseau interurbain Nomad Car","Agrégat des réseaux urbains et interurbains de Normandie"],"lt":0,"dept":"61"}},{"type":"Feature","geometry":{"type":"Point","coordinates":[0.07556,48.43321]},"properties":{"nom":"Le Chapeau Rouge-Arrêt urbain","ag":["Réseau interurbain Nomad Car","Agrégat des réseaux urbains et interurbains de Normandie"],"lt":0,"dept":"61"}},{"type":"Feature","geometry":{"type":"Point","coordinates":[-0.54904,48.7323]},"properties":{"nom":"Le Jardinet (Arrêt Urbain)","ag":["Réseau interurbain Nomad Car"],"lt":0,"dept":"61"}},{"type":"Feature","geometry":{"type":"Point","coordinates":[0.57452,48.37303]},"properties":{"nom":"SERIGNY - Saint Laurent","ag":["Réseau interurbain Nomad Car","Agrégat des réseaux urbains et interurbains de Normandie"],"lt":0,"dept":"61"}},{"type":"Feature","geometry":{"type":"Point","coordinates":[0.57484,48.37292]},"properties":{"nom":"SERIGNY - Saint Laurent","ag":["Réseau interurbain Nomad Car","Agrégat des réseaux urbains et interurbains de Normandie"],"lt":0,"dept":"61"}},{"type":"Feature","geometry":{"type":"Point","coordinates":[0.09312,48.42118]},"properties":{"nom":"Avenue Jean Mantelet-Arrêt urbain","ag":["Réseau interurbain Nomad Car","Agrégat des réseaux urbains et interurbains de Normandie"],"lt":0,"dept":"61"}},{"type":"Feature","geometry":{"type":"Point","coordinates":[-0.12635,48.47255]},"properties":{"nom":"La Lentillère / Parking autocars","ag":["Réseau interurbain Nomad Car","Agrégat des réseaux urbains et interurbains de Normandie"],"lt":0,"dept":"61"}},{"type":"Feature","geometry":{"type":"Point","coordinates":[0.19808,48.47497]},"properties":{"nom":"École","ag":["Réseau interurbain Nomad Car","Agrégat des réseaux urbains et interurbains de Normandie"],"lt":0,"dept":"61"}},{"type":"Feature","geometry":{"type":"Point","coordinates":[0.03576,48.45753]},"properties":{"nom":"Giratoire (RD 2)","ag":["Réseau interurbain Nomad Car","Agrégat des réseaux urbains et interurbains de Normandie"],"lt":0,"dept":"61"}},{"type":"Feature","geometry":{"type":"Point","coordinates":[0.52144,48.33757]},"properties":{"nom":"Pâques","ag":["Réseau interurbain Nomad Car","Agrégat des réseaux urbains et interurbains de Normandie"],"lt":0,"dept":"61"}},{"type":"Feature","geometry":{"type":"Point","coordinates":[0.46887,48.36892]},"properties":{"nom":"ORIGNY-LE-BUTIN -  - Hôtel Gaulard","ag":["Réseau interurbain Nomad Car","Agrégat des réseaux urbains et interurbains de Normandie"],"lt":0,"dept":"61"}},{"type":"Feature","geometry":{"type":"Point","coordinates":[0.46884,48.36892]},"properties":{"nom":"ORIGNY-LE-BUTIN - Hôtel Gaulard","ag":["Réseau interurbain Nomad Car","Agrégat des réseaux urbains et interurbains de Normandie"],"lt":0,"dept":"61"}},{"type":"Feature","geometry":{"type":"Point","coordinates":[0.68454,48.26508]},"properties":{"nom":"LE THEIL-SUR-HUISNE - École Primaire André Barbet","ag":["Réseau interurbain Nomad Car","Agrégat des réseaux urbains et interurbains de Normandie"],"lt":0,"dept":"61"}},{"type":"Feature","geometry":{"type":"Point","coordinates":[0.62109,48.76448]},"properties":{"nom":"Piscine","ag":["Réseau interurbain Nomad Car","Agrégat des réseaux urbains et interurbains de Normandie"],"lt":0,"dept":"61"}},{"type":"Feature","geometry":{"type":"Point","coordinates":[-0.1393,48.56531]},"properties":{"nom":"Parking autocars du Collège","ag":["Réseau interurbain Nomad Car","Agrégat des réseaux urbains et interurbains de Normandie"],"lt":0,"dept":"61"}},{"type":"Feature","geometry":{"type":"Point","coordinates":[0.75631,48.64759]},"properties":{"nom":"SAINT-MAURICE-LÈS-CHARENCEY - École","ag":["Réseau interurbain Nomad Car","Agrégat des réseaux urbains et interurbains de Normandie"],"lt":0,"dept":"61"}},{"type":"Feature","geometry":{"type":"Point","coordinates":[0.08701,48.42479]},"properties":{"nom":"Racine-Arrêt urbain","ag":["Réseau interurbain Nomad Car","Agrégat des réseaux urbains et interurbains de Normandie"],"lt":0,"dept":"61"}},{"type":"Feature","geometry":{"type":"Point","coordinates":[0.71843,48.24243]},"properties":{"nom":"Neuville","ag":["Réseau interurbain Nomad Car","Agrégat des réseaux urbains et interurbains de Normandie"],"lt":0,"dept":"61"}},{"type":"Feature","geometry":{"type":"Point","coordinates":[-0.35378,48.64408]},"properties":{"nom":"Parking","ag":["Réseau interurbain Nomad Car","Agrégat des réseaux urbains et interurbains de Normandie"],"lt":0,"dept":"61"}},{"type":"Feature","geometry":{"type":"Point","coordinates":[0.0153,48.47213]},"properties":{"nom":"Mairie (RD 2)","ag":["Réseau interurbain Nomad Car","Agrégat des réseaux urbains et interurbains de Normandie"],"lt":0,"dept":"61"}},{"type":"Feature","geometry":{"type":"Point","coordinates":[-0.0386,48.72966]},"properties":{"nom":"Croix de Baize (RD 924)","ag":["Réseau interurbain Nomad Car","Agrégat des réseaux urbains et interurbains de Normandie"],"lt":0,"dept":"61"}},{"type":"Feature","geometry":{"type":"Point","coordinates":[0.76943,48.42631]},"properties":{"nom":"REMALARD - Pont de l'Huisne","ag":["Réseau interurbain Nomad Car","Agrégat des réseaux urbains et interurbains de Normandie"],"lt":0,"dept":"61"}},{"type":"Feature","geometry":{"type":"Point","coordinates":[0.7697,48.42648]},"properties":{"nom":"REMALARD - Pont de l'Huisne","ag":["Réseau interurbain Nomad Car","Agrégat des réseaux urbains et interurbains de Normandie"],"lt":0,"dept":"61"}},{"type":"Feature","geometry":{"type":"Point","coordinates":[0.6596,48.4075]},"properties":{"nom":"COLONARD-CORUBERT - Route de Nocé","ag":["Réseau interurbain Nomad Car","Agrégat des réseaux urbains et interurbains de Normandie"],"lt":0,"dept":"61"}},{"type":"Feature","geometry":{"type":"Point","coordinates":[-0.05564,48.7241]},"properties":{"nom":"FONTENAI-SUR-ORNE - Aire du Pays d'Argentan","ag":["Réseau interurbain Nomad Car","Agrégat des réseaux urbains et interurbains de Normandie"],"lt":0,"dept":"61"}},{"type":"Feature","geometry":{"type":"Point","coordinates":[0.63603,48.7564]},"properties":{"nom":"Gare scolaire (Blaizot)","ag":["Réseau interurbain Nomad Car","Agrégat des réseaux urbains et interurbains de Normandie"],"lt":0,"dept":"61"}},{"type":"Feature","geometry":{"type":"Point","coordinates":[0.63641,48.75782]},"properties":{"nom":"Gare scolaire (Blaizot)","ag":["Réseau interurbain Nomad Car","Agrégat des réseaux urbains et interurbains de Normandie"],"lt":0,"dept":"61"}},{"type":"Feature","geometry":{"type":"Point","coordinates":[0.06289,48.42837]},"properties":{"nom":"Centre aquatique","ag":["Réseau interurbain Nomad Car","Agrégat des réseaux urbains et interurbains de Normandie"],"lt":0,"dept":"61"}},{"type":"Feature","geometry":{"type":"Point","coordinates":[0.08986,48.43619]},"properties":{"nom":"Conseil Départemental","ag":["Réseau interurbain Nomad Car","Agrégat des réseaux urbains et interurbains de Normandie"],"lt":0,"dept":"61"}},{"type":"Feature","geometry":{"type":"Point","coordinates":[0.54322,48.38092]},"properties":{"nom":"Scierie","ag":["Réseau interurbain Nomad Car","Agrégat des réseaux urbains et interurbains de Normandie"],"lt":0,"dept":"61"}},{"type":"Feature","geometry":{"type":"Point","coordinates":[0.08906,48.41012]},"properties":{"nom":"Le Point d'Alencon (Centre Commercial)","ag":["Réseau interurbain Nomad Car","Agrégat des réseaux urbains et interurbains de Normandie"],"lt":0,"dept":"61"}},{"type":"Feature","geometry":{"type":"Point","coordinates":[0.53455,48.73942]},"properties":{"nom":"Rue Souchet, n°40","ag":["Réseau interurbain Nomad Car","Agrégat des réseaux urbains et interurbains de Normandie"],"lt":0,"dept":"61"}},{"type":"Feature","geometry":{"type":"Point","coordinates":[-0.40258,48.54995]},"properties":{"nom":"BAGNOLES DE L'ORNE - Centre Commercial (RD 916)","ag":["Réseau interurbain Nomad Car","Agrégat des réseaux urbains et interurbains de Normandie"],"lt":0,"dept":"61"}},{"type":"Feature","geometry":{"type":"Point","coordinates":[-0.57127,48.74081]},"properties":{"nom":"Les Hauts Vents","ag":["Réseau interurbain Nomad Car","Agrégat des réseaux urbains et interurbains de Normandie"],"lt":0,"dept":"61"}},{"type":"Feature","geometry":{"type":"Point","coordinates":[0.09003,48.42802]},"properties":{"nom":"Champ Perrier","ag":["Réseau interurbain Nomad Car"],"lt":0,"dept":"61"}},{"type":"Feature","geometry":{"type":"Point","coordinates":[-0.62123,48.75567]},"properties":{"nom":"Le Noyer (RD 924)","ag":["Réseau interurbain Nomad Car","Agrégat des réseaux urbains et interurbains de Normandie"],"lt":0,"dept":"61"}},{"type":"Feature","geometry":{"type":"Point","coordinates":[-0.57,48.7478]},"properties":{"nom":"Place Leclerc","ag":["Réseau interurbain Nomad Car","Agrégat des réseaux urbains et interurbains de Normandie"],"lt":0,"dept":"61"}},{"type":"Feature","geometry":{"type":"Point","coordinates":[-0.57516,48.73618]},"properties":{"nom":"Pôle Femme-Enfant","ag":["Réseau interurbain Nomad Car","Agrégat des réseaux urbains et interurbains de Normandie"],"lt":0,"dept":"61"}},{"type":"Feature","geometry":{"type":"Point","coordinates":[0.06496,48.43338]},"properties":{"nom":"Portes de Bretagne-Arrêt urbain","ag":["Réseau interurbain Nomad Car","Agrégat des réseaux urbains et interurbains de Normandie"],"lt":0,"dept":"61"}},{"type":"Feature","geometry":{"type":"Point","coordinates":[-0.08415,48.54742]},"properties":{"nom":"Bourg","ag":["Réseau interurbain Nomad Car","Agrégat des réseaux urbains et interurbains de Normandie"],"lt":0,"dept":"61"}},{"type":"Feature","geometry":{"type":"Point","coordinates":[0.6812,48.37912]},"properties":{"nom":"NOCE - Place du Docteur Giraux","ag":["Réseau interurbain Nomad Car","Agrégat des réseaux urbains et interurbains de Normandie"],"lt":0,"dept":"61"}},{"type":"Feature","geometry":{"type":"Point","coordinates":[0.68085,48.37994]},"properties":{"nom":"NOCE - Ancienne École","ag":["Réseau interurbain Nomad Car","Agrégat des réseaux urbains et interurbains de Normandie"],"lt":0,"dept":"61"}},{"type":"Feature","geometry":{"type":"Point","coordinates":[-0.54877,48.60966]},"properties":{"nom":"École","ag":["Réseau interurbain Nomad Car","Agrégat des réseaux urbains et interurbains de Normandie"],"lt":0,"dept":"61"}},{"type":"Feature","geometry":{"type":"Point","coordinates":[0.16018,48.53357]},"properties":{"nom":"Le Perron (RD 138)","ag":["Réseau interurbain Nomad Car","Agrégat des réseaux urbains et interurbains de Normandie"],"lt":0,"dept":"61"}},{"type":"Feature","geometry":{"type":"Point","coordinates":[-0.01766,48.74767]},"properties":{"nom":"Rue de la République - Hôpital","ag":["Réseau interurbain Nomad Car","Agrégat des réseaux urbains et interurbains de Normandie"],"lt":0,"dept":"61"}},{"type":"Feature","geometry":{"type":"Point","coordinates":[0.18044,48.76051]},"properties":{"nom":"EXMES - Gendarmerie","ag":["Réseau interurbain Nomad Car","Agrégat des réseaux urbains et interurbains de Normandie"],"lt":0,"dept":"61"}},{"type":"Feature","geometry":{"type":"Point","coordinates":[0.62741,48.76305]},"properties":{"nom":"Rue du Docteur Rouyer","ag":["Réseau interurbain Nomad Car","Agrégat des réseaux urbains et interurbains de Normandie"],"lt":0,"dept":"61"}},{"type":"Feature","geometry":{"type":"Point","coordinates":[0.56222,48.50907]},"properties":{"nom":"Zone Industrielle de Préfontaine","ag":["Réseau interurbain Nomad Car","Agrégat des réseaux urbains et interurbains de Normandie"],"lt":0,"dept":"61"}},{"type":"Feature","geometry":{"type":"Point","coordinates":[-0.645,48.58938]},"properties":{"nom":"DOMFRONT - Rue du Mont Margantin (Centre Commercial)","ag":["Réseau interurbain Nomad Car","Agrégat des réseaux urbains et interurbains de Normandie"],"lt":0,"dept":"61"}},{"type":"Feature","geometry":{"type":"Point","coordinates":[0.38783,48.7417]},"properties":{"nom":"École / Salle des Fêtes","ag":["Réseau interurbain Nomad Car","Agrégat des réseaux urbains et interurbains de Normandie"],"lt":0,"dept":"61"}},{"type":"Feature","geometry":{"type":"Point","coordinates":[0.19961,48.92639]},"properties":{"nom":"Allée des Promenades","ag":["Réseau interurbain Nomad Car","Agrégat des réseaux urbains et interurbains de Normandie"],"lt":0,"dept":"61"}},{"type":"Feature","geometry":{"type":"Point","coordinates":[0.35375,48.51025]},"properties":{"nom":"Avenue de Falkenstein","ag":["Réseau interurbain Nomad Car","Agrégat des réseaux urbains et interurbains de Normandie"],"lt":0,"dept":"61"}},{"type":"Feature","geometry":{"type":"Point","coordinates":[0.35377,48.51027]},"properties":{"nom":"Avenue de Falkenstein","ag":["Réseau interurbain Nomad Car","Agrégat des réseaux urbains et interurbains de Normandie"],"lt":0,"dept":"61"}},{"type":"Feature","geometry":{"type":"Point","coordinates":[-0.36525,48.58598]},"properties":{"nom":"LA FERTE-MACE - Bas de Maures","ag":["Réseau interurbain Nomad Car","Agrégat des réseaux urbains et interurbains de Normandie"],"lt":0,"dept":"61"}},{"type":"Feature","geometry":{"type":"Point","coordinates":[-0.47432,48.74143]},"properties":{"nom":"Le Rocher (RD 924)","ag":["Réseau interurbain Nomad Car"],"lt":0,"dept":"61"}},{"type":"Feature","geometry":{"type":"Point","coordinates":[-0.36771,48.70175]},"properties":{"nom":"Gare Sncf","ag":["Réseau interurbain Nomad Car","Agrégat des réseaux urbains et interurbains de Normandie"],"lt":0,"dept":"61"}},{"type":"Feature","geometry":{"type":"Point","coordinates":[0.21101,48.53944]},"properties":{"nom":"Parking","ag":["Réseau interurbain Nomad Car","Agrégat des réseaux urbains et interurbains de Normandie"],"lt":0,"dept":"61"}},{"type":"Feature","geometry":{"type":"Point","coordinates":[0.74837,48.22637]},"properties":{"nom":"Rue du Theil / La Poste","ag":["Réseau interurbain Nomad Car","Agrégat des réseaux urbains et interurbains de Normandie"],"lt":0,"dept":"61"}},{"type":"Feature","geometry":{"type":"Point","coordinates":[0.11389,48.89558]},"properties":{"nom":"Hôtellerie Faroult (RD 916)","ag":["Réseau interurbain Nomad Car","Agrégat des réseaux urbains et interurbains de Normandie"],"lt":0,"dept":"61"}},{"type":"Feature","geometry":{"type":"Point","coordinates":[-0.5818,48.7014]},"properties":{"nom":"L'embûche","ag":["Réseau interurbain Nomad Car","Agrégat des réseaux urbains et interurbains de Normandie"],"lt":0,"dept":"61"}},{"type":"Feature","geometry":{"type":"Point","coordinates":[-0.58299,48.70891]},"properties":{"nom":"Le Bourg","ag":["Réseau interurbain Nomad Car","Agrégat des réseaux urbains et interurbains de Normandie"],"lt":0,"dept":"61"}},{"type":"Feature","geometry":{"type":"Point","coordinates":[0.65361,48.48385]},"properties":{"nom":"Église","ag":["Réseau interurbain Nomad Car","Agrégat des réseaux urbains et interurbains de Normandie"],"lt":0,"dept":"61"}},{"type":"Feature","geometry":{"type":"Point","coordinates":[0.65726,48.48323]},"properties":{"nom":"L'Ermitage","ag":["Réseau interurbain Nomad Car","Agrégat des réseaux urbains et interurbains de Normandie"],"lt":0,"dept":"61"}},{"type":"Feature","geometry":{"type":"Point","coordinates":[0.59748,48.32222]},"properties":{"nom":"Place","ag":["Réseau interurbain Nomad Car","Agrégat des réseaux urbains et interurbains de Normandie"],"lt":0,"dept":"61"}},{"type":"Feature","geometry":{"type":"Point","coordinates":[-0.58178,48.67545]},"properties":{"nom":"Le Bourg (RD 962)","ag":["Réseau interurbain Nomad Car","Agrégat des réseaux urbains et interurbains de Normandie"],"lt":0,"dept":"61"}},{"type":"Feature","geometry":{"type":"Point","coordinates":[0.4557,48.35881]},"properties":{"nom":"Le Pérou","ag":["Réseau interurbain Nomad Car","Agrégat des réseaux urbains et interurbains de Normandie"],"lt":0,"dept":"61"}},{"type":"Feature","geometry":{"type":"Point","coordinates":[0.45613,48.35884]},"properties":{"nom":"Le Pérou","ag":["Réseau interurbain Nomad Car","Agrégat des réseaux urbains et interurbains de Normandie"],"lt":0,"dept":"61"}},{"type":"Feature","geometry":{"type":"Point","coordinates":[0.85407,48.37845]},"properties":{"nom":"CONDE-SUR-HUISNE - Rue Michel Melliant","ag":["Réseau interurbain Nomad Car","Agrégat des réseaux urbains et interurbains de Normandie"],"lt":0,"dept":"61"}},{"type":"Feature","geometry":{"type":"Point","coordinates":[0.85409,48.37848]},"properties":{"nom":"CONDE-SUR-HUISNE - Rue Michel Melliant","ag":["Réseau interurbain Nomad Car","Agrégat des réseaux urbains et interurbains de Normandie"],"lt":0,"dept":"61"}},{"type":"Feature","geometry":{"type":"Point","coordinates":[0.84899,48.38332]},"properties":{"nom":"CONDE-SUR-HUISNE - Gare Sncf","ag":["Réseau interurbain Nomad Car","Agrégat des réseaux urbains et interurbains de Normandie"],"lt":0,"dept":"61"}},{"type":"Feature","geometry":{"type":"Point","coordinates":[0.84329,48.38678]},"properties":{"nom":"CONDE-SUR-HUISNE - Le Houx","ag":["Réseau interurbain Nomad Car","Agrégat des réseaux urbains et interurbains de Normandie"],"lt":0,"dept":"61"}},{"type":"Feature","geometry":{"type":"Point","coordinates":[0.84383,48.38637]},"properties":{"nom":"CONDE-SUR-HUISNE - Le Houx","ag":["Réseau interurbain Nomad Car","Agrégat des réseaux urbains et interurbains de Normandie"],"lt":0,"dept":"61"}},{"type":"Feature","geometry":{"type":"Point","coordinates":[-0.0177,48.74407]},"properties":{"nom":"Hôtel de Ville / Place Mahé","ag":["Réseau interurbain Nomad Car","Agrégat des réseaux urbains et interurbains de Normandie"],"lt":0,"dept":"61"}},{"type":"Feature","geometry":{"type":"Point","coordinates":[-0.02481,48.73803]},"properties":{"nom":"Gare Sncf","ag":["Réseau interurbain Nomad Car","Agrégat des réseaux urbains et interurbains de Normandie"],"lt":0,"dept":"61"}},{"type":"Feature","geometry":{"type":"Point","coordinates":[0.05028,48.43552]},"properties":{"nom":"La Boissière","ag":["Réseau interurbain Nomad Car","Agrégat des réseaux urbains et interurbains de Normandie"],"lt":0,"dept":"61"}},{"type":"Feature","geometry":{"type":"Point","coordinates":[0.62711,48.45439]},"properties":{"nom":"Le Bourg (Voie Verte)","ag":["Réseau interurbain Nomad Car"],"lt":0,"dept":"61"}},{"type":"Feature","geometry":{"type":"Point","coordinates":[0.62709,48.45441]},"properties":{"nom":"Le Bourg (Voie Verte)","ag":["Réseau interurbain Nomad Car","Agrégat des réseaux urbains et interurbains de Normandie"],"lt":0,"dept":"61"}},{"type":"Feature","geometry":{"type":"Point","coordinates":[-0.45472,48.63548]},"properties":{"nom":"La Lande (RD 18)","ag":["Réseau interurbain Nomad Car","Agrégat des réseaux urbains et interurbains de Normandie"],"lt":0,"dept":"61"}},{"type":"Feature","geometry":{"type":"Point","coordinates":[0.35687,48.62758]},"properties":{"nom":"Place","ag":["Réseau interurbain Nomad Car","Agrégat des réseaux urbains et interurbains de Normandie"],"lt":0,"dept":"61"}},{"type":"Feature","geometry":{"type":"Point","coordinates":[-0.4091,48.51725]},"properties":{"nom":"COUTERNE - Le Val Fleuri","ag":["Réseau interurbain Nomad Car","Agrégat des réseaux urbains et interurbains de Normandie"],"lt":0,"dept":"61"}},{"type":"Feature","geometry":{"type":"Point","coordinates":[-0.40266,48.53683]},"properties":{"nom":"COUTERNE - La Morinière","ag":["Réseau interurbain Nomad Car","Agrégat des réseaux urbains et interurbains de Normandie"],"lt":0,"dept":"61"}},{"type":"Feature","geometry":{"type":"Point","coordinates":[-0.4043,48.52377]},"properties":{"nom":"COUTERNE - Lignou","ag":["Réseau interurbain Nomad Car","Agrégat des réseaux urbains et interurbains de Normandie"],"lt":0,"dept":"61"}},{"type":"Feature","geometry":{"type":"Point","coordinates":[0.26239,48.76834]},"properties":{"nom":"Bourg","ag":["Réseau interurbain Nomad Car","Agrégat des réseaux urbains et interurbains de Normandie"],"lt":0,"dept":"61"}},{"type":"Feature","geometry":{"type":"Point","coordinates":[0.1351,48.90088]},"properties":{"nom":"Les Déserts (RD 916)","ag":["Réseau interurbain Nomad Car","Agrégat des réseaux urbains et interurbains de Normandie"],"lt":0,"dept":"61"}},{"type":"Feature","geometry":{"type":"Point","coordinates":[0.14062,48.9218]},"properties":{"nom":"Mairie","ag":["Réseau interurbain Nomad Car","Agrégat des réseaux urbains et interurbains de Normandie"],"lt":0,"dept":"61"}},{"type":"Feature","geometry":{"type":"Point","coordinates":[0.01637,48.4722]},"properties":{"nom":"Mairie (Parking)","ag":["Réseau interurbain Nomad Car","Agrégat des réseaux urbains et interurbains de Normandie"],"lt":0,"dept":"61"}},{"type":"Feature","geometry":{"type":"Point","coordinates":[-0.66123,48.58969]},"properties":{"nom":"DOMFRONT - Ancienne Gare Sncf","ag":["Réseau interurbain Nomad Car","Agrégat des réseaux urbains et interurbains de Normandie"],"lt":0,"dept":"61"}},{"type":"Feature","geometry":{"type":"Point","coordinates":[0.80189,48.42348]},"properties":{"nom":"DORCEAU - Place","ag":["Réseau interurbain Nomad Car","Agrégat des réseaux urbains et interurbains de Normandie"],"lt":0,"dept":"61"}},{"type":"Feature","geometry":{"type":"Point","coordinates":[-0.12092,48.71565]},"properties":{"nom":"Gare Sncf","ag":["Réseau interurbain Nomad Car","Agrégat des réseaux urbains et interurbains de Normandie"],"lt":0,"dept":"61"}},{"type":"Feature","geometry":{"type":"Point","coordinates":[0.18378,48.7588]},"properties":{"nom":"EXMES - Ecole Primaire","ag":["Réseau interurbain Nomad Car","Agrégat des réseaux urbains et interurbains de Normandie"],"lt":0,"dept":"61"}},{"type":"Feature","geometry":{"type":"Point","coordinates":[-0.49715,48.65057]},"properties":{"nom":"La Fougère (RD 18)","ag":["Réseau interurbain Nomad Car","Agrégat des réseaux urbains et interurbains de Normandie"],"lt":0,"dept":"61"}},{"type":"Feature","geometry":{"type":"Point","coordinates":[0.51158,48.83913]},"properties":{"nom":"LA FERTE-FRENEL - Place du Manoir","ag":["Réseau interurbain Nomad Car","Agrégat des réseaux urbains et interurbains de Normandie"],"lt":0,"dept":"61"}},{"type":"Feature","geometry":{"type":"Point","coordinates":[-0.35629,48.59477]},"properties":{"nom":"Ancienne Gare Sncf","ag":["Réseau interurbain Nomad Car","Agrégat des réseaux urbains et interurbains de Normandie"],"lt":0,"dept":"61"}},{"type":"Feature","geometry":{"type":"Point","coordinates":[-0.35542,48.59013]},"properties":{"nom":"Place Neustadt","ag":["Réseau interurbain Nomad Car","Agrégat des réseaux urbains et interurbains de Normandie"],"lt":0,"dept":"61"}},{"type":"Feature","geometry":{"type":"Point","coordinates":[-0.36299,48.59808]},"properties":{"nom":"Boulevard Hamonic (Stade)","ag":["Réseau interurbain Nomad Car","Agrégat des réseaux urbains et interurbains de Normandie"],"lt":0,"dept":"61"}},{"type":"Feature","geometry":{"type":"Point","coordinates":[-0.37132,48.5758]},"properties":{"nom":"Centre commercial du Parc","ag":["Réseau interurbain Nomad Car","Agrégat des réseaux urbains et interurbains de Normandie"],"lt":0,"dept":"61"}},{"type":"Feature","geometry":{"type":"Point","coordinates":[-0.5736,48.74508]},"properties":{"nom":"Gare Sncf","ag":["Réseau interurbain Nomad Car","Agrégat des réseaux urbains et interurbains de Normandie"],"lt":0,"dept":"61"}},{"type":"Feature","geometry":{"type":"Point","coordinates":[0.5455,48.73956]},"properties":{"nom":"Salle des Fêtes","ag":["Réseau interurbain Nomad Car","Agrégat des réseaux urbains et interurbains de Normandie"],"lt":0,"dept":"61"}},{"type":"Feature","geometry":{"type":"Point","coordinates":[0.55082,48.73993]},"properties":{"nom":"Sergent Biard","ag":["Réseau interurbain Nomad Car","Agrégat des réseaux urbains et interurbains de Normandie"],"lt":0,"dept":"61"}},{"type":"Feature","geometry":{"type":"Point","coordinates":[-0.69803,48.76712]},"properties":{"nom":"FRENES - La Rivière","ag":["Réseau interurbain Nomad Car","Agrégat des réseaux urbains et interurbains de Normandie"],"lt":0,"dept":"61"}},{"type":"Feature","geometry":{"type":"Point","coordinates":[0.53478,48.73783]},"properties":{"nom":"Le Mesnil - Saint Esprit","ag":["Réseau interurbain Nomad Car","Agrégat des réseaux urbains et interurbains de Normandie"],"lt":0,"dept":"61"}},{"type":"Feature","geometry":{"type":"Point","coordinates":[0.5305,48.73765]},"properties":{"nom":"La Hutterie","ag":["Réseau interurbain Nomad Car","Agrégat des réseaux urbains et interurbains de Normandie"],"lt":0,"dept":"61"}},{"type":"Feature","geometry":{"type":"Point","coordinates":[0.29641,48.79543]},"properties":{"nom":"Marché aux Bestiaux","ag":["Réseau interurbain Nomad Car","Agrégat des réseaux urbains et interurbains de Normandie"],"lt":0,"dept":"61"}},{"type":"Feature","geometry":{"type":"Point","coordinates":[0.2938,48.7882]},"properties":{"nom":"Gendarmerie","ag":["Réseau interurbain Nomad Car","Agrégat des réseaux urbains et interurbains de Normandie"],"lt":0,"dept":"61"}},{"type":"Feature","geometry":{"type":"Point","coordinates":[0.55342,48.82895]},"properties":{"nom":"GAUVILLE - Bourg","ag":["Réseau interurbain Nomad Car","Agrégat des réseaux urbains et interurbains de Normandie"],"lt":0,"dept":"61"}},{"type":"Feature","geometry":{"type":"Point","coordinates":[0.53772,48.83267]},"properties":{"nom":"GAUVILLE - Les Roncerets","ag":["Réseau interurbain Nomad Car","Agrégat des réseaux urbains et interurbains de Normandie"],"lt":0,"dept":"61"}},{"type":"Feature","geometry":{"type":"Point","coordinates":[0.5228,48.37488]},"properties":{"nom":"LE-GUE-DE-LA-CHAINE - Place du gué","ag":["Réseau interurbain Nomad Car","Agrégat des réseaux urbains et interurbains de Normandie"],"lt":0,"dept":"61"}},{"type":"Feature","geometry":{"type":"Point","coordinates":[0.51544,48.37521]},"properties":{"nom":"LE-GUE-DE-LA-CHAINE - Les Buttes","ag":["Réseau interurbain Nomad Car","Agrégat des réseaux urbains et interurbains de Normandie"],"lt":0,"dept":"61"}},{"type":"Feature","geometry":{"type":"Point","coordinates":[0.51564,48.37477]},"properties":{"nom":"LE-GUE-DE-LA-CHAINE - Les Buttes","ag":["Réseau interurbain Nomad Car","Agrégat des réseaux urbains et interurbains de Normandie"],"lt":0,"dept":"61"}},{"type":"Feature","geometry":{"type":"Point","coordinates":[-0.67199,48.60463]},"properties":{"nom":"LA HAUTE-CHAPELLE - Ancienne école","ag":["Réseau interurbain Nomad Car","Agrégat des réseaux urbains et interurbains de Normandie"],"lt":0,"dept":"61"}},{"type":"Feature","geometry":{"type":"Point","coordinates":[0.54859,48.7025]},"properties":{"nom":"La Bouchardière","ag":["Réseau interurbain Nomad Car","Agrégat des réseaux urbains et interurbains de Normandie"],"lt":0,"dept":"61"}},{"type":"Feature","geometry":{"type":"Point","coordinates":[0.52196,48.32407]},"properties":{"nom":"Place de l'Église","ag":["Réseau interurbain Nomad Car","Agrégat des réseaux urbains et interurbains de Normandie"],"lt":0,"dept":"61"}},{"type":"Feature","geometry":{"type":"Point","coordinates":[0.70151,48.68445]},"properties":{"nom":"La Viennerie","ag":["Réseau interurbain Nomad Car","Agrégat des réseaux urbains et interurbains de Normandie"],"lt":0,"dept":"61"}},{"type":"Feature","geometry":{"type":"Point","coordinates":[0.6979,48.67106]},"properties":{"nom":"Bourg / École","ag":["Réseau interurbain Nomad Car","Agrégat des réseaux urbains et interurbains de Normandie"],"lt":0,"dept":"61"}},{"type":"Feature","geometry":{"type":"Point","coordinates":[-0.23282,48.58147]},"properties":{"nom":"Église","ag":["Réseau interurbain Nomad Car","Agrégat des réseaux urbains et interurbains de Normandie"],"lt":0,"dept":"61"}},{"type":"Feature","geometry":{"type":"Point","coordinates":[-0.14286,48.47549]},"properties":{"nom":"Mairie","ag":["Réseau interurbain Nomad Car","Agrégat des réseaux urbains et interurbains de Normandie"],"lt":0,"dept":"61"}},{"type":"Feature","geometry":{"type":"Point","coordinates":[0.61926,48.76595]},"properties":{"nom":"Gare Sncf","ag":["Réseau interurbain Nomad Car","Agrégat des réseaux urbains et interurbains de Normandie"],"lt":0,"dept":"61"}},{"type":"Feature","geometry":{"type":"Point","coordinates":[-0.57902,48.75168]},"properties":{"nom":"Le Tremblay","ag":["Réseau interurbain Nomad Car","Agrégat des réseaux urbains et interurbains de Normandie"],"lt":0,"dept":"61"}},{"type":"Feature","geometry":{"type":"Point","coordinates":[-0.66419,48.76035]},"properties":{"nom":"La Flaudière","ag":["Réseau interurbain Nomad Car","Agrégat des réseaux urbains et interurbains de Normandie"],"lt":0,"dept":"61"}},{"type":"Feature","geometry":{"type":"Point","coordinates":[-0.63173,48.75584]},"properties":{"nom":"La Métairie / Délaissé","ag":["Réseau interurbain Nomad Car","Agrégat des réseaux urbains et interurbains de Normandie"],"lt":0,"dept":"61"}},{"type":"Feature","geometry":{"type":"Point","coordinates":[-0.63327,48.75653]},"properties":{"nom":"La Métairie","ag":["Réseau interurbain Nomad Car","Agrégat des réseaux urbains et interurbains de Normandie"],"lt":0,"dept":"61"}},{"type":"Feature","geometry":{"type":"Point","coordinates":[-0.64864,48.75635]},"properties":{"nom":"Le Bourg","ag":["Réseau interurbain Nomad Car","Agrégat des réseaux urbains et interurbains de Normandie"],"lt":0,"dept":"61"}},{"type":"Feature","geometry":{"type":"Point","coordinates":[0.16362,48.4945]},"properties":{"nom":"Ecole","ag":["Réseau interurbain Nomad Car","Agrégat des réseaux urbains et interurbains de Normandie"],"lt":0,"dept":"61"}},{"type":"Feature","geometry":{"type":"Point","coordinates":[0.16927,48.4982]},"properties":{"nom":"La Besnarderie","ag":["Réseau interurbain Nomad Car","Agrégat des réseaux urbains et interurbains de Normandie"],"lt":0,"dept":"61"}},{"type":"Feature","geometry":{"type":"Point","coordinates":[-0.05019,48.52418]},"properties":{"nom":"LIVAIE - La Baudriére","ag":["Réseau interurbain Nomad Car","Agrégat des réseaux urbains et interurbains de Normandie"],"lt":0,"dept":"61"}},{"type":"Feature","geometry":{"type":"Point","coordinates":[0.58369,48.49412]},"properties":{"nom":"Les Boulays","ag":["Réseau interurbain Nomad Car","Agrégat des réseaux urbains et interurbains de Normandie"],"lt":0,"dept":"61"}},{"type":"Feature","geometry":{"type":"Point","coordinates":[0.78662,48.52018]},"properties":{"nom":"LONGNY-AU-PERCHE - La Barbinière (RD 918)","ag":["Réseau interurbain Nomad Car","Agrégat des réseaux urbains et interurbains de Normandie"],"lt":0,"dept":"61"}},{"type":"Feature","geometry":{"type":"Point","coordinates":[0.75233,48.53098]},"properties":{"nom":"LONGNY-AU-PERCHE - Hôtel de Ville","ag":["Réseau interurbain Nomad Car","Agrégat des réseaux urbains et interurbains de Normandie"],"lt":0,"dept":"61"}},{"type":"Feature","geometry":{"type":"Point","coordinates":[-0.71025,48.6458]},"properties":{"nom":"Mairie","ag":["Réseau interurbain Nomad Car","Agrégat des réseaux urbains et interurbains de Normandie"],"lt":0,"dept":"61"}},{"type":"Feature","geometry":{"type":"Point","coordinates":[0.0522,48.45439]},"properties":{"nom":"Beaubourdel","ag":["Réseau interurbain Nomad Car","Agrégat des réseaux urbains et interurbains de Normandie"],"lt":0,"dept":"61"}},{"type":"Feature","geometry":{"type":"Point","coordinates":[0.80537,48.50716]},"properties":{"nom":"Grande Rue","ag":["Réseau interurbain Nomad Car","Agrégat des réseaux urbains et interurbains de Normandie"],"lt":0,"dept":"61"}},{"type":"Feature","geometry":{"type":"Point","coordinates":[0.62067,48.45112]},"properties":{"nom":"Le Bourg","ag":["Réseau interurbain Nomad Car","Agrégat des réseaux urbains et interurbains de Normandie"],"lt":0,"dept":"61"}},{"type":"Feature","geometry":{"type":"Point","coordinates":[-0.38481,48.50175]},"properties":{"nom":"Bourg","ag":["Réseau interurbain Nomad Car","Agrégat des réseaux urbains et interurbains de Normandie"],"lt":0,"dept":"61"}},{"type":"Feature","geometry":{"type":"Point","coordinates":[0.23109,48.48291]},"properties":{"nom":"Bourg","ag":["Réseau interurbain Nomad Car","Agrégat des réseaux urbains et interurbains de Normandie"],"lt":0,"dept":"61"}},{"type":"Feature","geometry":{"type":"Point","coordinates":[0.23129,48.48302]},"properties":{"nom":"Bourg","ag":["Réseau interurbain Nomad Car","Agrégat des réseaux urbains et interurbains de Normandie"],"lt":0,"dept":"61"}},{"type":"Feature","geometry":{"type":"Point","coordinates":[-0.41241,48.55712]},"properties":{"nom":"BAGNOLES DE L'ORNE - Office du Tourisme","ag":["Réseau interurbain Nomad Car","Agrégat des réseaux urbains et interurbains de Normandie"],"lt":0,"dept":"61"}},{"type":"Feature","geometry":{"type":"Point","coordinates":[-0.42482,48.54972]},"properties":{"nom":"BAGNOLES-DE-L'ORNE - Église Sainte-Madeleine","ag":["Réseau interurbain Nomad Car","Agrégat des réseaux urbains et interurbains de Normandie"],"lt":0,"dept":"61"}},{"type":"Feature","geometry":{"type":"Point","coordinates":[-0.40435,48.55305]},"properties":{"nom":"BAGNOLES-DE-L'ORNE - Av du Dr Paul Lemuet","ag":["Réseau interurbain Nomad Car","Agrégat des réseaux urbains et interurbains de Normandie"],"lt":0,"dept":"61"}},{"type":"Feature","geometry":{"type":"Point","coordinates":[0.28362,48.70006]},"properties":{"nom":"Mairie","ag":["Réseau interurbain Nomad Car","Agrégat des réseaux urbains et interurbains de Normandie"],"lt":0,"dept":"61"}},{"type":"Feature","geometry":{"type":"Point","coordinates":[0.42661,48.50894]},"properties":{"nom":"Aire de repos","ag":["Réseau interurbain Nomad Car","Agrégat des réseaux urbains et interurbains de Normandie"],"lt":0,"dept":"61"}},{"type":"Feature","geometry":{"type":"Point","coordinates":[0.4332,48.50927]},"properties":{"nom":"Aire de repos","ag":["Réseau interurbain Nomad Car","Agrégat des réseaux urbains et interurbains de Normandie"],"lt":0,"dept":"61"}},{"type":"Feature","geometry":{"type":"Point","coordinates":[-0.5318,48.70556]},"properties":{"nom":"La Pignoche","ag":["Réseau interurbain Nomad Car","Agrégat des réseaux urbains et interurbains de Normandie"],"lt":0,"dept":"61"}},{"type":"Feature","geometry":{"type":"Point","coordinates":[-0.5358,48.71205]},"properties":{"nom":"Place Combattants pour la France","ag":["Réseau interurbain Nomad Car","Agrégat des réseaux urbains et interurbains de Normandie"],"lt":0,"dept":"61"}},{"type":"Feature","geometry":{"type":"Point","coordinates":[-0.54079,48.71944]},"properties":{"nom":"Les Génétés","ag":["Réseau interurbain Nomad Car","Agrégat des réseaux urbains et interurbains de Normandie"],"lt":0,"dept":"61"}},{"type":"Feature","geometry":{"type":"Point","coordinates":[0.39755,48.89278]},"properties":{"nom":"MONNAI - Église","ag":["Réseau interurbain Nomad Car","Agrégat des réseaux urbains et interurbains de Normandie"],"lt":0,"dept":"61"}},{"type":"Feature","geometry":{"type":"Point","coordinates":[0.55085,48.52254]},"properties":{"nom":"Hôpital","ag":["Réseau interurbain Nomad Car","Agrégat des réseaux urbains et interurbains de Normandie"],"lt":0,"dept":"61"}},{"type":"Feature","geometry":{"type":"Point","coordinates":[0.57157,48.5191]},"properties":{"nom":"Loisé","ag":["Réseau interurbain Nomad Car","Agrégat des réseaux urbains et interurbains de Normandie"],"lt":0,"dept":"61"}},{"type":"Feature","geometry":{"type":"Point","coordinates":[0.57216,48.51899]},"properties":{"nom":"Loisé","ag":["Réseau interurbain Nomad Car","Agrégat des réseaux urbains et interurbains de Normandie"],"lt":0,"dept":"61"}},{"type":"Feature","geometry":{"type":"Point","coordinates":[0.47416,48.65051]},"properties":{"nom":"Ecole","ag":["Réseau interurbain Nomad Car","Agrégat des réseaux urbains et interurbains de Normandie"],"lt":0,"dept":"61"}},{"type":"Feature","geometry":{"type":"Point","coordinates":[0.25345,48.85747]},"properties":{"nom":"Les Burets","ag":["Réseau interurbain Nomad Car","Agrégat des réseaux urbains et interurbains de Normandie"],"lt":0,"dept":"61"}},{"type":"Feature","geometry":{"type":"Point","coordinates":[0.68429,48.35533]},"properties":{"nom":"NOCE - La Madeleine","ag":["Réseau interurbain Nomad Car","Agrégat des réseaux urbains et interurbains de Normandie"],"lt":0,"dept":"61"}},{"type":"Feature","geometry":{"type":"Point","coordinates":[0.68279,48.37375]},"properties":{"nom":"NOCE - Garage Agricole","ag":["Réseau interurbain Nomad Car","Agrégat des réseaux urbains et interurbains de Normandie"],"lt":0,"dept":"61"}},{"type":"Feature","geometry":{"type":"Point","coordinates":[0.68271,48.37374]},"properties":{"nom":"NOCE - Garage Agricole","ag":["Réseau interurbain Nomad Car","Agrégat des réseaux urbains et interurbains de Normandie"],"lt":0,"dept":"61"}},{"type":"Feature","geometry":{"type":"Point","coordinates":[-0.07227,48.78114]},"properties":{"nom":"Bourg (RD 958)","ag":["Réseau interurbain Nomad Car"],"lt":0,"dept":"61"}},{"type":"Feature","geometry":{"type":"Point","coordinates":[-0.06616,48.77677]},"properties":{"nom":"Chemin de la Dime (RD 958)","ag":["Réseau interurbain Nomad Car","Agrégat des réseaux urbains et interurbains de Normandie"],"lt":0,"dept":"61"}},{"type":"Feature","geometry":{"type":"Point","coordinates":[0.44266,48.38907]},"properties":{"nom":"LA PERRIERE - Salle des Fêtes","ag":["Réseau interurbain Nomad Car","Agrégat des réseaux urbains et interurbains de Normandie"],"lt":0,"dept":"61"}},{"type":"Feature","geometry":{"type":"Point","coordinates":[0.54715,48.45686]},"properties":{"nom":"Les Ailliotières","ag":["Réseau interurbain Nomad Car","Agrégat des réseaux urbains et interurbains de Normandie"],"lt":0,"dept":"61"}},{"type":"Feature","geometry":{"type":"Point","coordinates":[0.54699,48.4579]},"properties":{"nom":"Les Ailliotières","ag":["Réseau interurbain Nomad Car","Agrégat des réseaux urbains et interurbains de Normandie"],"lt":0,"dept":"61"}},{"type":"Feature","geometry":{"type":"Point","coordinates":[0.54734,48.44364]},"properties":{"nom":"Ancienne École","ag":["Réseau interurbain Nomad Car","Agrégat des réseaux urbains et interurbains de Normandie"],"lt":0,"dept":"61"}},{"type":"Feature","geometry":{"type":"Point","coordinates":[0.5472,48.44309]},"properties":{"nom":"Ancienne École","ag":["Réseau interurbain Nomad Car","Agrégat des réseaux urbains et interurbains de Normandie"],"lt":0,"dept":"61"}},{"type":"Feature","geometry":{"type":"Point","coordinates":[-0.2454,48.76418]},"properties":{"nom":"PUTANGES-PONT-ECREPIN - Mairie (Avenue du 18 juin)","ag":["Réseau interurbain Nomad Car","Agrégat des réseaux urbains et interurbains de Normandie"],"lt":0,"dept":"61"}},{"type":"Feature","geometry":{"type":"Point","coordinates":[0.56103,48.74327]},"properties":{"nom":"Bois Furet","ag":["Réseau interurbain Nomad Car","Agrégat des réseaux urbains et interurbains de Normandie"],"lt":0,"dept":"61"}},{"type":"Feature","geometry":{"type":"Point","coordinates":[0.59287,48.75568]},"properties":{"nom":"Rue Beausejour","ag":["Réseau interurbain Nomad Car","Agrégat des réseaux urbains et interurbains de Normandie"],"lt":0,"dept":"61"}},{"type":"Feature","geometry":{"type":"Point","coordinates":[-0.19468,48.65734]},"properties":{"nom":"La Forêterie (RD 916)","ag":["Réseau interurbain Nomad Car","Agrégat des réseaux urbains et interurbains de Normandie"],"lt":0,"dept":"61"}},{"type":"Feature","geometry":{"type":"Point","coordinates":[0.78593,48.42785]},"properties":{"nom":"REMALARD - Zone Inductrielle de Saint Marc","ag":["Réseau interurbain Nomad Car","Agrégat des réseaux urbains et interurbains de Normandie"],"lt":0,"dept":"61"}},{"type":"Feature","geometry":{"type":"Point","coordinates":[0.78635,48.42792]},"properties":{"nom":"REMALARD - Zone Inductrielle de Saint Marc","ag":["Réseau interurbain Nomad Car","Agrégat des réseaux urbains et interurbains de Normandie"],"lt":0,"dept":"61"}},{"type":"Feature","geometry":{"type":"Point","coordinates":[-0.13612,48.81282]},"properties":{"nom":"Mairie","ag":["Réseau interurbain Nomad Car","Agrégat des réseaux urbains et interurbains de Normandie"],"lt":0,"dept":"61"}},{"type":"Feature","geometry":{"type":"Point","coordinates":[-0.11822,48.81127]},"properties":{"nom":"Pierrefitte (RD 29)","ag":["Réseau interurbain Nomad Car","Agrégat des réseaux urbains et interurbains de Normandie"],"lt":0,"dept":"61"}},{"type":"Feature","geometry":{"type":"Point","coordinates":[-0.52288,48.69438]},"properties":{"nom":"Le Bourg / Aire d'Arrêt (RD 18)","ag":["Réseau interurbain Nomad Car","Agrégat des réseaux urbains et interurbains de Normandie"],"lt":0,"dept":"61"}},{"type":"Feature","geometry":{"type":"Point","coordinates":[-0.6333,48.64255]},"properties":{"nom":"Le Bourg / École","ag":["Réseau interurbain Nomad Car","Agrégat des réseaux urbains et interurbains de Normandie"],"lt":0,"dept":"61"}},{"type":"Feature","geometry":{"type":"Point","coordinates":[-0.62154,48.64679]},"properties":{"nom":"Les Forges","ag":["Réseau interurbain Nomad Car","Agrégat des réseaux urbains et interurbains de Normandie"],"lt":0,"dept":"61"}},{"type":"Feature","geometry":{"type":"Point","coordinates":[-0.05738,48.45707]},"properties":{"nom":"Sainte-Thérèse","ag":["Réseau interurbain Nomad Car","Agrégat des réseaux urbains et interurbains de Normandie"],"lt":0,"dept":"61"}},{"type":"Feature","geometry":{"type":"Point","coordinates":[-0.0495,48.45691]},"properties":{"nom":"Bourg","ag":["Réseau interurbain Nomad Car","Agrégat des réseaux urbains et interurbains de Normandie"],"lt":0,"dept":"61"}},{"type":"Feature","geometry":{"type":"Point","coordinates":[-0.03807,48.4564]},"properties":{"nom":"Mélivier","ag":["Réseau interurbain Nomad Car","Agrégat des réseaux urbains et interurbains de Normandie"],"lt":0,"dept":"61"}},{"type":"Feature","geometry":{"type":"Point","coordinates":[0.43061,48.71641]},"properties":{"nom":"Bourg / Mairie","ag":["Réseau interurbain Nomad Car","Agrégat des réseaux urbains et interurbains de Normandie"],"lt":0,"dept":"61"}},{"type":"Feature","geometry":{"type":"Point","coordinates":[-0.26456,48.63099]},"properties":{"nom":"Aire de la Paix","ag":["Réseau interurbain Nomad Car","Agrégat des réseaux urbains et interurbains de Normandie"],"lt":0,"dept":"61"}},{"type":"Feature","geometry":{"type":"Point","coordinates":[0.60423,48.27896]},"properties":{"nom":"Salle des Fêtes","ag":["Réseau interurbain Nomad Car","Agrégat des réseaux urbains et interurbains de Normandie"],"lt":0,"dept":"61"}},{"type":"Feature","geometry":{"type":"Point","coordinates":[0.83933,48.39885]},"properties":{"nom":"Les Quatre Vent (Voie Verte)","ag":["Réseau interurbain Nomad Car","Agrégat des réseaux urbains et interurbains de Normandie"],"lt":0,"dept":"61"}},{"type":"Feature","geometry":{"type":"Point","coordinates":[0.8393,48.39933]},"properties":{"nom":"Les Quatre Vent (Voie Verte)","ag":["Réseau interurbain Nomad Car","Agrégat des réseaux urbains et interurbains de Normandie"],"lt":0,"dept":"61"}},{"type":"Feature","geometry":{"type":"Point","coordinates":[0.83412,48.40888]},"properties":{"nom":"La Basse Davillière","ag":["Réseau interurbain Nomad Car","Agrégat des réseaux urbains et interurbains de Normandie"],"lt":0,"dept":"61"}},{"type":"Feature","geometry":{"type":"Point","coordinates":[0.83417,48.4089]},"properties":{"nom":"La Basse Davillière","ag":["Réseau interurbain Nomad Car","Agrégat des réseaux urbains et interurbains de Normandie"],"lt":0,"dept":"61"}},{"type":"Feature","geometry":{"type":"Point","coordinates":[0.49358,48.73141]},"properties":{"nom":"Bourg","ag":["Réseau interurbain Nomad Car","Agrégat des réseaux urbains et interurbains de Normandie"],"lt":0,"dept":"61"}},{"type":"Feature","geometry":{"type":"Point","coordinates":[0.36176,48.50719]},"properties":{"nom":"Le Carré Saint-Julien","ag":["Réseau interurbain Nomad Car","Agrégat des réseaux urbains et interurbains de Normandie"],"lt":0,"dept":"61"}},{"type":"Feature","geometry":{"type":"Point","coordinates":[0.3618,48.50723]},"properties":{"nom":"Le Carré Saint-Julien","ag":["Réseau interurbain Nomad Car","Agrégat des réseaux urbains et interurbains de Normandie"],"lt":0,"dept":"61"}},{"type":"Feature","geometry":{"type":"Point","coordinates":[0.63681,48.5104]},"properties":{"nom":"Mairie (Parking)","ag":["Réseau interurbain Nomad Car","Agrégat des réseaux urbains et interurbains de Normandie"],"lt":0,"dept":"61"}},{"type":"Feature","geometry":{"type":"Point","coordinates":[0.74429,48.68]},"properties":{"nom":"École","ag":["Réseau interurbain Nomad Car","Agrégat des réseaux urbains et interurbains de Normandie"],"lt":0,"dept":"61"}},{"type":"Feature","geometry":{"type":"Point","coordinates":[0.54421,48.38184]},"properties":{"nom":"Église","ag":["Réseau interurbain Nomad Car"],"lt":0,"dept":"61"}},{"type":"Feature","geometry":{"type":"Point","coordinates":[-0.38824,48.61058]},"properties":{"nom":"SAINT-MAURICE-DU-DESERT - Bourg","ag":["Réseau interurbain Nomad Car","Agrégat des réseaux urbains et interurbains de Normandie"],"lt":0,"dept":"61"}},{"type":"Feature","geometry":{"type":"Point","coordinates":[-0.41564,48.57947]},"properties":{"nom":"SAINT-MICHEL-DES-ANDAINES - Église","ag":["Réseau interurbain Nomad Car","Agrégat des réseaux urbains et interurbains de Normandie"],"lt":0,"dept":"61"}},{"type":"Feature","geometry":{"type":"Point","coordinates":[0.68798,48.75184]},"properties":{"nom":"Bourg / École","ag":["Réseau interurbain Nomad Car","Agrégat des réseaux urbains et interurbains de Normandie"],"lt":0,"dept":"61"}},{"type":"Feature","geometry":{"type":"Point","coordinates":[0.69431,48.73541]},"properties":{"nom":"Bourg","ag":["Réseau interurbain Nomad Car","Agrégat des réseaux urbains et interurbains de Normandie"],"lt":0,"dept":"61"}},{"type":"Feature","geometry":{"type":"Point","coordinates":[-0.31207,48.61223]},"properties":{"nom":"La Croix du Houx / Carrefour des Crêtes","ag":["Réseau interurbain Nomad Car","Agrégat des réseaux urbains et interurbains de Normandie"],"lt":0,"dept":"61"}},{"type":"Feature","geometry":{"type":"Point","coordinates":[0.55565,48.37689]},"properties":{"nom":"Champ de Foire","ag":["Réseau interurbain Nomad Car","Agrégat des réseaux urbains et interurbains de Normandie"],"lt":0,"dept":"61"}},{"type":"Feature","geometry":{"type":"Point","coordinates":[0.56249,48.375]},"properties":{"nom":"Office du Tourisme","ag":["Réseau interurbain Nomad Car"],"lt":0,"dept":"61"}},{"type":"Feature","geometry":{"type":"Point","coordinates":[0.56247,48.37497]},"properties":{"nom":"Office du Tourisme","ag":["Réseau interurbain Nomad Car","Agrégat des réseaux urbains et interurbains de Normandie"],"lt":0,"dept":"61"}},{"type":"Feature","geometry":{"type":"Point","coordinates":[0.64614,48.76165]},"properties":{"nom":"Chemin du Minerai, 85 Route de Paris","ag":["Réseau interurbain Nomad Car","Agrégat des réseaux urbains et interurbains de Normandie"],"lt":0,"dept":"61"}},{"type":"Feature","geometry":{"type":"Point","coordinates":[0.69652,48.51472]},"properties":{"nom":"SAINT-VICTOR-DE-RENO - RD8 X RD291","ag":["Réseau interurbain Nomad Car","Agrégat des réseaux urbains et interurbains de Normandie"],"lt":0,"dept":"61"}},{"type":"Feature","geometry":{"type":"Point","coordinates":[0.69664,48.51451]},"properties":{"nom":"SAINT-VICTOR-DE-RENO - RD8 X RD291","ag":["Réseau interurbain Nomad Car","Agrégat des réseaux urbains et interurbains de Normandie"],"lt":0,"dept":"61"}},{"type":"Feature","geometry":{"type":"Point","coordinates":[0.3401,48.89444]},"properties":{"nom":"LESAP - Église","ag":["Réseau interurbain Nomad Car","Agrégat des réseaux urbains et interurbains de Normandie"],"lt":0,"dept":"61"}},{"type":"Feature","geometry":{"type":"Point","coordinates":[-0.41585,48.62327]},"properties":{"nom":"LA SAUVAGERE - Eglise","ag":["Réseau interurbain Nomad Car","Agrégat des réseaux urbains et interurbains de Normandie"],"lt":0,"dept":"61"}},{"type":"Feature","geometry":{"type":"Point","coordinates":[0.17078,48.60723]},"properties":{"nom":"Place de la 2ème Division Blindée","ag":["Réseau interurbain Nomad Car","Agrégat des réseaux urbains et interurbains de Normandie"],"lt":0,"dept":"61"}},{"type":"Feature","geometry":{"type":"Point","coordinates":[0.16679,48.60008]},"properties":{"nom":"Gare Sncf","ag":["Réseau interurbain Nomad Car","Agrégat des réseaux urbains et interurbains de Normandie"],"lt":0,"dept":"61"}},{"type":"Feature","geometry":{"type":"Point","coordinates":[0.13115,48.58752]},"properties":{"nom":"Les Choux","ag":["Réseau interurbain Nomad Car","Agrégat des réseaux urbains et interurbains de Normandie"],"lt":0,"dept":"61"}},{"type":"Feature","geometry":{"type":"Point","coordinates":[-0.1342,48.71263]},"properties":{"nom":"Udon (RD 924)","ag":["Réseau interurbain Nomad Car","Agrégat des réseaux urbains et interurbains de Normandie"],"lt":0,"dept":"61"}},{"type":"Feature","geometry":{"type":"Point","coordinates":[0.07038,48.75379]},"properties":{"nom":"SILLY-EN-GOUFFERN - Mairie","ag":["Réseau interurbain Nomad Car","Agrégat des réseaux urbains et interurbains de Normandie"],"lt":0,"dept":"61"}},{"type":"Feature","geometry":{"type":"Point","coordinates":[0.39828,48.36893]},"properties":{"nom":"Église","ag":["Réseau interurbain Nomad Car","Agrégat des réseaux urbains et interurbains de Normandie"],"lt":0,"dept":"61"}},{"type":"Feature","geometry":{"type":"Point","coordinates":[0.66034,48.26719]},"properties":{"nom":"LE THEIL-SUR-HUISNE - Les Vaux Mignons","ag":["Réseau interurbain Nomad Car","Agrégat des réseaux urbains et interurbains de Normandie"],"lt":0,"dept":"61"}},{"type":"Feature","geometry":{"type":"Point","coordinates":[0.68582,48.2646]},"properties":{"nom":"LE THEIL-SUR-HUISNE - Avenue des Loges","ag":["Réseau interurbain Nomad Car","Agrégat des réseaux urbains et interurbains de Normandie"],"lt":0,"dept":"61"}},{"type":"Feature","geometry":{"type":"Point","coordinates":[0.26439,48.90845]},"properties":{"nom":"Bourg","ag":["Réseau interurbain Nomad Car","Agrégat des réseaux urbains et interurbains de Normandie"],"lt":0,"dept":"61"}},{"type":"Feature","geometry":{"type":"Point","coordinates":[0.25186,48.90763]},"properties":{"nom":"Croix Rouge","ag":["Réseau interurbain Nomad Car","Agrégat des réseaux urbains et interurbains de Normandie"],"lt":0,"dept":"61"}},{"type":"Feature","geometry":{"type":"Point","coordinates":[0.26308,48.90948]},"properties":{"nom":"Bourg / Mairie","ag":["Réseau interurbain Nomad Car","Agrégat des réseaux urbains et interurbains de Normandie"],"lt":0,"dept":"61"}},{"type":"Feature","geometry":{"type":"Point","coordinates":[-0.73698,48.76321]},"properties":{"nom":"TINCHEBRAY - Champ de Foire","ag":["Réseau interurbain Nomad Car","Agrégat des réseaux urbains et interurbains de Normandie"],"lt":0,"dept":"61"}},{"type":"Feature","geometry":{"type":"Point","coordinates":[-0.73154,48.76594]},"properties":{"nom":"TINCHEBRAY - Ancienne Gare","ag":["Réseau interurbain Nomad Car","Agrégat des réseaux urbains et interurbains de Normandie"],"lt":0,"dept":"61"}},{"type":"Feature","geometry":{"type":"Point","coordinates":[0.65174,48.59054]},"properties":{"nom":"TOUROUVRE - Eglise (rue du 13 août 1944)","ag":["Réseau interurbain Nomad Car","Agrégat des réseaux urbains et interurbains de Normandie"],"lt":0,"dept":"61"}},{"type":"Feature","geometry":{"type":"Point","coordinates":[0.03306,48.84277]},"properties":{"nom":"Mairie","ag":["Réseau interurbain Nomad Car","Agrégat des réseaux urbains et interurbains de Normandie"],"lt":0,"dept":"61"}},{"type":"Feature","geometry":{"type":"Point","coordinates":[0.69547,48.60836]},"properties":{"nom":"2 Chemin de la Brindellière","ag":["Réseau interurbain Nomad Car","Agrégat des réseaux urbains et interurbains de Normandie"],"lt":0,"dept":"61"}},{"type":"Feature","geometry":{"type":"Point","coordinates":[0.20012,48.92887]},"properties":{"nom":"Rue du Docteur Maillard","ag":["Réseau interurbain Nomad Car","Agrégat des réseaux urbains et interurbains de Normandie"],"lt":0,"dept":"61"}},{"type":"Feature","geometry":{"type":"Point","coordinates":[0.70848,48.71626]},"properties":{"nom":"Le Bourg","ag":["Réseau interurbain Nomad Car","Agrégat des réseaux urbains et interurbains de Normandie"],"lt":0,"dept":"61"}},{"type":"Feature","geometry":{"type":"Point","coordinates":[-0.26837,48.71844]},"properties":{"nom":"Fromentel / Salle des Fêtes","ag":["Réseau interurbain Nomad Car","Agrégat des réseaux urbains et interurbains de Normandie"],"lt":0,"dept":"61"}},{"type":"Feature","geometry":{"type":"Point","coordinates":[0.71276,48.44182]},"properties":{"nom":"BOISSY-MAUGIS - Mairie","ag":["Réseau interurbain Nomad Car","Agrégat des réseaux urbains et interurbains de Normandie"],"lt":0,"dept":"61"}},{"type":"Feature","geometry":{"type":"Point","coordinates":[0.09824,48.43435]},"properties":{"nom":"Gare Sncf","ag":["Réseau interurbain Nomad Car","Agrégat des réseaux urbains et interurbains de Normandie"],"lt":0,"dept":"61"}},{"type":"Feature","geometry":{"type":"Point","coordinates":[-0.44156,48.69047]},"properties":{"nom":"Église","ag":["Réseau interurbain Nomad Car","Agrégat des réseaux urbains et interurbains de Normandie"],"lt":0,"dept":"61"}},{"type":"Feature","geometry":{"type":"Point","coordinates":[-0.57839,48.79155]},"properties":{"nom":"Normand'Innov","ag":["Réseau interurbain Nomad Car","Agrégat des réseaux urbains et interurbains de Normandie"],"lt":0,"dept":"61"}},{"type":"Feature","geometry":{"type":"Point","coordinates":[-0.734,48.76261]},"properties":{"nom":"TINCHEBRAY - Etablissement Saint-Rémy","ag":["Réseau interurbain Nomad Car","Agrégat des réseaux urbains et interurbains de Normandie"],"lt":0,"dept":"61"}},{"type":"Feature","geometry":{"type":"Point","coordinates":[0.13324,48.66528]},"properties":{"nom":"Gare de Surdon","ag":["Réseau interurbain Nomad Car","Agrégat des réseaux urbains et interurbains de Normandie"],"lt":0,"dept":"61"}},{"type":"Feature","geometry":{"type":"Point","coordinates":[0.42955,48.71704]},"properties":{"nom":"Gare Sncf","ag":["Réseau interurbain Nomad Car","Agrégat des réseaux urbains et interurbains de Normandie"],"lt":0,"dept":"61"}},{"type":"Feature","geometry":{"type":"Point","coordinates":[0.21893,48.70407]},"properties":{"nom":"Gare Sncf","ag":["Réseau interurbain Nomad Car","Agrégat des réseaux urbains et interurbains de Normandie"],"lt":0,"dept":"61"}},{"type":"Feature","geometry":{"type":"Point","coordinates":[-0.36147,48.59666]},"properties":{"nom":"ANCIENNE GARE - LA FERTE-MACE","ag":["TAD zonal réseau Aléop - Pays de la Loire"],"lt":0,"dept":"61"}},{"type":"Feature","geometry":{"type":"Point","coordinates":[-0.42529,48.5496]},"properties":{"nom":"EGLISE - BAGNOLES-DE-L'ORNE-NORMANDIE","ag":["TAD zonal réseau Aléop - Pays de la Loire"],"lt":0,"dept":"61"}},{"type":"Feature","geometry":{"type":"Point","coordinates":[0.09842,48.43393]},"properties":{"nom":"GARE - ALENCON","ag":["TAD zonal réseau Aléop - Pays de la Loire"],"lt":0,"dept":"61"}},{"type":"Feature","geometry":{"type":"Point","coordinates":[0.08481,48.4266]},"properties":{"nom":"HOPITAL - ALENCON","ag":["TAD zonal réseau Aléop - Pays de la Loire"],"lt":0,"dept":"61"}},{"type":"Feature","geometry":{"type":"Point","coordinates":[-0.35124,48.59687]},"properties":{"nom":"HOPITAL - LA FERTE-MACE","ag":["TAD zonal réseau Aléop - Pays de la Loire"],"lt":0,"dept":"61"}},{"type":"Feature","geometry":{"type":"Point","coordinates":[0.08267,48.43027]},"properties":{"nom":"MAIRIE - ALENCON","ag":["TAD zonal réseau Aléop - Pays de la Loire"],"lt":0,"dept":"61"}},{"type":"Feature","geometry":{"type":"Point","coordinates":[-0.42133,48.55293]},"properties":{"nom":"MAIRIE - BAGNOLES-DE-L'ORNE-NORMANDIE","ag":["TAD zonal réseau Aléop - Pays de la Loire"],"lt":0,"dept":"61"}},{"type":"Feature","geometry":{"type":"Point","coordinates":[-0.35858,48.58996]},"properties":{"nom":"MAIRIE - LA FERTE-MACE","ag":["TAD zonal réseau Aléop - Pays de la Loire"],"lt":0,"dept":"61"}},{"type":"Feature","geometry":{"type":"Point","coordinates":[-0.41182,48.55696]},"properties":{"nom":"OFFICE DU TOURISME - BAGNOLES-DE-L'ORNE-NORMANDIE","ag":["TAD zonal réseau Aléop - Pays de la Loire"],"lt":0,"dept":"61"}},{"type":"Feature","geometry":{"type":"Point","coordinates":[0.20009,48.92893]},"properties":{"nom":"RUE DU DOCTEUR MAILLARD","ag":["Réseau urbain Astrobus","Agrégat des réseaux urbains et interurbains de Normandie"],"lt":0,"dept":"61"}},{"type":"Feature","geometry":{"type":"Point","coordinates":[0.20019,48.92887]},"properties":{"nom":"RUE DU DOCTEUR MAILLARD","ag":["Réseau urbain Astrobus","Agrégat des réseaux urbains et interurbains de Normandie"],"lt":0,"dept":"61"}},{"type":"Feature","geometry":{"type":"Point","coordinates":[0.19921,48.9219]},"properties":{"nom":"ALLEE DES PROMENADES","ag":["Réseau urbain Astrobus","Agrégat des réseaux urbains et interurbains de Normandie"],"lt":0,"dept":"61"}},{"type":"Feature","geometry":{"type":"Point","coordinates":[0.20157,48.9331]},"properties":{"nom":"RUE KENNEDY","ag":["Réseau urbain Astrobus","Agrégat des réseaux urbains et interurbains de Normandie"],"lt":0,"dept":"61"}},{"type":"Feature","geometry":{"type":"Point","coordinates":[0.20044,48.93388]},"properties":{"nom":"AVENUE LYAUTEY","ag":["Réseau urbain Astrobus","Agrégat des réseaux urbains et interurbains de Normandie"],"lt":0,"dept":"61"}},{"type":"Feature","geometry":{"type":"Point","coordinates":[-0.36147,48.59666]},"properties":{"nom":"Ancienne gare","ag":["Réseau interurbain Aléop - Pays de la Loire"],"lt":1,"dept":"61"}},{"type":"Feature","geometry":{"type":"Point","coordinates":[0.04914,48.43563]},"properties":{"nom":"Centre aquatique","ag":["Réseau interurbain Aléop - Pays de la Loire","Agrégat des réseaux urbains et interurbains des Pays de la Loire"],"lt":1,"dept":"61"}},{"type":"Feature","geometry":{"type":"Point","coordinates":[0.09798,48.43429]},"properties":{"nom":"Gare routière","ag":["Réseau interurbain Aléop - Pays de la Loire","Agrégat des réseaux urbains et interurbains des Pays de la Loire"],"lt":1,"dept":"61"}},{"type":"Feature","geometry":{"type":"Point","coordinates":[0.09848,48.43388]},"properties":{"nom":"Gare SNCF","ag":["Réseau interurbain Aléop - Pays de la Loire"],"lt":1,"dept":"61"}},{"type":"Feature","geometry":{"type":"Point","coordinates":[0.08481,48.4266]},"properties":{"nom":"Hôpital","ag":["Réseau interurbain Aléop - Pays de la Loire"],"lt":1,"dept":"61"}},{"type":"Feature","geometry":{"type":"Point","coordinates":[-0.35124,48.59687]},"properties":{"nom":"Hôpital","ag":["Réseau interurbain Aléop - Pays de la Loire"],"lt":1,"dept":"61"}},{"type":"Feature","geometry":{"type":"Point","coordinates":[0.08911,48.40987]},"properties":{"nom":"Le Point d'Alençon","ag":["Réseau interurbain Aléop - Pays de la Loire","Agrégat des réseaux urbains et interurbains des Pays de la Loire"],"lt":1,"dept":"61"}},{"type":"Feature","geometry":{"type":"Point","coordinates":[0.08178,48.43885]},"properties":{"nom":"Lycée Alain","ag":["Réseau interurbain Aléop - Pays de la Loire","Agrégat des réseaux urbains et interurbains des Pays de la Loire"],"lt":1,"dept":"61"}},{"type":"Feature","geometry":{"type":"Point","coordinates":[0.09031,48.41032]},"properties":{"nom":"Lycée Navarre","ag":["Réseau interurbain Aléop - Pays de la Loire"],"lt":1,"dept":"61"}},{"type":"Feature","geometry":{"type":"Point","coordinates":[0.08267,48.43027]},"properties":{"nom":"Mairie","ag":["Réseau interurbain Aléop - Pays de la Loire"],"lt":1,"dept":"61"}},{"type":"Feature","geometry":{"type":"Point","coordinates":[-0.42133,48.55293]},"properties":{"nom":"Mairie","ag":["Réseau interurbain Aléop - Pays de la Loire"],"lt":1,"dept":"61"}},{"type":"Feature","geometry":{"type":"Point","coordinates":[-0.35858,48.58996]},"properties":{"nom":"Mairie","ag":["Réseau interurbain Aléop - Pays de la Loire"],"lt":1,"dept":"61"}},{"type":"Feature","geometry":{"type":"Point","coordinates":[0.09022,48.42375]},"properties":{"nom":"Montsort","ag":["Réseau interurbain Aléop - Pays de la Loire","Agrégat des réseaux urbains et interurbains des Pays de la Loire"],"lt":1,"dept":"61"}},{"type":"Feature","geometry":{"type":"Point","coordinates":[-0.41182,48.55696]},"properties":{"nom":"Office du Tourisme","ag":["Réseau interurbain Aléop - Pays de la Loire"],"lt":1,"dept":"61"}},{"type":"Feature","geometry":{"type":"Point","coordinates":[0.09906,48.43201]},"properties":{"nom":"Saint François Rue Papin","ag":["Réseau interurbain Aléop - Pays de la Loire"],"lt":1,"dept":"61"}},{"type":"Feature","geometry":{"type":"Point","coordinates":[0.10526,48.43311]},"properties":{"nom":"Square du Poilu","ag":["Réseau interurbain Aléop - Pays de la Loire","Agrégat des réseaux urbains et interurbains des Pays de la Loire"],"lt":1,"dept":"61"}},{"type":"Feature","geometry":{"type":"Point","coordinates":[-0.42529,48.5496]},"properties":{"nom":"église","ag":["Réseau interurbain Aléop - Pays de la Loire"],"lt":1,"dept":"61"}},{"type":"Feature","geometry":{"type":"Point","coordinates":[0.09842,48.43393]},"properties":{"nom":"Gare","ag":["Réseau interurbain Aléop - Pays de la Loire"],"lt":0,"dept":"61"}},{"type":"Feature","geometry":{"type":"Point","coordinates":[0.08152,48.43835]},"properties":{"nom":"Lycée Alain","ag":["Réseau interurbain Aléop - Pays de la Loire","Agrégat des réseaux urbains et interurbains des Pays de la Loire"],"lt":0,"dept":"61"}},{"type":"Feature","geometry":{"type":"Point","coordinates":[0.08245,48.43985]},"properties":{"nom":"Lycée Alain","ag":["Réseau interurbain Aléop - Pays de la Loire","Agrégat des réseaux urbains et interurbains des Pays de la Loire"],"lt":0,"dept":"61"}},{"type":"Feature","geometry":{"type":"Point","coordinates":[0.08138,48.43835]},"properties":{"nom":"Lycée Alain","ag":["Réseau interurbain Aléop - Pays de la Loire","Agrégat des réseaux urbains et interurbains des Pays de la Loire"],"lt":0,"dept":"61"}},{"type":"Feature","geometry":{"type":"Point","coordinates":[0.09039,48.41026]},"properties":{"nom":"Lycée Navarre","ag":["Réseau interurbain Aléop - Pays de la Loire"],"lt":0,"dept":"61"}},{"type":"Feature","geometry":{"type":"Point","coordinates":[0.09024,48.41037]},"properties":{"nom":"Lycée Navarre","ag":["Réseau interurbain Aléop - Pays de la Loire"],"lt":0,"dept":"61"}},{"type":"Feature","geometry":{"type":"Point","coordinates":[0.0904,48.42388]},"properties":{"nom":"Montsort","ag":["Réseau interurbain Aléop - Pays de la Loire","Agrégat des réseaux urbains et interurbains des Pays de la Loire"],"lt":0,"dept":"61"}},{"type":"Feature","geometry":{"type":"Point","coordinates":[0.09004,48.42362]},"properties":{"nom":"Montsort","ag":["Réseau interurbain Aléop - Pays de la Loire","Agrégat des réseaux urbains et interurbains des Pays de la Loire"],"lt":0,"dept":"61"}},{"type":"Feature","geometry":{"type":"Point","coordinates":[-0.57585,48.7522]},"properties":{"nom":"Le Tremblay","ag":["Réseau urbain Nemus","Agrégat des réseaux urbains et interurbains de Normandie"],"lt":0,"dept":"61"}},{"type":"Feature","geometry":{"type":"Point","coordinates":[-0.57545,48.75218]},"properties":{"nom":"Le Tremblay","ag":["Réseau urbain Nemus","Agrégat des réseaux urbains et interurbains de Normandie"],"lt":0,"dept":"61"}},{"type":"Feature","geometry":{"type":"Point","coordinates":[-0.56634,48.75934]},"properties":{"nom":"Bellevue","ag":["Réseau urbain Nemus","Agrégat des réseaux urbains et interurbains de Normandie"],"lt":0,"dept":"61"}},{"type":"Feature","geometry":{"type":"Point","coordinates":[-0.58006,48.7329]},"properties":{"nom":"Centre Aquatique Capfl'O","ag":["Réseau urbain Nemus","Agrégat des réseaux urbains et interurbains de Normandie"],"lt":0,"dept":"61"}},{"type":"Feature","geometry":{"type":"Point","coordinates":[-0.56683,48.75002]},"properties":{"nom":"Place Charles de Gaulle","ag":["Réseau urbain Nemus","Agrégat des réseaux urbains et interurbains de Normandie"],"lt":0,"dept":"61"}},{"type":"Feature","geometry":{"type":"Point","coordinates":[-0.56679,48.74999]},"properties":{"nom":"Pl. Ch. de Gaulle","ag":["Réseau urbain Nemus","Agrégat des réseaux urbains et interurbains de Normandie"],"lt":0,"dept":"61"}},{"type":"Feature","geometry":{"type":"Point","coordinates":[-0.5874,48.73958]},"properties":{"nom":"Chapelle","ag":["Réseau urbain Nemus","Agrégat des réseaux urbains et interurbains de Normandie"],"lt":0,"dept":"61"}},{"type":"Feature","geometry":{"type":"Point","coordinates":[-0.5875,48.7397]},"properties":{"nom":"Chapelle","ag":["Réseau urbain Nemus","Agrégat des réseaux urbains et interurbains de Normandie"],"lt":0,"dept":"61"}},{"type":"Feature","geometry":{"type":"Point","coordinates":[-0.56653,48.7477]},"properties":{"nom":"Charleston","ag":["Réseau urbain Nemus","Agrégat des réseaux urbains et interurbains de Normandie"],"lt":0,"dept":"61"}},{"type":"Feature","geometry":{"type":"Point","coordinates":[-0.56646,48.74764]},"properties":{"nom":"Charleston","ag":["Réseau urbain Nemus","Agrégat des réseaux urbains et interurbains de Normandie"],"lt":0,"dept":"61"}},{"type":"Feature","geometry":{"type":"Point","coordinates":[-0.57371,48.75098]},"properties":{"nom":"Château","ag":["Réseau urbain Nemus","Agrégat des réseaux urbains et interurbains de Normandie"],"lt":0,"dept":"61"}},{"type":"Feature","geometry":{"type":"Point","coordinates":[-0.57353,48.75078]},"properties":{"nom":"Château","ag":["Réseau urbain Nemus","Agrégat des réseaux urbains et interurbains de Normandie"],"lt":0,"dept":"61"}},{"type":"Feature","geometry":{"type":"Point","coordinates":[-0.56233,48.74083]},"properties":{"nom":"ZI Chaussée","ag":["Réseau urbain Nemus","Agrégat des réseaux urbains et interurbains de Normandie"],"lt":0,"dept":"61"}},{"type":"Feature","geometry":{"type":"Point","coordinates":[-0.56229,48.74055]},"properties":{"nom":"ZI Chaussée","ag":["Réseau urbain Nemus","Agrégat des réseaux urbains et interurbains de Normandie"],"lt":0,"dept":"61"}},{"type":"Feature","geometry":{"type":"Point","coordinates":[-0.58242,48.73379]},"properties":{"nom":"Les Closets","ag":["Réseau urbain Nemus","Agrégat des réseaux urbains et interurbains de Normandie"],"lt":0,"dept":"61"}},{"type":"Feature","geometry":{"type":"Point","coordinates":[-0.58237,48.73294]},"properties":{"nom":"Les Closets","ag":["Réseau urbain Nemus","Agrégat des réseaux urbains et interurbains de Normandie"],"lt":0,"dept":"61"}},{"type":"Feature","geometry":{"type":"Point","coordinates":[-0.55437,48.74307]},"properties":{"nom":"Cité Scolaire","ag":["Réseau urbain Nemus","Agrégat des réseaux urbains et interurbains de Normandie"],"lt":0,"dept":"61"}},{"type":"Feature","geometry":{"type":"Point","coordinates":[-0.55385,48.7431]},"properties":{"nom":"Cité Scolaire","ag":["Réseau urbain Nemus","Agrégat des réseaux urbains et interurbains de Normandie"],"lt":0,"dept":"61"}},{"type":"Feature","geometry":{"type":"Point","coordinates":[-0.57182,48.74196]},"properties":{"nom":"Durmeyer","ag":["Réseau urbain Nemus","Agrégat des réseaux urbains et interurbains de Normandie"],"lt":0,"dept":"61"}},{"type":"Feature","geometry":{"type":"Point","coordinates":[-0.57172,48.74202]},"properties":{"nom":"Durmeyer","ag":["Réseau urbain Nemus","Agrégat des réseaux urbains et interurbains de Normandie"],"lt":0,"dept":"61"}},{"type":"Feature","geometry":{"type":"Point","coordinates":[-0.54698,48.74535]},"properties":{"nom":"Europe","ag":["Réseau urbain Nemus","Agrégat des réseaux urbains et interurbains de Normandie"],"lt":0,"dept":"61"}},{"type":"Feature","geometry":{"type":"Point","coordinates":[-0.54692,48.74533]},"properties":{"nom":"Europe","ag":["Réseau urbain Nemus","Agrégat des réseaux urbains et interurbains de Normandie"],"lt":0,"dept":"61"}},{"type":"Feature","geometry":{"type":"Point","coordinates":[-0.57475,48.73779]},"properties":{"nom":"Les Fleurs","ag":["Réseau urbain Nemus","Agrégat des réseaux urbains et interurbains de Normandie"],"lt":0,"dept":"61"}},{"type":"Feature","geometry":{"type":"Point","coordinates":[-0.57482,48.73778]},"properties":{"nom":"Les Fleurs","ag":["Réseau urbain Nemus","Agrégat des réseaux urbains et interurbains de Normandie"],"lt":0,"dept":"61"}},{"type":"Feature","geometry":{"type":"Point","coordinates":[-0.57262,48.74513]},"properties":{"nom":"Gare SNCF -FJT","ag":["Réseau urbain Nemus","Agrégat des réseaux urbains et interurbains de Normandie"],"lt":0,"dept":"61"}},{"type":"Feature","geometry":{"type":"Point","coordinates":[-0.57256,48.74514]},"properties":{"nom":"Gare SNCF-FJT","ag":["Réseau urbain Nemus","Agrégat des réseaux urbains et interurbains de Normandie"],"lt":0,"dept":"61"}},{"type":"Feature","geometry":{"type":"Point","coordinates":[-0.55036,48.74295]},"properties":{"nom":"La Géroudière","ag":["Réseau urbain Nemus","Agrégat des réseaux urbains et interurbains de Normandie"],"lt":0,"dept":"61"}},{"type":"Feature","geometry":{"type":"Point","coordinates":[-0.55068,48.74294]},"properties":{"nom":"La Géroudière","ag":["Réseau urbain Nemus","Agrégat des réseaux urbains et interurbains de Normandie"],"lt":0,"dept":"61"}},{"type":"Feature","geometry":{"type":"Point","coordinates":[-0.54182,48.74965]},"properties":{"nom":"Hôpital Monod","ag":["Réseau urbain Nemus","Agrégat des réseaux urbains et interurbains de Normandie"],"lt":0,"dept":"61"}},{"type":"Feature","geometry":{"type":"Point","coordinates":[-0.57162,48.7404]},"properties":{"nom":"Les Hauts Vents","ag":["Réseau urbain Nemus","Agrégat des réseaux urbains et interurbains de Normandie"],"lt":0,"dept":"61"}},{"type":"Feature","geometry":{"type":"Point","coordinates":[-0.57113,48.74076]},"properties":{"nom":"Les Hauts Vents","ag":["Réseau urbain Nemus","Agrégat des réseaux urbains et interurbains de Normandie"],"lt":0,"dept":"61"}},{"type":"Feature","geometry":{"type":"Point","coordinates":[-0.54769,48.74366]},"properties":{"nom":"Joseph Morin","ag":["Réseau urbain Nemus","Agrégat des réseaux urbains et interurbains de Normandie"],"lt":0,"dept":"61"}},{"type":"Feature","geometry":{"type":"Point","coordinates":[-0.54752,48.74367]},"properties":{"nom":"Joseph Morin","ag":["Réseau urbain Nemus","Agrégat des réseaux urbains et interurbains de Normandie"],"lt":0,"dept":"61"}},{"type":"Feature","geometry":{"type":"Point","coordinates":[-0.56162,48.74358]},"properties":{"nom":"Jules Verne","ag":["Réseau urbain Nemus","Agrégat des réseaux urbains et interurbains de Normandie"],"lt":0,"dept":"61"}},{"type":"Feature","geometry":{"type":"Point","coordinates":[-0.56292,48.74319]},"properties":{"nom":"Jules Verne","ag":["Réseau urbain Nemus","Agrégat des réseaux urbains et interurbains de Normandie"],"lt":0,"dept":"61"}},{"type":"Feature","geometry":{"type":"Point","coordinates":[-0.5661,48.76543]},"properties":{"nom":"Launay Cornu","ag":["Réseau urbain Nemus","Agrégat des réseaux urbains et interurbains de Normandie"],"lt":0,"dept":"61"}},{"type":"Feature","geometry":{"type":"Point","coordinates":[-0.58326,48.73649]},"properties":{"nom":"Maunoury","ag":["Réseau urbain Nemus","Agrégat des réseaux urbains et interurbains de Normandie"],"lt":0,"dept":"61"}},{"type":"Feature","geometry":{"type":"Point","coordinates":[-0.58323,48.73648]},"properties":{"nom":"Maunoury","ag":["Réseau urbain Nemus","Agrégat des réseaux urbains et interurbains de Normandie"],"lt":0,"dept":"61"}},{"type":"Feature","geometry":{"type":"Point","coordinates":[-0.57512,48.74142]},"properties":{"nom":"Maubert","ag":["Réseau urbain Nemus","Agrégat des réseaux urbains et interurbains de Normandie"],"lt":0,"dept":"61"}},{"type":"Feature","geometry":{"type":"Point","coordinates":[-0.57528,48.7414]},"properties":{"nom":"Maubert","ag":["Réseau urbain Nemus","Agrégat des réseaux urbains et interurbains de Normandie"],"lt":0,"dept":"61"}},{"type":"Feature","geometry":{"type":"Point","coordinates":[-0.55837,48.74821]},"properties":{"nom":"Médiathèque","ag":["Réseau urbain Nemus","Agrégat des réseaux urbains et interurbains de Normandie"],"lt":0,"dept":"61"}},{"type":"Feature","geometry":{"type":"Point","coordinates":[-0.55825,48.74814]},"properties":{"nom":"Médiathèque","ag":["Réseau urbain Nemus","Agrégat des réseaux urbains et interurbains de Normandie"],"lt":0,"dept":"61"}},{"type":"Feature","geometry":{"type":"Point","coordinates":[-0.56781,48.76994]},"properties":{"nom":"Le Mesleret","ag":["Réseau urbain Nemus","Agrégat des réseaux urbains et interurbains de Normandie"],"lt":0,"dept":"61"}},{"type":"Feature","geometry":{"type":"Point","coordinates":[-0.58481,48.74253]},"properties":{"nom":"Maison d'Activité Saint Michel","ag":["Réseau urbain Nemus","Agrégat des réseaux urbains et interurbains de Normandie"],"lt":0,"dept":"61"}},{"type":"Feature","geometry":{"type":"Point","coordinates":[-0.5844,48.7427]},"properties":{"nom":"Maison d'Activité Saint Michel","ag":["Réseau urbain Nemus","Agrégat des réseaux urbains et interurbains de Normandie"],"lt":0,"dept":"61"}},{"type":"Feature","geometry":{"type":"Point","coordinates":[-0.56187,48.74866]},"properties":{"nom":"Notre Dame","ag":["Réseau urbain Nemus","Agrégat des réseaux urbains et interurbains de Normandie"],"lt":0,"dept":"61"}},{"type":"Feature","geometry":{"type":"Point","coordinates":[-0.56203,48.74866]},"properties":{"nom":"Notre Dame","ag":["Réseau urbain Nemus","Agrégat des réseaux urbains et interurbains de Normandie"],"lt":0,"dept":"61"}},{"type":"Feature","geometry":{"type":"Point","coordinates":[-0.5727,48.76573]},"properties":{"nom":"Les Nouettes","ag":["Réseau urbain Nemus","Agrégat des réseaux urbains et interurbains de Normandie"],"lt":0,"dept":"61"}},{"type":"Feature","geometry":{"type":"Point","coordinates":[-0.59126,48.73955]},"properties":{"nom":"Les Oisillons","ag":["Réseau urbain Nemus","Agrégat des réseaux urbains et interurbains de Normandie"],"lt":0,"dept":"61"}},{"type":"Feature","geometry":{"type":"Point","coordinates":[-0.59163,48.73941]},"properties":{"nom":"Les Oisillons","ag":["Réseau urbain Nemus","Agrégat des réseaux urbains et interurbains de Normandie"],"lt":0,"dept":"61"}},{"type":"Feature","geometry":{"type":"Point","coordinates":[-0.57776,48.74564]},"properties":{"nom":"Parc","ag":["Réseau urbain Nemus","Agrégat des réseaux urbains et interurbains de Normandie"],"lt":0,"dept":"61"}},{"type":"Feature","geometry":{"type":"Point","coordinates":[-0.57788,48.74556]},"properties":{"nom":"Parc","ag":["Réseau urbain Nemus","Agrégat des réseaux urbains et interurbains de Normandie"],"lt":0,"dept":"61"}},{"type":"Feature","geometry":{"type":"Point","coordinates":[-0.56035,48.74094]},"properties":{"nom":"Pont Féron","ag":["Réseau urbain Nemus","Agrégat des réseaux urbains et interurbains de Normandie"],"lt":0,"dept":"61"}},{"type":"Feature","geometry":{"type":"Point","coordinates":[-0.55985,48.74113]},"properties":{"nom":"Pont Féron","ag":["Réseau urbain Nemus","Agrégat des réseaux urbains et interurbains de Normandie"],"lt":0,"dept":"61"}},{"type":"Feature","geometry":{"type":"Point","coordinates":[-0.55388,48.7475]},"properties":{"nom":"Pierre Huet","ag":["Réseau urbain Nemus","Agrégat des réseaux urbains et interurbains de Normandie"],"lt":0,"dept":"61"}},{"type":"Feature","geometry":{"type":"Point","coordinates":[-0.55368,48.74741]},"properties":{"nom":"Pierre Huet","ag":["Réseau urbain Nemus","Agrégat des réseaux urbains et interurbains de Normandie"],"lt":0,"dept":"61"}},{"type":"Feature","geometry":{"type":"Point","coordinates":[-0.54286,48.74835]},"properties":{"nom":"Pôle Femme-Enfant","ag":["Réseau urbain Nemus","Agrégat des réseaux urbains et interurbains de Normandie"],"lt":0,"dept":"61"}},