{"type":"FeatureCollection","features":[{"type":"Feature","geometry":{"type":"Point","coordinates":[3.73512,45.54968]},"properties":{"nom":"Gare","ag":["Agrégat des réseaux urbains et interurbains d'Auvergne-Rhône-Alpes","Réseau interurbain - Haute-Loire (43)","Réseau interurbain - Puy-de-Dôme (63)"],"lt":0,"dept":"63"}},{"type":"Feature","geometry":{"type":"Point","coordinates":[3.72801,45.53906]},"properties":{"nom":"Piscine","ag":["Agrégat des réseaux urbains et interurbains d'Auvergne-Rhône-Alpes","Réseau interurbain - Haute-Loire (43)"],"lt":0,"dept":"63"}},{"type":"Feature","geometry":{"type":"Point","coordinates":[2.8086,45.92564]},"properties":{"nom":"Les Ancizes St Georges Bourg","ag":["Agrégat des réseaux urbains et interurbains d'Auvergne-Rhône-Alpes","Réseau interurbain Cars Région Express","Réseau SNCF TGV, Intercités et TER"],"lt":0,"dept":"63"}},{"type":"Feature","geometry":{"type":"Point","coordinates":[2.83777,45.9263]},"properties":{"nom":"Les Ancizes St Georges Usine","ag":["Agrégat des réseaux urbains et interurbains d'Auvergne-Rhône-Alpes","Réseau interurbain Cars Région Express","Réseau SNCF TGV, Intercités et TER"],"lt":0,"dept":"63"}},{"type":"Feature","geometry":{"type":"Point","coordinates":[3.72457,45.41326]},"properties":{"nom":"Place Charles de Gaulle","ag":["Agrégat des réseaux urbains et interurbains d'Auvergne-Rhône-Alpes","Réseau interurbain - Haute-Loire (43)"],"lt":0,"dept":"63"}},{"type":"Feature","geometry":{"type":"Point","coordinates":[3.16663,45.79705]},"properties":{"nom":"Les Chapelles","ag":["Agrégat des réseaux urbains et interurbains d'Auvergne-Rhône-Alpes","Réseau urbain RLV Mobilités"],"lt":0,"dept":"63"}},{"type":"Feature","geometry":{"type":"Point","coordinates":[3.16702,45.79728]},"properties":{"nom":"Les Chapelles","ag":["Agrégat des réseaux urbains et interurbains d'Auvergne-Rhône-Alpes","Réseau urbain RLV Mobilités"],"lt":0,"dept":"63"}},{"type":"Feature","geometry":{"type":"Point","coordinates":[2.93382,45.50971]},"properties":{"nom":"Rue la Gazelle","ag":["Agrégat des réseaux urbains et interurbains d'Auvergne-Rhône-Alpes","Réseau interurbain - Cantal (15)"],"lt":0,"dept":"63"}},{"type":"Feature","geometry":{"type":"Point","coordinates":[3.32013,45.41379]},"properties":{"nom":"LEP François Rabelais","ag":["Agrégat des réseaux urbains et interurbains d'Auvergne-Rhône-Alpes","Réseau interurbain - Haute-Loire (43)"],"lt":0,"dept":"63"}},{"type":"Feature","geometry":{"type":"Point","coordinates":[3.32014,45.41387]},"properties":{"nom":"Lycée Professionnel","ag":["Agrégat des réseaux urbains et interurbains d'Auvergne-Rhône-Alpes","Réseau interurbain - Haute-Loire (43)"],"lt":0,"dept":"63"}},{"type":"Feature","geometry":{"type":"Point","coordinates":[3.32018,45.41381]},"properties":{"nom":"Lycée Professionnel","ag":["Agrégat des réseaux urbains et interurbains d'Auvergne-Rhône-Alpes","Réseau interurbain - Haute-Loire (43)"],"lt":0,"dept":"63"}},{"type":"Feature","geometry":{"type":"Point","coordinates":[3.32165,45.41254]},"properties":{"nom":"LEP François Rabelais","ag":["Agrégat des réseaux urbains et interurbains d'Auvergne-Rhône-Alpes","Réseau interurbain - Haute-Loire (43)"],"lt":0,"dept":"63"}},{"type":"Feature","geometry":{"type":"Point","coordinates":[3.32763,45.40936]},"properties":{"nom":"Avenue du Château","ag":["Agrégat des réseaux urbains et interurbains d'Auvergne-Rhône-Alpes","Réseau interurbain - Haute-Loire (43)"],"lt":0,"dept":"63"}},{"type":"Feature","geometry":{"type":"Point","coordinates":[3.33358,45.4135]},"properties":{"nom":"Brassaget","ag":["Agrégat des réseaux urbains et interurbains d'Auvergne-Rhône-Alpes","Réseau interurbain - Haute-Loire (43)"],"lt":0,"dept":"63"}},{"type":"Feature","geometry":{"type":"Point","coordinates":[3.33366,45.41343]},"properties":{"nom":"Brassaget","ag":["Agrégat des réseaux urbains et interurbains d'Auvergne-Rhône-Alpes","Réseau interurbain - Haute-Loire (43)"],"lt":0,"dept":"63"}},{"type":"Feature","geometry":{"type":"Point","coordinates":[3.3301,45.41441]},"properties":{"nom":"Brassac Gare","ag":["Agrégat des réseaux urbains et interurbains d'Auvergne-Rhône-Alpes","Réseau interurbain - Haute-Loire (43)"],"lt":0,"dept":"63"}},{"type":"Feature","geometry":{"type":"Point","coordinates":[3.69476,45.87939]},"properties":{"nom":"Pont Bascule","ag":["Agrégat des réseaux urbains et interurbains d'Auvergne-Rhône-Alpes","Réseau interurbain Cars Région Express"],"lt":0,"dept":"63"}},{"type":"Feature","geometry":{"type":"Point","coordinates":[3.12945,45.58843]},"properties":{"nom":"Le Bourg","ag":["Agrégat des réseaux urbains et interurbains d'Auvergne-Rhône-Alpes","Réseau interurbain - Cantal (15)"],"lt":0,"dept":"63"}},{"type":"Feature","geometry":{"type":"Point","coordinates":[3.01591,45.82693]},"properties":{"nom":"Chanat Rue du Chancet/D90","ag":["Agrégat des réseaux urbains et interurbains d'Auvergne-Rhône-Alpes","Réseau urbain RLV Mobilités"],"lt":0,"dept":"63"}},{"type":"Feature","geometry":{"type":"Point","coordinates":[3.03709,45.82125]},"properties":{"nom":"L'Etang","ag":["Agrégat des réseaux urbains et interurbains d'Auvergne-Rhône-Alpes"],"lt":0,"dept":"63"}},{"type":"Feature","geometry":{"type":"Point","coordinates":[3.03694,45.82142]},"properties":{"nom":"L'Etang","ag":["Agrégat des réseaux urbains et interurbains d'Auvergne-Rhône-Alpes","Réseau urbain RLV Mobilités"],"lt":0,"dept":"63"}},{"type":"Feature","geometry":{"type":"Point","coordinates":[3.01571,45.83014]},"properties":{"nom":"Chanat Mairie","ag":["Agrégat des réseaux urbains et interurbains d'Auvergne-Rhône-Alpes","Réseau urbain RLV Mobilités"],"lt":0,"dept":"63"}},{"type":"Feature","geometry":{"type":"Point","coordinates":[3.01573,45.83005]},"properties":{"nom":"Chanat Mairie","ag":["Agrégat des réseaux urbains et interurbains d'Auvergne-Rhône-Alpes","Réseau urbain RLV Mobilités"],"lt":0,"dept":"63"}},{"type":"Feature","geometry":{"type":"Point","coordinates":[3.01982,45.81719]},"properties":{"nom":"La Mouteyre","ag":["Agrégat des réseaux urbains et interurbains d'Auvergne-Rhône-Alpes","Réseau urbain RLV Mobilités"],"lt":0,"dept":"63"}},{"type":"Feature","geometry":{"type":"Point","coordinates":[3.03734,45.81437]},"properties":{"nom":"Chanat Croisement Rue de la Piala/D775","ag":["Agrégat des réseaux urbains et interurbains d'Auvergne-Rhône-Alpes","Réseau urbain RLV Mobilités"],"lt":0,"dept":"63"}},{"type":"Feature","geometry":{"type":"Point","coordinates":[3.03752,45.81444]},"properties":{"nom":"Piala","ag":["Agrégat des réseaux urbains et interurbains d'Auvergne-Rhône-Alpes"],"lt":0,"dept":"63"}},{"type":"Feature","geometry":{"type":"Point","coordinates":[3.03734,45.81438]},"properties":{"nom":"Piala","ag":["Agrégat des réseaux urbains et interurbains d'Auvergne-Rhône-Alpes"],"lt":0,"dept":"63"}},{"type":"Feature","geometry":{"type":"Point","coordinates":[3.03114,45.8211]},"properties":{"nom":"Chanat Rue des Pradeaux","ag":["Agrégat des réseaux urbains et interurbains d'Auvergne-Rhône-Alpes","Réseau urbain RLV Mobilités"],"lt":0,"dept":"63"}},{"type":"Feature","geometry":{"type":"Point","coordinates":[3.22034,45.86952]},"properties":{"nom":"Mairie","ag":["Agrégat des réseaux urbains et interurbains d'Auvergne-Rhône-Alpes"],"lt":0,"dept":"63"}},{"type":"Feature","geometry":{"type":"Point","coordinates":[3.22008,45.8695]},"properties":{"nom":"Mairie","ag":["Agrégat des réseaux urbains et interurbains d'Auvergne-Rhône-Alpes"],"lt":0,"dept":"63"}},{"type":"Feature","geometry":{"type":"Point","coordinates":[3.21806,45.86754]},"properties":{"nom":"Jules Ferry","ag":["Agrégat des réseaux urbains et interurbains d'Auvergne-Rhône-Alpes","Réseau urbain RLV Mobilités"],"lt":0,"dept":"63"}},{"type":"Feature","geometry":{"type":"Point","coordinates":[3.21821,45.86753]},"properties":{"nom":"Jules Ferry","ag":["Agrégat des réseaux urbains et interurbains d'Auvergne-Rhône-Alpes","Réseau urbain RLV Mobilités"],"lt":0,"dept":"63"}},{"type":"Feature","geometry":{"type":"Point","coordinates":[3.24415,45.87825]},"properties":{"nom":"Martillat","ag":["Agrégat des réseaux urbains et interurbains d'Auvergne-Rhône-Alpes","Réseau urbain RLV Mobilités"],"lt":0,"dept":"63"}},{"type":"Feature","geometry":{"type":"Point","coordinates":[3.24411,45.87815]},"properties":{"nom":"Martillat","ag":["Agrégat des réseaux urbains et interurbains d'Auvergne-Rhône-Alpes","Réseau urbain RLV Mobilités"],"lt":0,"dept":"63"}},{"type":"Feature","geometry":{"type":"Point","coordinates":[3.22256,45.87065]},"properties":{"nom":"Pré Madame","ag":["Agrégat des réseaux urbains et interurbains d'Auvergne-Rhône-Alpes"],"lt":0,"dept":"63"}},{"type":"Feature","geometry":{"type":"Point","coordinates":[3.2227,45.87063]},"properties":{"nom":"Pré Madame","ag":["Agrégat des réseaux urbains et interurbains d'Auvergne-Rhône-Alpes"],"lt":0,"dept":"63"}},{"type":"Feature","geometry":{"type":"Point","coordinates":[3.21958,45.87189]},"properties":{"nom":"Centre de Recherche","ag":["Agrégat des réseaux urbains et interurbains d'Auvergne-Rhône-Alpes","Réseau urbain RLV Mobilités"],"lt":0,"dept":"63"}},{"type":"Feature","geometry":{"type":"Point","coordinates":[3.22692,45.86748]},"properties":{"nom":"Stade","ag":["Agrégat des réseaux urbains et interurbains d'Auvergne-Rhône-Alpes"],"lt":0,"dept":"63"}},{"type":"Feature","geometry":{"type":"Point","coordinates":[3.22686,45.86747]},"properties":{"nom":"Stade","ag":["Agrégat des réseaux urbains et interurbains d'Auvergne-Rhône-Alpes"],"lt":0,"dept":"63"}},{"type":"Feature","geometry":{"type":"Point","coordinates":[3.21977,45.8718]},"properties":{"nom":"Centre de Recherche","ag":["Agrégat des réseaux urbains et interurbains d'Auvergne-Rhône-Alpes","Réseau urbain RLV Mobilités"],"lt":0,"dept":"63"}},{"type":"Feature","geometry":{"type":"Point","coordinates":[2.98363,45.88612]},"properties":{"nom":"Paugnat Eglise","ag":["Agrégat des réseaux urbains et interurbains d'Auvergne-Rhône-Alpes","Réseau interurbain Cars Région Express","Réseau SNCF TGV, Intercités et TER"],"lt":0,"dept":"63"}},{"type":"Feature","geometry":{"type":"Point","coordinates":[2.96475,45.90435]},"properties":{"nom":"Beaunit","ag":["Agrégat des réseaux urbains et interurbains d'Auvergne-Rhône-Alpes","Réseau urbain RLV Mobilités"],"lt":0,"dept":"63"}},{"type":"Feature","geometry":{"type":"Point","coordinates":[2.98208,45.91028]},"properties":{"nom":"Le Bouy","ag":["Agrégat des réseaux urbains et interurbains d'Auvergne-Rhône-Alpes","Réseau urbain RLV Mobilités"],"lt":0,"dept":"63"}},{"type":"Feature","geometry":{"type":"Point","coordinates":[2.98711,45.89609]},"properties":{"nom":"Les Brossons","ag":["Agrégat des réseaux urbains et interurbains d'Auvergne-Rhône-Alpes","Réseau urbain RLV Mobilités"],"lt":0,"dept":"63"}},{"type":"Feature","geometry":{"type":"Point","coordinates":[2.98721,45.89605]},"properties":{"nom":"Les Brossons","ag":["Agrégat des réseaux urbains et interurbains d'Auvergne-Rhône-Alpes","Réseau urbain RLV Mobilités"],"lt":0,"dept":"63"}},{"type":"Feature","geometry":{"type":"Point","coordinates":[3.00933,45.90996]},"properties":{"nom":"Douhady","ag":["Agrégat des réseaux urbains et interurbains d'Auvergne-Rhône-Alpes","Réseau urbain RLV Mobilités"],"lt":0,"dept":"63"}},{"type":"Feature","geometry":{"type":"Point","coordinates":[2.99693,45.90781]},"properties":{"nom":"Charbonnières Ecole","ag":["Agrégat des réseaux urbains et interurbains d'Auvergne-Rhône-Alpes"],"lt":0,"dept":"63"}},{"type":"Feature","geometry":{"type":"Point","coordinates":[2.99714,45.9078]},"properties":{"nom":"Charbonnières Ecole","ag":["Agrégat des réseaux urbains et interurbains d'Auvergne-Rhône-Alpes","Réseau urbain RLV Mobilités"],"lt":0,"dept":"63"}},{"type":"Feature","geometry":{"type":"Point","coordinates":[2.99737,45.9081]},"properties":{"nom":"Charbonnières Ecole","ag":["Agrégat des réseaux urbains et interurbains d'Auvergne-Rhône-Alpes","Réseau urbain RLV Mobilités"],"lt":0,"dept":"63"}},{"type":"Feature","geometry":{"type":"Point","coordinates":[2.98347,45.88583]},"properties":{"nom":"Paugnat Eglise","ag":["Agrégat des réseaux urbains et interurbains d'Auvergne-Rhône-Alpes","Réseau urbain RLV Mobilités"],"lt":0,"dept":"63"}},{"type":"Feature","geometry":{"type":"Point","coordinates":[2.98359,45.88589]},"properties":{"nom":"Paugnat Eglise","ag":["Agrégat des réseaux urbains et interurbains d'Auvergne-Rhône-Alpes","Réseau urbain RLV Mobilités"],"lt":0,"dept":"63"}},{"type":"Feature","geometry":{"type":"Point","coordinates":[3.00538,45.90881]},"properties":{"nom":"Charbonnières Route d'Enval","ag":["Agrégat des réseaux urbains et interurbains d'Auvergne-Rhône-Alpes","Réseau urbain RLV Mobilités"],"lt":0,"dept":"63"}},{"type":"Feature","geometry":{"type":"Point","coordinates":[3.01778,45.90028]},"properties":{"nom":"Facemeunier","ag":["Agrégat des réseaux urbains et interurbains d'Auvergne-Rhône-Alpes","Réseau urbain RLV Mobilités"],"lt":0,"dept":"63"}},{"type":"Feature","geometry":{"type":"Point","coordinates":[2.94069,45.88639]},"properties":{"nom":"Grelière","ag":["Agrégat des réseaux urbains et interurbains d'Auvergne-Rhône-Alpes","Réseau urbain RLV Mobilités"],"lt":0,"dept":"63"}},{"type":"Feature","geometry":{"type":"Point","coordinates":[2.99865,45.90845]},"properties":{"nom":"Charbonnières Bourg Mairie","ag":["Agrégat des réseaux urbains et interurbains d'Auvergne-Rhône-Alpes","Réseau urbain RLV Mobilités"],"lt":0,"dept":"63"}},{"type":"Feature","geometry":{"type":"Point","coordinates":[2.98837,45.91614]},"properties":{"nom":"La Mazière","ag":["Agrégat des réseaux urbains et interurbains d'Auvergne-Rhône-Alpes","Réseau urbain RLV Mobilités"],"lt":0,"dept":"63"}},{"type":"Feature","geometry":{"type":"Point","coordinates":[2.98459,45.88816]},"properties":{"nom":"Paugnat Fontaine Lavoir","ag":["Agrégat des réseaux urbains et interurbains d'Auvergne-Rhône-Alpes","Réseau urbain RLV Mobilités"],"lt":0,"dept":"63"}},{"type":"Feature","geometry":{"type":"Point","coordinates":[2.98476,45.88827]},"properties":{"nom":"Paugnat Fontaine Lavoir","ag":["Agrégat des réseaux urbains et interurbains d'Auvergne-Rhône-Alpes","Réseau urbain RLV Mobilités"],"lt":0,"dept":"63"}},{"type":"Feature","geometry":{"type":"Point","coordinates":[2.9863,45.89123]},"properties":{"nom":"Paugnat Route de Volvic","ag":["Agrégat des réseaux urbains et interurbains d'Auvergne-Rhône-Alpes","Réseau urbain RLV Mobilités"],"lt":0,"dept":"63"}},{"type":"Feature","geometry":{"type":"Point","coordinates":[2.98614,45.89113]},"properties":{"nom":"Paugnat Route de Volvic","ag":["Agrégat des réseaux urbains et interurbains d'Auvergne-Rhône-Alpes","Réseau urbain RLV Mobilités"],"lt":0,"dept":"63"}},{"type":"Feature","geometry":{"type":"Point","coordinates":[2.94275,45.89469]},"properties":{"nom":"Verrières","ag":["Agrégat des réseaux urbains et interurbains d'Auvergne-Rhône-Alpes","Réseau urbain RLV Mobilités"],"lt":0,"dept":"63"}},{"type":"Feature","geometry":{"type":"Point","coordinates":[2.98732,45.88428]},"properties":{"nom":"Paugnat Stade","ag":["Agrégat des réseaux urbains et interurbains d'Auvergne-Rhône-Alpes","Réseau urbain RLV Mobilités"],"lt":0,"dept":"63"}},{"type":"Feature","geometry":{"type":"Point","coordinates":[3.07748,45.91443]},"properties":{"nom":"Camping","ag":["Agrégat des réseaux urbains et interurbains d'Auvergne-Rhône-Alpes","Réseau urbain RLV Mobilités"],"lt":0,"dept":"63"}},{"type":"Feature","geometry":{"type":"Point","coordinates":[3.07757,45.91458]},"properties":{"nom":"Camping","ag":["Agrégat des réseaux urbains et interurbains d'Auvergne-Rhône-Alpes","Réseau urbain RLV Mobilités"],"lt":0,"dept":"63"}},{"type":"Feature","geometry":{"type":"Point","coordinates":[3.07222,45.91944]},"properties":{"nom":"Collège Champclaux","ag":["Agrégat des réseaux urbains et interurbains d'Auvergne-Rhône-Alpes","Réseau urbain RLV Mobilités"],"lt":0,"dept":"63"}},{"type":"Feature","geometry":{"type":"Point","coordinates":[3.07016,45.92346]},"properties":{"nom":"Commerce","ag":["Agrégat des réseaux urbains et interurbains d'Auvergne-Rhône-Alpes"],"lt":0,"dept":"63"}},{"type":"Feature","geometry":{"type":"Point","coordinates":[3.06933,45.92363]},"properties":{"nom":"Commerce","ag":["Agrégat des réseaux urbains et interurbains d'Auvergne-Rhône-Alpes","Réseau urbain RLV Mobilités"],"lt":0,"dept":"63"}},{"type":"Feature","geometry":{"type":"Point","coordinates":[3.06041,45.90601]},"properties":{"nom":"La Croze","ag":["Agrégat des réseaux urbains et interurbains d'Auvergne-Rhône-Alpes","Réseau urbain RLV Mobilités"],"lt":0,"dept":"63"}},{"type":"Feature","geometry":{"type":"Point","coordinates":[3.05246,45.91366]},"properties":{"nom":"Chemin de la Fontaine","ag":["Agrégat des réseaux urbains et interurbains d'Auvergne-Rhône-Alpes"],"lt":0,"dept":"63"}},{"type":"Feature","geometry":{"type":"Point","coordinates":[3.05258,45.91381]},"properties":{"nom":"Chemin de la Fontaine","ag":["Agrégat des réseaux urbains et interurbains d'Auvergne-Rhône-Alpes","Réseau urbain RLV Mobilités"],"lt":0,"dept":"63"}},{"type":"Feature","geometry":{"type":"Point","coordinates":[3.04651,45.9128]},"properties":{"nom":"Chemin des Gîtes","ag":["Agrégat des réseaux urbains et interurbains d'Auvergne-Rhône-Alpes","Réseau urbain RLV Mobilités"],"lt":0,"dept":"63"}},{"type":"Feature","geometry":{"type":"Point","coordinates":[3.07389,45.93389]},"properties":{"nom":"Les Grosliers","ag":["Agrégat des réseaux urbains et interurbains d'Auvergne-Rhône-Alpes","Réseau urbain RLV Mobilités"],"lt":0,"dept":"63"}},{"type":"Feature","geometry":{"type":"Point","coordinates":[3.07405,45.93375]},"properties":{"nom":"Les Grosliers","ag":["Agrégat des réseaux urbains et interurbains d'Auvergne-Rhône-Alpes","Réseau urbain RLV Mobilités"],"lt":0,"dept":"63"}},{"type":"Feature","geometry":{"type":"Point","coordinates":[3.05636,45.90768]},"properties":{"nom":"Route de Mozac","ag":["Agrégat des réseaux urbains et interurbains d'Auvergne-Rhône-Alpes","Réseau urbain RLV Mobilités"],"lt":0,"dept":"63"}},{"type":"Feature","geometry":{"type":"Point","coordinates":[3.05659,45.90736]},"properties":{"nom":"Route de Mozac","ag":["Agrégat des réseaux urbains et interurbains d'Auvergne-Rhône-Alpes","Réseau urbain RLV Mobilités"],"lt":0,"dept":"63"}},{"type":"Feature","geometry":{"type":"Point","coordinates":[3.07615,45.92523]},"properties":{"nom":"Puy Blanc","ag":["Agrégat des réseaux urbains et interurbains d'Auvergne-Rhône-Alpes","Réseau urbain RLV Mobilités"],"lt":0,"dept":"63"}},{"type":"Feature","geometry":{"type":"Point","coordinates":[3.07603,45.92525]},"properties":{"nom":"Puy Blanc","ag":["Agrégat des réseaux urbains et interurbains d'Auvergne-Rhône-Alpes","Réseau urbain RLV Mobilités"],"lt":0,"dept":"63"}},{"type":"Feature","geometry":{"type":"Point","coordinates":[3.07215,45.91961]},"properties":{"nom":"Parc Clémentel","ag":["Agrégat des réseaux urbains et interurbains d'Auvergne-Rhône-Alpes","Réseau urbain RLV Mobilités"],"lt":0,"dept":"63"}},{"type":"Feature","geometry":{"type":"Point","coordinates":[3.07248,45.91929]},"properties":{"nom":"Parc Clémentel","ag":["Agrégat des réseaux urbains et interurbains d'Auvergne-Rhône-Alpes","Réseau urbain RLV Mobilités"],"lt":0,"dept":"63"}},{"type":"Feature","geometry":{"type":"Point","coordinates":[3.07523,45.91667]},"properties":{"nom":"Vouée","ag":["Agrégat des réseaux urbains et interurbains d'Auvergne-Rhône-Alpes","Réseau urbain RLV Mobilités"],"lt":0,"dept":"63"}},{"type":"Feature","geometry":{"type":"Point","coordinates":[3.07594,45.91568]},"properties":{"nom":"Vouée","ag":["Agrégat des réseaux urbains et interurbains d'Auvergne-Rhône-Alpes","Réseau urbain RLV Mobilités"],"lt":0,"dept":"63"}},{"type":"Feature","geometry":{"type":"Point","coordinates":[3.05992,45.92]},"properties":{"nom":"Résidence du Parc","ag":["Agrégat des réseaux urbains et interurbains d'Auvergne-Rhône-Alpes","Réseau urbain RLV Mobilités"],"lt":0,"dept":"63"}},{"type":"Feature","geometry":{"type":"Point","coordinates":[3.0598,45.92004]},"properties":{"nom":"Résidence du Parc","ag":["Agrégat des réseaux urbains et interurbains d'Auvergne-Rhône-Alpes","Réseau urbain RLV Mobilités"],"lt":0,"dept":"63"}},{"type":"Feature","geometry":{"type":"Point","coordinates":[3.0576,45.91682]},"properties":{"nom":"Sans Souci","ag":["Agrégat des réseaux urbains et interurbains d'Auvergne-Rhône-Alpes","Réseau urbain RLV Mobilités"],"lt":0,"dept":"63"}},{"type":"Feature","geometry":{"type":"Point","coordinates":[3.05762,45.91702]},"properties":{"nom":"Sans Souci","ag":["Agrégat des réseaux urbains et interurbains d'Auvergne-Rhône-Alpes","Réseau urbain RLV Mobilités"],"lt":0,"dept":"63"}},{"type":"Feature","geometry":{"type":"Point","coordinates":[3.056,45.91325]},"properties":{"nom":"Saint-Hippolyte","ag":["Agrégat des réseaux urbains et interurbains d'Auvergne-Rhône-Alpes","Réseau urbain RLV Mobilités"],"lt":0,"dept":"63"}},{"type":"Feature","geometry":{"type":"Point","coordinates":[3.05642,45.91303]},"properties":{"nom":"Saint-Hippolyte","ag":["Agrégat des réseaux urbains et interurbains d'Auvergne-Rhône-Alpes","Réseau urbain RLV Mobilités"],"lt":0,"dept":"63"}},{"type":"Feature","geometry":{"type":"Point","coordinates":[3.06279,45.9224]},"properties":{"nom":"Les Thermes","ag":["Agrégat des réseaux urbains et interurbains d'Auvergne-Rhône-Alpes","Réseau urbain RLV Mobilités"],"lt":0,"dept":"63"}},{"type":"Feature","geometry":{"type":"Point","coordinates":[3.06289,45.92261]},"properties":{"nom":"Les Thermes","ag":["Agrégat des réseaux urbains et interurbains d'Auvergne-Rhône-Alpes","Réseau urbain RLV Mobilités"],"lt":0,"dept":"63"}},{"type":"Feature","geometry":{"type":"Point","coordinates":[3.05076,45.91434]},"properties":{"nom":"Rue Traversière","ag":["Agrégat des réseaux urbains et interurbains d'Auvergne-Rhône-Alpes","Réseau urbain RLV Mobilités"],"lt":0,"dept":"63"}},{"type":"Feature","geometry":{"type":"Point","coordinates":[3.05087,45.9145]},"properties":{"nom":"Rue Traversière","ag":["Agrégat des réseaux urbains et interurbains d'Auvergne-Rhône-Alpes","Réseau urbain RLV Mobilités"],"lt":0,"dept":"63"}},{"type":"Feature","geometry":{"type":"Point","coordinates":[3.06473,45.92434]},"properties":{"nom":"Villa Plaisance","ag":["Agrégat des réseaux urbains et interurbains d'Auvergne-Rhône-Alpes","Réseau urbain RLV Mobilités"],"lt":0,"dept":"63"}},{"type":"Feature","geometry":{"type":"Point","coordinates":[3.06433,45.92426]},"properties":{"nom":"Villa Plaisance","ag":["Agrégat des réseaux urbains et interurbains d'Auvergne-Rhône-Alpes","Réseau urbain RLV Mobilités"],"lt":0,"dept":"63"}},{"type":"Feature","geometry":{"type":"Point","coordinates":[3.0679,45.93349]},"properties":{"nom":"Fonfreyde","ag":["Agrégat des réseaux urbains et interurbains d'Auvergne-Rhône-Alpes","Réseau urbain RLV Mobilités"],"lt":0,"dept":"63"}},{"type":"Feature","geometry":{"type":"Point","coordinates":[3.06789,45.93341]},"properties":{"nom":"Fonfreyde","ag":["Agrégat des réseaux urbains et interurbains d'Auvergne-Rhône-Alpes","Réseau urbain RLV Mobilités"],"lt":0,"dept":"63"}},{"type":"Feature","geometry":{"type":"Point","coordinates":[3.25917,45.85012]},"properties":{"nom":"Abribus","ag":["Agrégat des réseaux urbains et interurbains d'Auvergne-Rhône-Alpes"],"lt":0,"dept":"63"}},{"type":"Feature","geometry":{"type":"Point","coordinates":[3.25895,45.85025]},"properties":{"nom":"Abribus","ag":["Agrégat des réseaux urbains et interurbains d'Auvergne-Rhône-Alpes"],"lt":0,"dept":"63"}},{"type":"Feature","geometry":{"type":"Point","coordinates":[3.17444,45.95887]},"properties":{"nom":"sur Morge Ecole","ag":["Agrégat des réseaux urbains et interurbains d'Auvergne-Rhône-Alpes"],"lt":0,"dept":"63"}},{"type":"Feature","geometry":{"type":"Point","coordinates":[3.17266,45.95697]},"properties":{"nom":"Mairie du Cheix","ag":["Agrégat des réseaux urbains et interurbains d'Auvergne-Rhône-Alpes","Réseau urbain RLV Mobilités"],"lt":0,"dept":"63"}},{"type":"Feature","geometry":{"type":"Point","coordinates":[3.17278,45.96177]},"properties":{"nom":"Les Meuniers","ag":["Agrégat des réseaux urbains et interurbains d'Auvergne-Rhône-Alpes","Réseau urbain RLV Mobilités"],"lt":0,"dept":"63"}},{"type":"Feature","geometry":{"type":"Point","coordinates":[3.19104,45.91791]},"properties":{"nom":"Abribus","ag":["Agrégat des réseaux urbains et interurbains d'Auvergne-Rhône-Alpes"],"lt":0,"dept":"63"}},{"type":"Feature","geometry":{"type":"Point","coordinates":[3.18825,45.91814]},"properties":{"nom":"Ecole","ag":["Agrégat des réseaux urbains et interurbains d'Auvergne-Rhône-Alpes"],"lt":0,"dept":"63"}},{"type":"Feature","geometry":{"type":"Point","coordinates":[3.17671,45.9081]},"properties":{"nom":"Grande Gravière","ag":["Agrégat des réseaux urbains et interurbains d'Auvergne-Rhône-Alpes"],"lt":0,"dept":"63"}},{"type":"Feature","geometry":{"type":"Point","coordinates":[3.17664,45.9081]},"properties":{"nom":"Grande Gravière","ag":["Agrégat des réseaux urbains et interurbains d'Auvergne-Rhône-Alpes","Réseau urbain RLV Mobilités"],"lt":0,"dept":"63"}},{"type":"Feature","geometry":{"type":"Point","coordinates":[3.10054,45.77895]},"properties":{"nom":"Clermont-Ferrand","ag":["Agrégat des réseaux urbains et interurbains d'Auvergne-Rhône-Alpes","Réseau interurbain Cars Région Express","Réseau SNCF TGV, Intercités et TER"],"lt":0,"dept":"63"}},{"type":"Feature","geometry":{"type":"Point","coordinates":[3.09892,45.7782]},"properties":{"nom":"Gare Ferroviaire","ag":["Agrégat des réseaux urbains et interurbains d'Auvergne-Rhône-Alpes","Réseau interurbain - Cantal (15)"],"lt":0,"dept":"63"}},{"type":"Feature","geometry":{"type":"Point","coordinates":[3.08229,45.77072]},"properties":{"nom":"Gare Routière","ag":["Agrégat des réseaux urbains et interurbains d'Auvergne-Rhône-Alpes","Réseau interurbain - Cantal (15)"],"lt":0,"dept":"63"}},{"type":"Feature","geometry":{"type":"Point","coordinates":[3.75083,45.38349]},"properties":{"nom":"Centre - Eglise","ag":["Agrégat des réseaux urbains et interurbains d'Auvergne-Rhône-Alpes","Réseau interurbain - Haute-Loire (43)","Réseau interurbain - Puy-de-Dôme (63)"],"lt":0,"dept":"63"}},{"type":"Feature","geometry":{"type":"Point","coordinates":[3.05345,45.79377]},"properties":{"nom":"Clinique","ag":["Agrégat des réseaux urbains et interurbains d'Auvergne-Rhône-Alpes"],"lt":0,"dept":"63"}},{"type":"Feature","geometry":{"type":"Point","coordinates":[2.8276,45.40784]},"properties":{"nom":"Place de la Fontaine","ag":["Agrégat des réseaux urbains et interurbains d'Auvergne-Rhône-Alpes","Réseau interurbain - Cantal (15)"],"lt":0,"dept":"63"}},{"type":"Feature","geometry":{"type":"Point","coordinates":[3.22722,45.89806]},"properties":{"nom":"Allée des Marroniers","ag":["Agrégat des réseaux urbains et interurbains d'Auvergne-Rhône-Alpes","Réseau urbain RLV Mobilités"],"lt":0,"dept":"63"}},{"type":"Feature","geometry":{"type":"Point","coordinates":[3.22752,45.89813]},"properties":{"nom":"Allée des Marroniers","ag":["Agrégat des réseaux urbains et interurbains d'Auvergne-Rhône-Alpes","Réseau urbain RLV Mobilités"],"lt":0,"dept":"63"}},{"type":"Feature","geometry":{"type":"Point","coordinates":[3.22058,45.89777]},"properties":{"nom":"Lycée Agricole","ag":["Agrégat des réseaux urbains et interurbains d'Auvergne-Rhône-Alpes","Réseau urbain RLV Mobilités"],"lt":0,"dept":"63"}},{"type":"Feature","geometry":{"type":"Point","coordinates":[3.22041,45.89787]},"properties":{"nom":"Lycée Agricole","ag":["Agrégat des réseaux urbains et interurbains d'Auvergne-Rhône-Alpes","Réseau urbain RLV Mobilités"],"lt":0,"dept":"63"}},{"type":"Feature","geometry":{"type":"Point","coordinates":[3.22076,45.90729]},"properties":{"nom":"Lotissements Les Vignots","ag":["Agrégat des réseaux urbains et interurbains d'Auvergne-Rhône-Alpes","Réseau urbain RLV Mobilités"],"lt":0,"dept":"63"}},{"type":"Feature","geometry":{"type":"Point","coordinates":[3.22087,45.90737]},"properties":{"nom":"Lotissements Les Vignots","ag":["Agrégat des réseaux urbains et interurbains d'Auvergne-Rhône-Alpes","Réseau urbain RLV Mobilités"],"lt":0,"dept":"63"}},{"type":"Feature","geometry":{"type":"Point","coordinates":[3.22726,45.89781]},"properties":{"nom":"Les Marronniers","ag":["Agrégat des réseaux urbains et interurbains d'Auvergne-Rhône-Alpes","Réseau urbain RLV Mobilités"],"lt":0,"dept":"63"}},{"type":"Feature","geometry":{"type":"Point","coordinates":[3.23084,45.89917]},"properties":{"nom":"Ecole Primaire","ag":["Agrégat des réseaux urbains et interurbains d'Auvergne-Rhône-Alpes"],"lt":0,"dept":"63"}},{"type":"Feature","geometry":{"type":"Point","coordinates":[3.21145,45.89571]},"properties":{"nom":"Champiaux","ag":["Agrégat des réseaux urbains et interurbains d'Auvergne-Rhône-Alpes"],"lt":0,"dept":"63"}},{"type":"Feature","geometry":{"type":"Point","coordinates":[3.2114,45.89582]},"properties":{"nom":"Champiaux","ag":["Agrégat des réseaux urbains et interurbains d'Auvergne-Rhône-Alpes"],"lt":0,"dept":"63"}},{"type":"Feature","geometry":{"type":"Point","coordinates":[3.265,45.89167]},"properties":{"nom":"Abribus","ag":["Agrégat des réseaux urbains et interurbains d'Auvergne-Rhône-Alpes"],"lt":0,"dept":"63"}},{"type":"Feature","geometry":{"type":"Point","coordinates":[3.26484,45.89188]},"properties":{"nom":"Abribus","ag":["Agrégat des réseaux urbains et interurbains d'Auvergne-Rhône-Alpes"],"lt":0,"dept":"63"}},{"type":"Feature","geometry":{"type":"Point","coordinates":[3.25639,45.88833]},"properties":{"nom":"Rue d'Entraigues","ag":["Agrégat des réseaux urbains et interurbains d'Auvergne-Rhône-Alpes","Réseau urbain RLV Mobilités"],"lt":0,"dept":"63"}},{"type":"Feature","geometry":{"type":"Point","coordinates":[3.25645,45.88838]},"properties":{"nom":"Rue d'Entraigues","ag":["Agrégat des réseaux urbains et interurbains d'Auvergne-Rhône-Alpes","Réseau urbain RLV Mobilités"],"lt":0,"dept":"63"}},{"type":"Feature","geometry":{"type":"Point","coordinates":[3.26084,45.88945]},"properties":{"nom":"Place de la Mairie","ag":["Agrégat des réseaux urbains et interurbains d'Auvergne-Rhône-Alpes"],"lt":0,"dept":"63"}},{"type":"Feature","geometry":{"type":"Point","coordinates":[3.26075,45.88931]},"properties":{"nom":"Place de la Mairie","ag":["Agrégat des réseaux urbains et interurbains d'Auvergne-Rhône-Alpes"],"lt":0,"dept":"63"}},{"type":"Feature","geometry":{"type":"Point","coordinates":[3.26767,45.87636]},"properties":{"nom":"Le Poux","ag":["Agrégat des réseaux urbains et interurbains d'Auvergne-Rhône-Alpes","Réseau urbain RLV Mobilités"],"lt":0,"dept":"63"}},{"type":"Feature","geometry":{"type":"Point","coordinates":[3.26786,45.87635]},"properties":{"nom":"Le Poux","ag":["Agrégat des réseaux urbains et interurbains d'Auvergne-Rhône-Alpes","Réseau urbain RLV Mobilités"],"lt":0,"dept":"63"}},{"type":"Feature","geometry":{"type":"Point","coordinates":[3.05079,45.89822]},"properties":{"nom":"Libération","ag":["Agrégat des réseaux urbains et interurbains d'Auvergne-Rhône-Alpes","Réseau urbain RLV Mobilités"],"lt":0,"dept":"63"}},{"type":"Feature","geometry":{"type":"Point","coordinates":[3.05077,45.89821]},"properties":{"nom":"Libération","ag":["Agrégat des réseaux urbains et interurbains d'Auvergne-Rhône-Alpes","Réseau urbain RLV Mobilités"],"lt":0,"dept":"63"}},{"type":"Feature","geometry":{"type":"Point","coordinates":[3.05096,45.89679]},"properties":{"nom":"Maison Basse","ag":["Agrégat des réseaux urbains et interurbains d'Auvergne-Rhône-Alpes","Réseau urbain RLV Mobilités"],"lt":0,"dept":"63"}},{"type":"Feature","geometry":{"type":"Point","coordinates":[3.06149,45.89643]},"properties":{"nom":"Plein Sud","ag":["Agrégat des réseaux urbains et interurbains d'Auvergne-Rhône-Alpes","Réseau urbain RLV Mobilités"],"lt":0,"dept":"63"}},{"type":"Feature","geometry":{"type":"Point","coordinates":[3.06146,45.89634]},"properties":{"nom":"Plein Sud","ag":["Agrégat des réseaux urbains et interurbains d'Auvergne-Rhône-Alpes","Réseau urbain RLV Mobilités"],"lt":0,"dept":"63"}},{"type":"Feature","geometry":{"type":"Point","coordinates":[3.05965,45.89082]},"properties":{"nom":"Les Redadoux","ag":["Agrégat des réseaux urbains et interurbains d'Auvergne-Rhône-Alpes"],"lt":0,"dept":"63"}},{"type":"Feature","geometry":{"type":"Point","coordinates":[3.05667,45.89677]},"properties":{"nom":"La Sauzède","ag":["Agrégat des réseaux urbains et interurbains d'Auvergne-Rhône-Alpes","Réseau urbain RLV Mobilités"],"lt":0,"dept":"63"}},{"type":"Feature","geometry":{"type":"Point","coordinates":[3.05666,45.89686]},"properties":{"nom":"La Sauzède","ag":["Agrégat des réseaux urbains et interurbains d'Auvergne-Rhône-Alpes","Réseau urbain RLV Mobilités"],"lt":0,"dept":"63"}},{"type":"Feature","geometry":{"type":"Point","coordinates":[3.07183,45.88881]},"properties":{"nom":"Espace Mozac","ag":["Agrégat des réseaux urbains et interurbains d'Auvergne-Rhône-Alpes","Réseau urbain RLV Mobilités"],"lt":0,"dept":"63"}},{"type":"Feature","geometry":{"type":"Point","coordinates":[3.0675,45.88778]},"properties":{"nom":"Les Gardelles","ag":["Agrégat des réseaux urbains et interurbains d'Auvergne-Rhône-Alpes","Réseau urbain RLV Mobilités"],"lt":0,"dept":"63"}},{"type":"Feature","geometry":{"type":"Point","coordinates":[3.05402,45.89543]},"properties":{"nom":"Les Graviers","ag":["Agrégat des réseaux urbains et interurbains d'Auvergne-Rhône-Alpes","Réseau urbain RLV Mobilités"],"lt":0,"dept":"63"}},{"type":"Feature","geometry":{"type":"Point","coordinates":[3.14769,45.83532]},"properties":{"nom":"Champfleuri","ag":["Agrégat des réseaux urbains et interurbains d'Auvergne-Rhône-Alpes"],"lt":0,"dept":"63"}},{"type":"Feature","geometry":{"type":"Point","coordinates":[3.15653,45.84134]},"properties":{"nom":"Donnavignat","ag":["Agrégat des réseaux urbains et interurbains d'Auvergne-Rhône-Alpes"],"lt":0,"dept":"63"}},{"type":"Feature","geometry":{"type":"Point","coordinates":[3.1566,45.84124]},"properties":{"nom":"Donnavignat","ag":["Agrégat des réseaux urbains et interurbains d'Auvergne-Rhône-Alpes"],"lt":0,"dept":"63"}},{"type":"Feature","geometry":{"type":"Point","coordinates":[3.14395,45.83302]},"properties":{"nom":"Gare de GERZAT","ag":["Agrégat des réseaux urbains et interurbains d'Auvergne-Rhône-Alpes","Réseau urbain RLV Mobilités"],"lt":0,"dept":"63"}},{"type":"Feature","geometry":{"type":"Point","coordinates":[3.14392,45.83299]},"properties":{"nom":"Gare de GERZAT","ag":["Agrégat des réseaux urbains et interurbains d'Auvergne-Rhône-Alpes","Réseau urbain RLV Mobilités"],"lt":0,"dept":"63"}},{"type":"Feature","geometry":{"type":"Point","coordinates":[2.89284,46.22671]},"properties":{"nom":"Gare SNCF","ag":["Agrégat des réseaux urbains et interurbains d'Auvergne-Rhône-Alpes"],"lt":0,"dept":"63"}},{"type":"Feature","geometry":{"type":"Point","coordinates":[3.38599,45.82122]},"properties":{"nom":"Lezoux","ag":["Agrégat des réseaux urbains et interurbains d'Auvergne-Rhône-Alpes","Réseau interurbain Cars Région Express","Réseau SNCF TGV, Intercités et TER"],"lt":0,"dept":"63"}},{"type":"Feature","geometry":{"type":"Point","coordinates":[3.21114,45.8416]},"properties":{"nom":"Cimetière","ag":["Agrégat des réseaux urbains et interurbains d'Auvergne-Rhône-Alpes"],"lt":0,"dept":"63"}},{"type":"Feature","geometry":{"type":"Point","coordinates":[3.05267,45.84753]},"properties":{"nom":"Centre","ag":["Agrégat des réseaux urbains et interurbains d'Auvergne-Rhône-Alpes"],"lt":0,"dept":"63"}},{"type":"Feature","geometry":{"type":"Point","coordinates":[3.06003,45.84577]},"properties":{"nom":"Lotissement","ag":["Agrégat des réseaux urbains et interurbains d'Auvergne-Rhône-Alpes"],"lt":0,"dept":"63"}},{"type":"Feature","geometry":{"type":"Point","coordinates":[3.05463,45.84623]},"properties":{"nom":"Salle Polyvalente","ag":["Agrégat des réseaux urbains et interurbains d'Auvergne-Rhône-Alpes"],"lt":0,"dept":"63"}},{"type":"Feature","geometry":{"type":"Point","coordinates":[3.06699,45.874]},"properties":{"nom":"Pisciculture","ag":["Agrégat des réseaux urbains et interurbains d'Auvergne-Rhône-Alpes"],"lt":0,"dept":"63"}},{"type":"Feature","geometry":{"type":"Point","coordinates":[3.06859,45.87904]},"properties":{"nom":"St-Genès-l'Enfant Mairie","ag":["Agrégat des réseaux urbains et interurbains d'Auvergne-Rhône-Alpes","Réseau urbain RLV Mobilités"],"lt":0,"dept":"63"}},{"type":"Feature","geometry":{"type":"Point","coordinates":[3.06878,45.87923]},"properties":{"nom":"St-Genès-l'Enfant Mairie","ag":["Agrégat des réseaux urbains et interurbains d'Auvergne-Rhône-Alpes","Réseau urbain RLV Mobilités"],"lt":0,"dept":"63"}},{"type":"Feature","geometry":{"type":"Point","coordinates":[3.07184,45.88871]},"properties":{"nom":"Espace Mozac","ag":["Agrégat des réseaux urbains et interurbains d'Auvergne-Rhône-Alpes"],"lt":0,"dept":"63"}},{"type":"Feature","geometry":{"type":"Point","coordinates":[3.06707,45.88753]},"properties":{"nom":"Les Gardelles","ag":["Agrégat des réseaux urbains et interurbains d'Auvergne-Rhône-Alpes","Réseau urbain RLV Mobilités"],"lt":0,"dept":"63"}},{"type":"Feature","geometry":{"type":"Point","coordinates":[3.06664,45.88191]},"properties":{"nom":"Moulins Blancs","ag":["Agrégat des réseaux urbains et interurbains d'Auvergne-Rhône-Alpes","Réseau urbain RLV Mobilités"],"lt":0,"dept":"63"}},{"type":"Feature","geometry":{"type":"Point","coordinates":[3.06671,45.88196]},"properties":{"nom":"Moulins Blancs","ag":["Agrégat des réseaux urbains et interurbains d'Auvergne-Rhône-Alpes","Réseau urbain RLV Mobilités"],"lt":0,"dept":"63"}},{"type":"Feature","geometry":{"type":"Point","coordinates":[3.18885,45.81633]},"properties":{"nom":"Charrots","ag":["Agrégat des réseaux urbains et interurbains d'Auvergne-Rhône-Alpes"],"lt":0,"dept":"63"}},{"type":"Feature","geometry":{"type":"Point","coordinates":[3.18656,45.81531]},"properties":{"nom":"Grand Rue / Mairie de Malintrat","ag":["Agrégat des réseaux urbains et interurbains d'Auvergne-Rhône-Alpes","Réseau urbain RLV Mobilités"],"lt":0,"dept":"63"}},{"type":"Feature","geometry":{"type":"Point","coordinates":[3.18666,45.81527]},"properties":{"nom":"Grand Rue / Mairie de Malintrat","ag":["Agrégat des réseaux urbains et interurbains d'Auvergne-Rhône-Alpes"],"lt":0,"dept":"63"}},{"type":"Feature","geometry":{"type":"Point","coordinates":[3.18779,45.81219]},"properties":{"nom":"La Joselle","ag":["Agrégat des réseaux urbains et interurbains d'Auvergne-Rhône-Alpes","Réseau urbain RLV Mobilités"],"lt":0,"dept":"63"}},{"type":"Feature","geometry":{"type":"Point","coordinates":[3.18799,45.81217]},"properties":{"nom":"La Joselle","ag":["Agrégat des réseaux urbains et interurbains d'Auvergne-Rhône-Alpes","Réseau urbain RLV Mobilités"],"lt":0,"dept":"63"}},{"type":"Feature","geometry":{"type":"Point","coordinates":[3.72638,45.48161]},"properties":{"nom":"La Poste","ag":["Agrégat des réseaux urbains et interurbains d'Auvergne-Rhône-Alpes","Réseau interurbain - Haute-Loire (43)"],"lt":0,"dept":"63"}},{"type":"Feature","geometry":{"type":"Point","coordinates":[3.07995,45.87626]},"properties":{"nom":"Mairie de Marsat","ag":["Agrégat des réseaux urbains et interurbains d'Auvergne-Rhône-Alpes","Réseau urbain RLV Mobilités"],"lt":0,"dept":"63"}},{"type":"Feature","geometry":{"type":"Point","coordinates":[3.0802,45.8764]},"properties":{"nom":"Mairie de Marsat","ag":["Agrégat des réseaux urbains et interurbains d'Auvergne-Rhône-Alpes","Réseau urbain RLV Mobilités"],"lt":0,"dept":"63"}},{"type":"Feature","geometry":{"type":"Point","coordinates":[3.07746,45.87544]},"properties":{"nom":"Le Paresin","ag":["Agrégat des réseaux urbains et interurbains d'Auvergne-Rhône-Alpes","Réseau urbain RLV Mobilités"],"lt":0,"dept":"63"}},{"type":"Feature","geometry":{"type":"Point","coordinates":[3.0769,45.87523]},"properties":{"nom":"Le Paresin","ag":["Agrégat des réseaux urbains et interurbains d'Auvergne-Rhône-Alpes","Réseau urbain RLV Mobilités"],"lt":0,"dept":"63"}},{"type":"Feature","geometry":{"type":"Point","coordinates":[3.08185,45.87705]},"properties":{"nom":"Place Bachaud","ag":["Agrégat des réseaux urbains et interurbains d'Auvergne-Rhône-Alpes","Réseau urbain RLV Mobilités"],"lt":0,"dept":"63"}},{"type":"Feature","geometry":{"type":"Point","coordinates":[3.08179,45.87707]},"properties":{"nom":"Place Bachaud","ag":["Agrégat des réseaux urbains et interurbains d'Auvergne-Rhône-Alpes","Réseau urbain RLV Mobilités"],"lt":0,"dept":"63"}},{"type":"Feature","geometry":{"type":"Point","coordinates":[3.0736,45.87413]},"properties":{"nom":"La Pommeraie","ag":["Agrégat des réseaux urbains et interurbains d'Auvergne-Rhône-Alpes","Réseau urbain RLV Mobilités"],"lt":0,"dept":"63"}},{"type":"Feature","geometry":{"type":"Point","coordinates":[3.07305,45.87417]},"properties":{"nom":"La Pommeraie","ag":["Agrégat des réseaux urbains et interurbains d'Auvergne-Rhône-Alpes","Réseau urbain RLV Mobilités"],"lt":0,"dept":"63"}},{"type":"Feature","geometry":{"type":"Point","coordinates":[3.08783,45.88012]},"properties":{"nom":"Stade de Marsat","ag":["Agrégat des réseaux urbains et interurbains d'Auvergne-Rhône-Alpes","Réseau urbain RLV Mobilités"],"lt":0,"dept":"63"}},{"type":"Feature","geometry":{"type":"Point","coordinates":[3.0876,45.8802]},"properties":{"nom":"Stade de Marsat","ag":["Agrégat des réseaux urbains et interurbains d'Auvergne-Rhône-Alpes","Réseau urbain RLV Mobilités"],"lt":0,"dept":"63"}},{"type":"Feature","geometry":{"type":"Point","coordinates":[3.23935,45.81915]},"properties":{"nom":"Cormède","ag":["Agrégat des réseaux urbains et interurbains d'Auvergne-Rhône-Alpes","Réseau urbain RLV Mobilités"],"lt":0,"dept":"63"}},{"type":"Feature","geometry":{"type":"Point","coordinates":[3.23934,45.81902]},"properties":{"nom":"Cormède","ag":["Agrégat des réseaux urbains et interurbains d'Auvergne-Rhône-Alpes","Réseau urbain RLV Mobilités"],"lt":0,"dept":"63"}},{"type":"Feature","geometry":{"type":"Point","coordinates":[3.26591,45.83677]},"properties":{"nom":"École","ag":["Agrégat des réseaux urbains et interurbains d'Auvergne-Rhône-Alpes"],"lt":0,"dept":"63"}},{"type":"Feature","geometry":{"type":"Point","coordinates":[3.2654,45.83656]},"properties":{"nom":"École","ag":["Agrégat des réseaux urbains et interurbains d'Auvergne-Rhône-Alpes"],"lt":0,"dept":"63"}},{"type":"Feature","geometry":{"type":"Point","coordinates":[3.2602,45.83333]},"properties":{"nom":"Église","ag":["Agrégat des réseaux urbains et interurbains d'Auvergne-Rhône-Alpes"],"lt":0,"dept":"63"}},{"type":"Feature","geometry":{"type":"Point","coordinates":[3.26038,45.83331]},"properties":{"nom":"Église","ag":["Agrégat des réseaux urbains et interurbains d'Auvergne-Rhône-Alpes"],"lt":0,"dept":"63"}},{"type":"Feature","geometry":{"type":"Point","coordinates":[3.21911,45.93897]},"properties":{"nom":"Place des Boules","ag":["Agrégat des réseaux urbains et interurbains d'Auvergne-Rhône-Alpes","Réseau urbain RLV Mobilités"],"lt":0,"dept":"63"}},{"type":"Feature","geometry":{"type":"Point","coordinates":[3.21919,45.93906]},"properties":{"nom":"Place des Boules","ag":["Agrégat des réseaux urbains et interurbains d'Auvergne-Rhône-Alpes","Réseau urbain RLV Mobilités"],"lt":0,"dept":"63"}},{"type":"Feature","geometry":{"type":"Point","coordinates":[3.22289,45.93639]},"properties":{"nom":"Croisement D17/D429","ag":["Agrégat des réseaux urbains et interurbains d'Auvergne-Rhône-Alpes"],"lt":0,"dept":"63"}},{"type":"Feature","geometry":{"type":"Point","coordinates":[3.22267,45.93666]},"properties":{"nom":"Croisement D17/D429","ag":["Agrégat des réseaux urbains et interurbains d'Auvergne-Rhône-Alpes"],"lt":0,"dept":"63"}},{"type":"Feature","geometry":{"type":"Point","coordinates":[3.22253,45.93552]},"properties":{"nom":"Ecole des Martres","ag":["Agrégat des réseaux urbains et interurbains d'Auvergne-Rhône-Alpes","Réseau urbain RLV Mobilités"],"lt":0,"dept":"63"}},{"type":"Feature","geometry":{"type":"Point","coordinates":[3.1332,45.87132]},"properties":{"nom":"Champ Bernard","ag":["Agrégat des réseaux urbains et interurbains d'Auvergne-Rhône-Alpes"],"lt":0,"dept":"63"}},{"type":"Feature","geometry":{"type":"Point","coordinates":[3.13307,45.87129]},"properties":{"nom":"Champ Bernard","ag":["Agrégat des réseaux urbains et interurbains d'Auvergne-Rhône-Alpes","Réseau urbain RLV Mobilités"],"lt":0,"dept":"63"}},{"type":"Feature","geometry":{"type":"Point","coordinates":[3.12447,45.87314]},"properties":{"nom":"Mairie de Ménétrol","ag":["Agrégat des réseaux urbains et interurbains d'Auvergne-Rhône-Alpes","Réseau urbain RLV Mobilités"],"lt":0,"dept":"63"}},{"type":"Feature","geometry":{"type":"Point","coordinates":[3.12485,45.87282]},"properties":{"nom":"Mairie de Ménétrol","ag":["Agrégat des réseaux urbains et interurbains d'Auvergne-Rhône-Alpes","Réseau urbain RLV Mobilités"],"lt":0,"dept":"63"}},{"type":"Feature","geometry":{"type":"Point","coordinates":[3.13104,45.87061]},"properties":{"nom":"Les Roses","ag":["Agrégat des réseaux urbains et interurbains d'Auvergne-Rhône-Alpes","Réseau urbain RLV Mobilités"],"lt":0,"dept":"63"}},{"type":"Feature","geometry":{"type":"Point","coordinates":[3.13077,45.87086]},"properties":{"nom":"Les Roses","ag":["Agrégat des réseaux urbains et interurbains d'Auvergne-Rhône-Alpes","Réseau urbain RLV Mobilités"],"lt":0,"dept":"63"}},{"type":"Feature","geometry":{"type":"Point","coordinates":[3.12691,45.87133]},"properties":{"nom":"Route de St-Beauzire","ag":["Agrégat des réseaux urbains et interurbains d'Auvergne-Rhône-Alpes"],"lt":0,"dept":"63"}},{"type":"Feature","geometry":{"type":"Point","coordinates":[3.12684,45.87128]},"properties":{"nom":"Route de St-Beauzire","ag":["Agrégat des réseaux urbains et interurbains d'Auvergne-Rhône-Alpes","Réseau urbain RLV Mobilités"],"lt":0,"dept":"63"}},{"type":"Feature","geometry":{"type":"Point","coordinates":[3.11711,45.87848]},"properties":{"nom":"Riom Sud","ag":["Agrégat des réseaux urbains et interurbains d'Auvergne-Rhône-Alpes","Réseau urbain RLV Mobilités"],"lt":0,"dept":"63"}},{"type":"Feature","geometry":{"type":"Point","coordinates":[2.80754,46.18048]},"properties":{"nom":"Place","ag":["Agrégat des réseaux urbains et interurbains d'Auvergne-Rhône-Alpes","Réseau interurbain - Allier (03)"],"lt":0,"dept":"63"}},{"type":"Feature","geometry":{"type":"Point","coordinates":[3.09172,45.5855]},"properties":{"nom":"Hôtel la Poste","ag":["Agrégat des réseaux urbains et interurbains d'Auvergne-Rhône-Alpes","Réseau interurbain - Cantal (15)"],"lt":0,"dept":"63"}},{"type":"Feature","geometry":{"type":"Point","coordinates":[3.16012,45.94028]},"properties":{"nom":"Halte Ferroviaire","ag":["Agrégat des réseaux urbains et interurbains d'Auvergne-Rhône-Alpes","Réseau urbain RLV Mobilités"],"lt":0,"dept":"63"}},{"type":"Feature","geometry":{"type":"Point","coordinates":[3.16517,45.94456]},"properties":{"nom":"Limagne","ag":["Agrégat des réseaux urbains et interurbains d'Auvergne-Rhône-Alpes","Réseau urbain RLV Mobilités"],"lt":0,"dept":"63"}},{"type":"Feature","geometry":{"type":"Point","coordinates":[3.16406,45.94256]},"properties":{"nom":"Pontmort","ag":["Agrégat des réseaux urbains et interurbains d'Auvergne-Rhône-Alpes","Réseau urbain RLV Mobilités"],"lt":0,"dept":"63"}},{"type":"Feature","geometry":{"type":"Point","coordinates":[3.14134,45.94714]},"properties":{"nom":"Place de la Résistance","ag":["Agrégat des réseaux urbains et interurbains d'Auvergne-Rhône-Alpes","Réseau urbain RLV Mobilités"],"lt":0,"dept":"63"}},{"type":"Feature","geometry":{"type":"Point","coordinates":[3.13536,45.93983]},"properties":{"nom":"Saulnat","ag":["Agrégat des réseaux urbains et interurbains d'Auvergne-Rhône-Alpes","Réseau urbain RLV Mobilités"],"lt":0,"dept":"63"}},{"type":"Feature","geometry":{"type":"Point","coordinates":[3.16045,45.96601]},"properties":{"nom":"La Moutade Eglise","ag":["Agrégat des réseaux urbains et interurbains d'Auvergne-Rhône-Alpes","Réseau urbain RLV Mobilités"],"lt":0,"dept":"63"}},{"type":"Feature","geometry":{"type":"Point","coordinates":[3.14123,45.94703]},"properties":{"nom":"Place de la Résistance","ag":["Agrégat des réseaux urbains et interurbains d'Auvergne-Rhône-Alpes","Réseau urbain RLV Mobilités"],"lt":0,"dept":"63"}},{"type":"Feature","geometry":{"type":"Point","coordinates":[3.13545,45.93997]},"properties":{"nom":"Saulnat","ag":["Agrégat des réseaux urbains et interurbains d'Auvergne-Rhône-Alpes","Réseau urbain RLV Mobilités"],"lt":0,"dept":"63"}},{"type":"Feature","geometry":{"type":"Point","coordinates":[3.08311,45.89483]},"properties":{"nom":"Aragon","ag":["Agrégat des réseaux urbains et interurbains d'Auvergne-Rhône-Alpes","Réseau urbain RLV Mobilités"],"lt":0,"dept":"63"}},{"type":"Feature","geometry":{"type":"Point","coordinates":[3.08302,45.89492]},"properties":{"nom":"Aragon","ag":["Agrégat des réseaux urbains et interurbains d'Auvergne-Rhône-Alpes","Réseau urbain RLV Mobilités"],"lt":0,"dept":"63"}},{"type":"Feature","geometry":{"type":"Point","coordinates":[3.07528,45.89601]},"properties":{"nom":"Bellevue","ag":["Agrégat des réseaux urbains et interurbains d'Auvergne-Rhône-Alpes","Réseau urbain RLV Mobilités"],"lt":0,"dept":"63"}},{"type":"Feature","geometry":{"type":"Point","coordinates":[3.07525,45.89594]},"properties":{"nom":"Bellevue","ag":["Agrégat des réseaux urbains et interurbains d'Auvergne-Rhône-Alpes","Réseau urbain RLV Mobilités"],"lt":0,"dept":"63"}},{"type":"Feature","geometry":{"type":"Point","coordinates":[3.08625,45.89458]},"properties":{"nom":"Petit Saint-Paul","ag":["Agrégat des réseaux urbains et interurbains d'Auvergne-Rhône-Alpes","Réseau urbain RLV Mobilités"],"lt":0,"dept":"63"}},{"type":"Feature","geometry":{"type":"Point","coordinates":[3.08634,45.89464]},"properties":{"nom":"Petit Saint-Paul","ag":["Agrégat des réseaux urbains et interurbains d'Auvergne-Rhône-Alpes","Réseau urbain RLV Mobilités"],"lt":0,"dept":"63"}},{"type":"Feature","geometry":{"type":"Point","coordinates":[3.09284,45.88935]},"properties":{"nom":"Saint-Martin","ag":["Agrégat des réseaux urbains et interurbains d'Auvergne-Rhône-Alpes","Réseau urbain RLV Mobilités"],"lt":0,"dept":"63"}},{"type":"Feature","geometry":{"type":"Point","coordinates":[3.09291,45.88943]},"properties":{"nom":"Saint-Martin","ag":["Agrégat des réseaux urbains et interurbains d'Auvergne-Rhône-Alpes","Réseau urbain RLV Mobilités"],"lt":0,"dept":"63"}},{"type":"Feature","geometry":{"type":"Point","coordinates":[3.09222,45.8939]},"properties":{"nom":"Europe","ag":["Agrégat des réseaux urbains et interurbains d'Auvergne-Rhône-Alpes"],"lt":0,"dept":"63"}},{"type":"Feature","geometry":{"type":"Point","coordinates":[3.09199,45.89397]},"properties":{"nom":"Europe","ag":["Agrégat des réseaux urbains et interurbains d'Auvergne-Rhône-Alpes","Réseau urbain RLV Mobilités"],"lt":0,"dept":"63"}},{"type":"Feature","geometry":{"type":"Point","coordinates":[3.09164,45.89335]},"properties":{"nom":"Europe","ag":["Agrégat des réseaux urbains et interurbains d'Auvergne-Rhône-Alpes"],"lt":0,"dept":"63"}},{"type":"Feature","geometry":{"type":"Point","coordinates":[3.09172,45.89345]},"properties":{"nom":"Europe","ag":["Agrégat des réseaux urbains et interurbains d'Auvergne-Rhône-Alpes","Réseau urbain RLV Mobilités"],"lt":0,"dept":"63"}},{"type":"Feature","geometry":{"type":"Point","coordinates":[3.08656,45.8924]},"properties":{"nom":"Jean Jaurès","ag":["Agrégat des réseaux urbains et interurbains d'Auvergne-Rhône-Alpes","Réseau urbain RLV Mobilités"],"lt":0,"dept":"63"}},{"type":"Feature","geometry":{"type":"Point","coordinates":[3.08675,45.89255]},"properties":{"nom":"Jean Jaurès","ag":["Agrégat des réseaux urbains et interurbains d'Auvergne-Rhône-Alpes","Réseau urbain RLV Mobilités"],"lt":0,"dept":"63"}},{"type":"Feature","geometry":{"type":"Point","coordinates":[3.08123,45.89104]},"properties":{"nom":"Le Joug","ag":["Agrégat des réseaux urbains et interurbains d'Auvergne-Rhône-Alpes","Réseau urbain RLV Mobilités"],"lt":0,"dept":"63"}},{"type":"Feature","geometry":{"type":"Point","coordinates":[3.08107,45.89111]},"properties":{"nom":"Le Joug","ag":["Agrégat des réseaux urbains et interurbains d'Auvergne-Rhône-Alpes","Réseau urbain RLV Mobilités"],"lt":0,"dept":"63"}},{"type":"Feature","geometry":{"type":"Point","coordinates":[3.0921,45.89161]},"properties":{"nom":"Léo Lagrange","ag":["Agrégat des réseaux urbains et interurbains d'Auvergne-Rhône-Alpes","Réseau urbain RLV Mobilités"],"lt":0,"dept":"63"}},{"type":"Feature","geometry":{"type":"Point","coordinates":[3.09216,45.8919]},"properties":{"nom":"Léo Lagrange","ag":["Agrégat des réseaux urbains et interurbains d'Auvergne-Rhône-Alpes","Réseau urbain RLV Mobilités"],"lt":0,"dept":"63"}},{"type":"Feature","geometry":{"type":"Point","coordinates":[3.07742,45.8901]},"properties":{"nom":"Peiroux","ag":["Agrégat des réseaux urbains et interurbains d'Auvergne-Rhône-Alpes","Réseau urbain RLV Mobilités"],"lt":0,"dept":"63"}},{"type":"Feature","geometry":{"type":"Point","coordinates":[3.07705,45.89011]},"properties":{"nom":"Peiroux","ag":["Agrégat des réseaux urbains et interurbains d'Auvergne-Rhône-Alpes","Réseau urbain RLV Mobilités"],"lt":0,"dept":"63"}},{"type":"Feature","geometry":{"type":"Point","coordinates":[3.09345,45.88464]},"properties":{"nom":"Les Peupliers","ag":["Agrégat des réseaux urbains et interurbains d'Auvergne-Rhône-Alpes","Réseau urbain RLV Mobilités"],"lt":0,"dept":"63"}},{"type":"Feature","geometry":{"type":"Point","coordinates":[3.09889,45.88722]},"properties":{"nom":"Henri Pourrat","ag":["Agrégat des réseaux urbains et interurbains d'Auvergne-Rhône-Alpes","Réseau urbain RLV Mobilités"],"lt":0,"dept":"63"}},{"type":"Feature","geometry":{"type":"Point","coordinates":[3.09618,45.88892]},"properties":{"nom":"Serrange","ag":["Agrégat des réseaux urbains et interurbains d'Auvergne-Rhône-Alpes","Réseau urbain RLV Mobilités"],"lt":0,"dept":"63"}},{"type":"Feature","geometry":{"type":"Point","coordinates":[3.09628,45.88893]},"properties":{"nom":"Serrange","ag":["Agrégat des réseaux urbains et interurbains d'Auvergne-Rhône-Alpes","Réseau urbain RLV Mobilités"],"lt":0,"dept":"63"}},{"type":"Feature","geometry":{"type":"Point","coordinates":[3.0969,45.89737]},"properties":{"nom":"Sarrazin","ag":["Agrégat des réseaux urbains et interurbains d'Auvergne-Rhône-Alpes","Réseau urbain RLV Mobilités"],"lt":0,"dept":"63"}},{"type":"Feature","geometry":{"type":"Point","coordinates":[3.49045,45.84288]},"properties":{"nom":"Pont de Dore","ag":["Agrégat des réseaux urbains et interurbains d'Auvergne-Rhône-Alpes","Réseau interurbain Cars Région Express","Réseau SNCF TGV, Intercités et TER"],"lt":0,"dept":"63"}},{"type":"Feature","geometry":{"type":"Point","coordinates":[3.15808,45.92755]},"properties":{"nom":"Ecole","ag":["Agrégat des réseaux urbains et interurbains d'Auvergne-Rhône-Alpes"],"lt":0,"dept":"63"}},{"type":"Feature","geometry":{"type":"Point","coordinates":[3.15654,45.92748]},"properties":{"nom":"Eglise de Pessat","ag":["Agrégat des réseaux urbains et interurbains d'Auvergne-Rhône-Alpes"],"lt":0,"dept":"63"}},{"type":"Feature","geometry":{"type":"Point","coordinates":[3.15694,45.92744]},"properties":{"nom":"Eglise de Pessat","ag":["Agrégat des réseaux urbains et interurbains d'Auvergne-Rhône-Alpes","Réseau urbain RLV Mobilités"],"lt":0,"dept":"63"}},{"type":"Feature","geometry":{"type":"Point","coordinates":[3.15597,45.91553]},"properties":{"nom":"Pessat","ag":["Agrégat des réseaux urbains et interurbains d'Auvergne-Rhône-Alpes","Réseau urbain RLV Mobilités"],"lt":0,"dept":"63"}},{"type":"Feature","geometry":{"type":"Point","coordinates":[2.69543,46.11327]},"properties":{"nom":"Gare","ag":["Agrégat des réseaux urbains et interurbains d'Auvergne-Rhône-Alpes","Réseau interurbain - Allier (03)"],"lt":0,"dept":"63"}},{"type":"Feature","geometry":{"type":"Point","coordinates":[3.14868,45.62048]},"properties":{"nom":"Le Bourg","ag":["Agrégat des réseaux urbains et interurbains d'Auvergne-Rhône-Alpes","Réseau interurbain - Cantal (15)"],"lt":0,"dept":"63"}},{"type":"Feature","geometry":{"type":"Point","coordinates":[3.2442,45.79952]},"properties":{"nom":"Croix Blanche","ag":["Agrégat des réseaux urbains et interurbains d'Auvergne-Rhône-Alpes","Réseau urbain RLV Mobilités"],"lt":0,"dept":"63"}},{"type":"Feature","geometry":{"type":"Point","coordinates":[3.24465,45.79911]},"properties":{"nom":"Croix Blanche","ag":["Agrégat des réseaux urbains et interurbains d'Auvergne-Rhône-Alpes","Réseau urbain RLV Mobilités"],"lt":0,"dept":"63"}},{"type":"Feature","geometry":{"type":"Point","coordinates":[2.85237,45.83217]},"properties":{"nom":"Place République","ag":["Agrégat des réseaux urbains et interurbains d'Auvergne-Rhône-Alpes","Réseau interurbain Cars Région Express"],"lt":0,"dept":"63"}},{"type":"Feature","geometry":{"type":"Point","coordinates":[3.15037,45.88883]},"properties":{"nom":"Centre Pénitentiaire","ag":["Agrégat des réseaux urbains et interurbains d'Auvergne-Rhône-Alpes","Réseau urbain RLV Mobilités"],"lt":0,"dept":"63"}},{"type":"Feature","geometry":{"type":"Point","coordinates":[3.1203,45.88821]},"properties":{"nom":"Alphonse Cornet","ag":["Agrégat des réseaux urbains et interurbains d'Auvergne-Rhône-Alpes","Réseau urbain RLV Mobilités"],"lt":0,"dept":"63"}},{"type":"Feature","geometry":{"type":"Point","coordinates":[3.13859,45.91067]},"properties":{"nom":"André Messager","ag":["Agrégat des réseaux urbains et interurbains d'Auvergne-Rhône-Alpes","Réseau urbain RLV Mobilités"],"lt":0,"dept":"63"}},{"type":"Feature","geometry":{"type":"Point","coordinates":[3.12308,45.89485]},"properties":{"nom":"La Bade","ag":["Agrégat des réseaux urbains et interurbains d'Auvergne-Rhône-Alpes","Réseau urbain RLV Mobilités"],"lt":0,"dept":"63"}},{"type":"Feature","geometry":{"type":"Point","coordinates":[3.12365,45.89495]},"properties":{"nom":"La Bade","ag":["Agrégat des réseaux urbains et interurbains d'Auvergne-Rhône-Alpes","Réseau urbain RLV Mobilités"],"lt":0,"dept":"63"}},{"type":"Feature","geometry":{"type":"Point","coordinates":[3.10176,45.8864]},"properties":{"nom":"La Beaumette","ag":["Agrégat des réseaux urbains et interurbains d'Auvergne-Rhône-Alpes","Réseau urbain RLV Mobilités"],"lt":0,"dept":"63"}},{"type":"Feature","geometry":{"type":"Point","coordinates":[3.10159,45.88641]},"properties":{"nom":"La Beaumette","ag":["Agrégat des réseaux urbains et interurbains d'Auvergne-Rhône-Alpes","Réseau urbain RLV Mobilités"],"lt":0,"dept":"63"}},{"type":"Feature","geometry":{"type":"Point","coordinates":[3.13058,45.90753]},"properties":{"nom":"Beethoven","ag":["Agrégat des réseaux urbains et interurbains d'Auvergne-Rhône-Alpes","Réseau urbain RLV Mobilités"],"lt":0,"dept":"63"}},{"type":"Feature","geometry":{"type":"Point","coordinates":[3.09929,45.90128]},"properties":{"nom":"Bel Epi","ag":["Agrégat des réseaux urbains et interurbains d'Auvergne-Rhône-Alpes"],"lt":0,"dept":"63"}},{"type":"Feature","geometry":{"type":"Point","coordinates":[3.09964,45.90124]},"properties":{"nom":"Bel Epi","ag":["Agrégat des réseaux urbains et interurbains d'Auvergne-Rhône-Alpes","Réseau urbain RLV Mobilités"],"lt":0,"dept":"63"}},{"type":"Feature","geometry":{"type":"Point","coordinates":[3.10927,45.8934]},"properties":{"nom":"Bel Horizon","ag":["Agrégat des réseaux urbains et interurbains d'Auvergne-Rhône-Alpes"],"lt":0,"dept":"63"}},{"type":"Feature","geometry":{"type":"Point","coordinates":[3.10906,45.89357]},"properties":{"nom":"Bel Horizon","ag":["Agrégat des réseaux urbains et interurbains d'Auvergne-Rhône-Alpes","Réseau urbain RLV Mobilités"],"lt":0,"dept":"63"}},{"type":"Feature","geometry":{"type":"Point","coordinates":[3.12805,45.88671]},"properties":{"nom":"Beau Pré","ag":["Agrégat des réseaux urbains et interurbains d'Auvergne-Rhône-Alpes","Réseau urbain RLV Mobilités"],"lt":0,"dept":"63"}},{"type":"Feature","geometry":{"type":"Point","coordinates":[3.12821,45.88676]},"properties":{"nom":"Beau Pré","ag":["Agrégat des réseaux urbains et interurbains d'Auvergne-Rhône-Alpes","Réseau urbain RLV Mobilités"],"lt":0,"dept":"63"}},{"type":"Feature","geometry":{"type":"Point","coordinates":[3.09917,45.90444]},"properties":{"nom":"Chapelle Saint-Don","ag":["Agrégat des réseaux urbains et interurbains d'Auvergne-Rhône-Alpes","Réseau urbain RLV Mobilités"],"lt":0,"dept":"63"}},{"type":"Feature","geometry":{"type":"Point","coordinates":[3.09912,45.90452]},"properties":{"nom":"Chapelle Saint-Don","ag":["Agrégat des réseaux urbains et interurbains d'Auvergne-Rhône-Alpes","Réseau urbain RLV Mobilités"],"lt":0,"dept":"63"}},{"type":"Feature","geometry":{"type":"Point","coordinates":[3.10139,45.89323]},"properties":{"nom":"Champs d'Ojardias","ag":["Agrégat des réseaux urbains et interurbains d'Auvergne-Rhône-Alpes","Réseau urbain RLV Mobilités"],"lt":0,"dept":"63"}},{"type":"Feature","geometry":{"type":"Point","coordinates":[3.10139,45.89332]},"properties":{"nom":"Champs d'Ojardias","ag":["Agrégat des réseaux urbains et interurbains d'Auvergne-Rhône-Alpes","Réseau urbain RLV Mobilités"],"lt":0,"dept":"63"}},{"type":"Feature","geometry":{"type":"Point","coordinates":[3.13325,45.89684]},"properties":{"nom":"Clairefontaine","ag":["Agrégat des réseaux urbains et interurbains d'Auvergne-Rhône-Alpes","Réseau urbain RLV Mobilités"],"lt":0,"dept":"63"}},{"type":"Feature","geometry":{"type":"Point","coordinates":[3.13314,45.89687]},"properties":{"nom":"Clairefontaine","ag":["Agrégat des réseaux urbains et interurbains d'Auvergne-Rhône-Alpes","Réseau urbain RLV Mobilités"],"lt":0,"dept":"63"}},{"type":"Feature","geometry":{"type":"Point","coordinates":[3.10052,45.90395]},"properties":{"nom":"Clos du Gamay","ag":["Agrégat des réseaux urbains et interurbains d'Auvergne-Rhône-Alpes","Réseau urbain RLV Mobilités"],"lt":0,"dept":"63"}},{"type":"Feature","geometry":{"type":"Point","coordinates":[3.10063,45.90369]},"properties":{"nom":"Clos du Gamay","ag":["Agrégat des réseaux urbains et interurbains d'Auvergne-Rhône-Alpes","Réseau urbain RLV Mobilités"],"lt":0,"dept":"63"}},{"type":"Feature","geometry":{"type":"Point","coordinates":[3.10389,45.88523]},"properties":{"nom":"Chabrier","ag":["Agrégat des réseaux urbains et interurbains d'Auvergne-Rhône-Alpes","Réseau urbain RLV Mobilités"],"lt":0,"dept":"63"}},{"type":"Feature","geometry":{"type":"Point","coordinates":[3.104,45.88514]},"properties":{"nom":"Chabrier","ag":["Agrégat des réseaux urbains et interurbains d'Auvergne-Rhône-Alpes","Réseau urbain RLV Mobilités"],"lt":0,"dept":"63"}},{"type":"Feature","geometry":{"type":"Point","coordinates":[3.10638,45.89786]},"properties":{"nom":"Châtel","ag":["Agrégat des réseaux urbains et interurbains d'Auvergne-Rhône-Alpes","Réseau urbain RLV Mobilités"],"lt":0,"dept":"63"}},{"type":"Feature","geometry":{"type":"Point","coordinates":[3.10638,45.89805]},"properties":{"nom":"Châtel","ag":["Agrégat des réseaux urbains et interurbains d'Auvergne-Rhône-Alpes","Réseau urbain RLV Mobilités"],"lt":0,"dept":"63"}},{"type":"Feature","geometry":{"type":"Point","coordinates":[3.13147,45.88566]},"properties":{"nom":"Collége Jean Vilar","ag":["Agrégat des réseaux urbains et interurbains d'Auvergne-Rhône-Alpes","Réseau urbain RLV Mobilités"],"lt":0,"dept":"63"}},{"type":"Feature","geometry":{"type":"Point","coordinates":[3.13066,45.88439]},"properties":{"nom":"Collége Jean Vilar","ag":["Agrégat des réseaux urbains et interurbains d'Auvergne-Rhône-Alpes","Réseau urbain RLV Mobilités"],"lt":0,"dept":"63"}},{"type":"Feature","geometry":{"type":"Point","coordinates":[3.11463,45.88598]},"properties":{"nom":"Avenue de Clermont","ag":["Agrégat des réseaux urbains et interurbains d'Auvergne-Rhône-Alpes"],"lt":0,"dept":"63"}},{"type":"Feature","geometry":{"type":"Point","coordinates":[3.11666,45.89194]},"properties":{"nom":"Collège de l'Hospital","ag":["Agrégat des réseaux urbains et interurbains d'Auvergne-Rhône-Alpes","Réseau urbain RLV Mobilités"],"lt":0,"dept":"63"}},{"type":"Feature","geometry":{"type":"Point","coordinates":[3.11765,45.89273]},"properties":{"nom":"Collège de l'Hospital","ag":["Agrégat des réseaux urbains et interurbains d'Auvergne-Rhône-Alpes","Réseau urbain RLV Mobilités"],"lt":0,"dept":"63"}},{"type":"Feature","geometry":{"type":"Point","coordinates":[3.10912,45.88218]},"properties":{"nom":"Collège Mendès France","ag":["Agrégat des réseaux urbains et interurbains d'Auvergne-Rhône-Alpes","Réseau urbain RLV Mobilités"],"lt":0,"dept":"63"}},{"type":"Feature","geometry":{"type":"Point","coordinates":[3.12055,45.90322]},"properties":{"nom":"Cap Nord","ag":["Agrégat des réseaux urbains et interurbains d'Auvergne-Rhône-Alpes","Réseau urbain RLV Mobilités"],"lt":0,"dept":"63"}},{"type":"Feature","geometry":{"type":"Point","coordinates":[3.12044,45.90295]},"properties":{"nom":"Cap Nord","ag":["Agrégat des réseaux urbains et interurbains d'Auvergne-Rhône-Alpes","Réseau urbain RLV Mobilités"],"lt":0,"dept":"63"}},{"type":"Feature","geometry":{"type":"Point","coordinates":[3.12452,45.88769]},"properties":{"nom":"Le Creux","ag":["Agrégat des réseaux urbains et interurbains d'Auvergne-Rhône-Alpes","Réseau urbain RLV Mobilités"],"lt":0,"dept":"63"}},{"type":"Feature","geometry":{"type":"Point","coordinates":[3.12415,45.88787]},"properties":{"nom":"Le Creux","ag":["Agrégat des réseaux urbains et interurbains d'Auvergne-Rhône-Alpes","Réseau urbain RLV Mobilités"],"lt":0,"dept":"63"}},{"type":"Feature","geometry":{"type":"Point","coordinates":[3.12224,45.88829]},"properties":{"nom":"Dagneaux","ag":["Agrégat des réseaux urbains et interurbains d'Auvergne-Rhône-Alpes","Réseau urbain RLV Mobilités"],"lt":0,"dept":"63"}},{"type":"Feature","geometry":{"type":"Point","coordinates":[3.12208,45.88834]},"properties":{"nom":"Dagneaux","ag":["Agrégat des réseaux urbains et interurbains d'Auvergne-Rhône-Alpes","Réseau urbain RLV Mobilités"],"lt":0,"dept":"63"}},{"type":"Feature","geometry":{"type":"Point","coordinates":[3.13062,45.89237]},"properties":{"nom":"Route d'Ennezat","ag":["Agrégat des réseaux urbains et interurbains d'Auvergne-Rhône-Alpes","Réseau urbain RLV Mobilités"],"lt":0,"dept":"63"}},{"type":"Feature","geometry":{"type":"Point","coordinates":[3.13056,45.89251]},"properties":{"nom":"Route d'Ennezat","ag":["Agrégat des réseaux urbains et interurbains d'Auvergne-Rhône-Alpes","Réseau urbain RLV Mobilités"],"lt":0,"dept":"63"}},{"type":"Feature","geometry":{"type":"Point","coordinates":[3.11594,45.89087]},"properties":{"nom":"Desaix","ag":["Agrégat des réseaux urbains et interurbains d'Auvergne-Rhône-Alpes","Réseau urbain RLV Mobilités"],"lt":0,"dept":"63"}},{"type":"Feature","geometry":{"type":"Point","coordinates":[3.11627,45.89088]},"properties":{"nom":"Desaix","ag":["Agrégat des réseaux urbains et interurbains d'Auvergne-Rhône-Alpes","Réseau urbain RLV Mobilités"],"lt":0,"dept":"63"}},{"type":"Feature","geometry":{"type":"Point","coordinates":[3.10272,45.88061]},"properties":{"nom":"De Gaulle","ag":["Agrégat des réseaux urbains et interurbains d'Auvergne-Rhône-Alpes","Réseau urbain RLV Mobilités"],"lt":0,"dept":"63"}},{"type":"Feature","geometry":{"type":"Point","coordinates":[3.10259,45.88071]},"properties":{"nom":"De Gaulle","ag":["Agrégat des réseaux urbains et interurbains d'Auvergne-Rhône-Alpes","Réseau urbain RLV Mobilités"],"lt":0,"dept":"63"}},{"type":"Feature","geometry":{"type":"Point","coordinates":[3.10132,45.89658]},"properties":{"nom":"Dômes","ag":["Agrégat des réseaux urbains et interurbains d'Auvergne-Rhône-Alpes","Réseau urbain RLV Mobilités"],"lt":0,"dept":"63"}},{"type":"Feature","geometry":{"type":"Point","coordinates":[3.10137,45.89663]},"properties":{"nom":"Dômes","ag":["Agrégat des réseaux urbains et interurbains d'Auvergne-Rhône-Alpes","Réseau urbain RLV Mobilités"],"lt":0,"dept":"63"}},{"type":"Feature","geometry":{"type":"Point","coordinates":[3.1238,45.88388]},"properties":{"nom":"Emile Pons","ag":["Agrégat des réseaux urbains et interurbains d'Auvergne-Rhône-Alpes","Réseau urbain RLV Mobilités"],"lt":0,"dept":"63"}},{"type":"Feature","geometry":{"type":"Point","coordinates":[3.12403,45.88384]},"properties":{"nom":"Emile Pons","ag":["Agrégat des réseaux urbains et interurbains d'Auvergne-Rhône-Alpes","Réseau urbain RLV Mobilités"],"lt":0,"dept":"63"}},{"type":"Feature","geometry":{"type":"Point","coordinates":[3.11806,45.88695]},"properties":{"nom":"Eugène Rouher","ag":["Agrégat des réseaux urbains et interurbains d'Auvergne-Rhône-Alpes","Réseau urbain RLV Mobilités"],"lt":0,"dept":"63"}},{"type":"Feature","geometry":{"type":"Point","coordinates":[3.09011,45.90434]},"properties":{"nom":"Les Essarts","ag":["Agrégat des réseaux urbains et interurbains d'Auvergne-Rhône-Alpes","Réseau urbain RLV Mobilités"],"lt":0,"dept":"63"}},{"type":"Feature","geometry":{"type":"Point","coordinates":[3.13092,45.90871]},"properties":{"nom":"Georges Bizet","ag":["Agrégat des réseaux urbains et interurbains d'Auvergne-Rhône-Alpes","Réseau urbain RLV Mobilités"],"lt":0,"dept":"63"}},{"type":"Feature","geometry":{"type":"Point","coordinates":[3.13659,45.89552]},"properties":{"nom":"Georges Gershwin","ag":["Agrégat des réseaux urbains et interurbains d'Auvergne-Rhône-Alpes","Réseau urbain RLV Mobilités"],"lt":0,"dept":"63"}},{"type":"Feature","geometry":{"type":"Point","coordinates":[3.10078,45.88605]},"properties":{"nom":"Gabriel Labrousse","ag":["Agrégat des réseaux urbains et interurbains d'Auvergne-Rhône-Alpes","Réseau urbain RLV Mobilités"],"lt":0,"dept":"63"}},{"type":"Feature","geometry":{"type":"Point","coordinates":[3.11597,45.88797]},"properties":{"nom":"Gourbeyre","ag":["Agrégat des réseaux urbains et interurbains d'Auvergne-Rhône-Alpes","Réseau urbain RLV Mobilités"],"lt":0,"dept":"63"}},{"type":"Feature","geometry":{"type":"Point","coordinates":[3.10909,45.88427]},"properties":{"nom":"Hôtel des Finances","ag":["Agrégat des réseaux urbains et interurbains d'Auvergne-Rhône-Alpes","Réseau urbain RLV Mobilités"],"lt":0,"dept":"63"}},{"type":"Feature","geometry":{"type":"Point","coordinates":[3.1092,45.88425]},"properties":{"nom":"Hôtel des Finances","ag":["Agrégat des réseaux urbains et interurbains d'Auvergne-Rhône-Alpes","Réseau urbain RLV Mobilités"],"lt":0,"dept":"63"}},{"type":"Feature","geometry":{"type":"Point","coordinates":[3.11149,45.89058]},"properties":{"nom":"Hôpital","ag":["Agrégat des réseaux urbains et interurbains d'Auvergne-Rhône-Alpes","Réseau urbain RLV Mobilités"],"lt":0,"dept":"63"}},{"type":"Feature","geometry":{"type":"Point","coordinates":[3.11286,45.89052]},"properties":{"nom":"Hôpital","ag":["Agrégat des réseaux urbains et interurbains d'Auvergne-Rhône-Alpes","Réseau urbain RLV Mobilités"],"lt":0,"dept":"63"}},{"type":"Feature","geometry":{"type":"Point","coordinates":[3.12852,45.89367]},"properties":{"nom":"Julien Favard","ag":["Agrégat des réseaux urbains et interurbains d'Auvergne-Rhône-Alpes"],"lt":0,"dept":"63"}},{"type":"Feature","geometry":{"type":"Point","coordinates":[3.12818,45.89397]},"properties":{"nom":"Julien Favard","ag":["Agrégat des réseaux urbains et interurbains d'Auvergne-Rhône-Alpes","Réseau urbain RLV Mobilités"],"lt":0,"dept":"63"}},{"type":"Feature","geometry":{"type":"Point","coordinates":[3.11041,45.88755]},"properties":{"nom":"Jean Moulin","ag":["Agrégat des réseaux urbains et interurbains d'Auvergne-Rhône-Alpes","Réseau urbain RLV Mobilités"],"lt":0,"dept":"63"}},{"type":"Feature","geometry":{"type":"Point","coordinates":[3.11047,45.88761]},"properties":{"nom":"Jean Moulin","ag":["Agrégat des réseaux urbains et interurbains d'Auvergne-Rhône-Alpes","Réseau urbain RLV Mobilités"],"lt":0,"dept":"63"}},{"type":"Feature","geometry":{"type":"Point","coordinates":[3.11092,45.88056]},"properties":{"nom":"Lycée Bonté","ag":["Agrégat des réseaux urbains et interurbains d'Auvergne-Rhône-Alpes","Réseau urbain RLV Mobilités"],"lt":0,"dept":"63"}},{"type":"Feature","geometry":{"type":"Point","coordinates":[3.1027,45.90192]},"properties":{"nom":"La Chabanne","ag":["Agrégat des réseaux urbains et interurbains d'Auvergne-Rhône-Alpes","Réseau urbain RLV Mobilités"],"lt":0,"dept":"63"}},{"type":"Feature","geometry":{"type":"Point","coordinates":[3.10278,45.90196]},"properties":{"nom":"La Chabanne","ag":["Agrégat des réseaux urbains et interurbains d'Auvergne-Rhône-Alpes","Réseau urbain RLV Mobilités"],"lt":0,"dept":"63"}},{"type":"Feature","geometry":{"type":"Point","coordinates":[3.11497,45.89584]},"properties":{"nom":"Liberté","ag":["Agrégat des réseaux urbains et interurbains d'Auvergne-Rhône-Alpes","Réseau urbain RLV Mobilités"],"lt":0,"dept":"63"}},{"type":"Feature","geometry":{"type":"Point","coordinates":[3.11501,45.89593]},"properties":{"nom":"Liberté","ag":["Agrégat des réseaux urbains et interurbains d'Auvergne-Rhône-Alpes","Réseau urbain RLV Mobilités"],"lt":0,"dept":"63"}},{"type":"Feature","geometry":{"type":"Point","coordinates":[3.10498,45.90127]},"properties":{"nom":"Lycée Laurencin","ag":["Agrégat des réseaux urbains et interurbains d'Auvergne-Rhône-Alpes","Réseau urbain RLV Mobilités"],"lt":0,"dept":"63"}},{"type":"Feature","geometry":{"type":"Point","coordinates":[3.11406,45.88751]},"properties":{"nom":"Lycée Virlogeux","ag":["Agrégat des réseaux urbains et interurbains d'Auvergne-Rhône-Alpes","Réseau urbain RLV Mobilités"],"lt":0,"dept":"63"}},{"type":"Feature","geometry":{"type":"Point","coordinates":[3.11448,45.88663]},"properties":{"nom":"Lycée Virlogeux","ag":["Agrégat des réseaux urbains et interurbains d'Auvergne-Rhône-Alpes","Réseau urbain RLV Mobilités"],"lt":0,"dept":"63"}},{"type":"Feature","geometry":{"type":"Point","coordinates":[3.09573,45.90542]},"properties":{"nom":"Madargue","ag":["Agrégat des réseaux urbains et interurbains d'Auvergne-Rhône-Alpes","Réseau urbain RLV Mobilités"],"lt":0,"dept":"63"}},{"type":"Feature","geometry":{"type":"Point","coordinates":[3.09552,45.90543]},"properties":{"nom":"Madargue","ag":["Agrégat des réseaux urbains et interurbains d'Auvergne-Rhône-Alpes","Réseau urbain RLV Mobilités"],"lt":0,"dept":"63"}},{"type":"Feature","geometry":{"type":"Point","coordinates":[3.10515,45.8931]},"properties":{"nom":"Madeline","ag":["Agrégat des réseaux urbains et interurbains d'Auvergne-Rhône-Alpes","Réseau urbain RLV Mobilités"],"lt":0,"dept":"63"}},{"type":"Feature","geometry":{"type":"Point","coordinates":[3.10518,45.89315]},"properties":{"nom":"Madeline","ag":["Agrégat des réseaux urbains et interurbains d'Auvergne-Rhône-Alpes","Réseau urbain RLV Mobilités"],"lt":0,"dept":"63"}},{"type":"Feature","geometry":{"type":"Point","coordinates":[3.13126,45.87954]},"properties":{"nom":"Manufacture","ag":["Agrégat des réseaux urbains et interurbains d'Auvergne-Rhône-Alpes","Réseau urbain RLV Mobilités"],"lt":0,"dept":"63"}},{"type":"Feature","geometry":{"type":"Point","coordinates":[3.1312,45.87947]},"properties":{"nom":"Manufacture","ag":["Agrégat des réseaux urbains et interurbains d'Auvergne-Rhône-Alpes","Réseau urbain RLV Mobilités"],"lt":0,"dept":"63"}},{"type":"Feature","geometry":{"type":"Point","coordinates":[3.12926,45.89616]},"properties":{"nom":"Moulin d'Eau","ag":["Agrégat des réseaux urbains et interurbains d'Auvergne-Rhône-Alpes","Réseau urbain RLV Mobilités"],"lt":0,"dept":"63"}},{"type":"Feature","geometry":{"type":"Point","coordinates":[3.12934,45.89622]},"properties":{"nom":"Moulin d'Eau","ag":["Agrégat des réseaux urbains et interurbains d'Auvergne-Rhône-Alpes","Réseau urbain RLV Mobilités"],"lt":0,"dept":"63"}},{"type":"Feature","geometry":{"type":"Point","coordinates":[3.11229,45.88726]},"properties":{"nom":"Maison de Retraite","ag":["Agrégat des réseaux urbains et interurbains d'Auvergne-Rhône-Alpes","Réseau urbain RLV Mobilités"],"lt":0,"dept":"63"}},{"type":"Feature","geometry":{"type":"Point","coordinates":[3.11227,45.8874]},"properties":{"nom":"Maison de Retraite","ag":["Agrégat des réseaux urbains et interurbains d'Auvergne-Rhône-Alpes","Réseau urbain RLV Mobilités"],"lt":0,"dept":"63"}},{"type":"Feature","geometry":{"type":"Point","coordinates":[3.11653,45.89951]},"properties":{"nom":"Avenue de Paris","ag":["Agrégat des réseaux urbains et interurbains d'Auvergne-Rhône-Alpes","Réseau urbain RLV Mobilités"],"lt":0,"dept":"63"}},{"type":"Feature","geometry":{"type":"Point","coordinates":[3.1168,45.89956]},"properties":{"nom":"Avenue de Paris","ag":["Agrégat des réseaux urbains et interurbains d'Auvergne-Rhône-Alpes","Réseau urbain RLV Mobilités"],"lt":0,"dept":"63"}},{"type":"Feature","geometry":{"type":"Point","coordinates":[3.09321,45.88445]},"properties":{"nom":"Les Peupliers","ag":["Agrégat des réseaux urbains et interurbains d'Auvergne-Rhône-Alpes","Réseau urbain RLV Mobilités"],"lt":0,"dept":"63"}},{"type":"Feature","geometry":{"type":"Point","coordinates":[3.11625,45.88206]},"properties":{"nom":"Parc des Fêtes","ag":["Agrégat des réseaux urbains et interurbains d'Auvergne-Rhône-Alpes","Réseau urbain RLV Mobilités"],"lt":0,"dept":"63"}},{"type":"Feature","geometry":{"type":"Point","coordinates":[3.11649,45.88207]},"properties":{"nom":"Parc des Fêtes","ag":["Agrégat des réseaux urbains et interurbains d'Auvergne-Rhône-Alpes","Réseau urbain RLV Mobilités"],"lt":0,"dept":"63"}},{"type":"Feature","geometry":{"type":"Point","coordinates":[3.10759,45.90324]},"properties":{"nom":"Piscine","ag":["Agrégat des réseaux urbains et interurbains d'Auvergne-Rhône-Alpes","Réseau urbain RLV Mobilités"],"lt":0,"dept":"63"}},{"type":"Feature","geometry":{"type":"Point","coordinates":[3.11922,45.89444]},"properties":{"nom":"Pré Madame","ag":["Agrégat des réseaux urbains et interurbains d'Auvergne-Rhône-Alpes","Réseau urbain RLV Mobilités"],"lt":0,"dept":"63"}},{"type":"Feature","geometry":{"type":"Point","coordinates":[3.11948,45.89455]},"properties":{"nom":"Pré Madame","ag":["Agrégat des réseaux urbains et interurbains d'Auvergne-Rhône-Alpes","Réseau urbain RLV Mobilités"],"lt":0,"dept":"63"}},{"type":"Feature","geometry":{"type":"Point","coordinates":[3.09898,45.8874]},"properties":{"nom":"Henri Pourrat","ag":["Agrégat des réseaux urbains et interurbains d'Auvergne-Rhône-Alpes","Réseau urbain RLV Mobilités"],"lt":0,"dept":"63"}},{"type":"Feature","geometry":{"type":"Point","coordinates":[3.1376,45.89224]},"properties":{"nom":"Portes de Riom","ag":["Agrégat des réseaux urbains et interurbains d'Auvergne-Rhône-Alpes","Réseau urbain RLV Mobilités"],"lt":0,"dept":"63"}},{"type":"Feature","geometry":{"type":"Point","coordinates":[3.13752,45.89234]},"properties":{"nom":"Portes de Riom","ag":["Agrégat des réseaux urbains et interurbains d'Auvergne-Rhône-Alpes","Réseau urbain RLV Mobilités"],"lt":0,"dept":"63"}},{"type":"Feature","geometry":{"type":"Point","coordinates":[3.12029,45.89043]},"properties":{"nom":"Pôle Multimodal SNCF","ag":["Agrégat des réseaux urbains et interurbains d'Auvergne-Rhône-Alpes","Réseau urbain RLV Mobilités"],"lt":0,"dept":"63"}},{"type":"Feature","geometry":{"type":"Point","coordinates":[3.1003,45.88207]},"properties":{"nom":"Rameau","ag":["Agrégat des réseaux urbains et interurbains d'Auvergne-Rhône-Alpes","Réseau urbain RLV Mobilités"],"lt":0,"dept":"63"}},{"type":"Feature","geometry":{"type":"Point","coordinates":[3.1003,45.88223]},"properties":{"nom":"Rameau","ag":["Agrégat des réseaux urbains et interurbains d'Auvergne-Rhône-Alpes"],"lt":0,"dept":"63"}},{"type":"Feature","geometry":{"type":"Point","coordinates":[3.10618,45.88182]},"properties":{"nom":"René Cassin","ag":["Agrégat des réseaux urbains et interurbains d'Auvergne-Rhône-Alpes","Réseau urbain RLV Mobilités"],"lt":0,"dept":"63"}},{"type":"Feature","geometry":{"type":"Point","coordinates":[3.1054,45.88151]},"properties":{"nom":"René Cassin","ag":["Agrégat des réseaux urbains et interurbains d'Auvergne-Rhône-Alpes","Réseau urbain RLV Mobilités"],"lt":0,"dept":"63"}},{"type":"Feature","geometry":{"type":"Point","coordinates":[3.10657,45.88792]},"properties":{"nom":"Rosiers","ag":["Agrégat des réseaux urbains et interurbains d'Auvergne-Rhône-Alpes","Réseau urbain RLV Mobilités"],"lt":0,"dept":"63"}},{"type":"Feature","geometry":{"type":"Point","coordinates":[3.10634,45.88795]},"properties":{"nom":"Rosiers","ag":["Agrégat des réseaux urbains et interurbains d'Auvergne-Rhône-Alpes","Réseau urbain RLV Mobilités"],"lt":0,"dept":"63"}},{"type":"Feature","geometry":{"type":"Point","coordinates":[3.11714,45.87857]},"properties":{"nom":"Sud","ag":["Agrégat des réseaux urbains et interurbains d'Auvergne-Rhône-Alpes"],"lt":0,"dept":"63"}},{"type":"Feature","geometry":{"type":"Point","coordinates":[3.11655,45.87906]},"properties":{"nom":"Sud","ag":["Agrégat des réseaux urbains et interurbains d'Auvergne-Rhône-Alpes"],"lt":0,"dept":"63"}},{"type":"Feature","geometry":{"type":"Point","coordinates":[3.1164,45.87913]},"properties":{"nom":"Sud","ag":["Agrégat des réseaux urbains et interurbains d'Auvergne-Rhône-Alpes"],"lt":0,"dept":"63"}},{"type":"Feature","geometry":{"type":"Point","coordinates":[3.13326,45.88725]},"properties":{"nom":"Salvador Allende","ag":["Agrégat des réseaux urbains et interurbains d'Auvergne-Rhône-Alpes","Réseau urbain RLV Mobilités"],"lt":0,"dept":"63"}},{"type":"Feature","geometry":{"type":"Point","coordinates":[3.1333,45.88731]},"properties":{"nom":"Salvador Allende","ag":["Agrégat des réseaux urbains et interurbains d'Auvergne-Rhône-Alpes","Réseau urbain RLV Mobilités"],"lt":0,"dept":"63"}},{"type":"Feature","geometry":{"type":"Point","coordinates":[3.10336,45.88716]},"properties":{"nom":"Saint Calmin","ag":["Agrégat des réseaux urbains et interurbains d'Auvergne-Rhône-Alpes"],"lt":0,"dept":"63"}},{"type":"Feature","geometry":{"type":"Point","coordinates":[3.10342,45.88729]},"properties":{"nom":"Saint Calmin","ag":["Agrégat des réseaux urbains et interurbains d'Auvergne-Rhône-Alpes","Réseau urbain RLV Mobilités"],"lt":0,"dept":"63"}},{"type":"Feature","geometry":{"type":"Point","coordinates":[3.09405,45.90029]},"properties":{"nom":"Rue Saint-Don","ag":["Agrégat des réseaux urbains et interurbains d'Auvergne-Rhône-Alpes","Réseau urbain RLV Mobilités"],"lt":0,"dept":"63"}},{"type":"Feature","geometry":{"type":"Point","coordinates":[3.09418,45.90028]},"properties":{"nom":"Rue Saint-Don","ag":["Agrégat des réseaux urbains et interurbains d'Auvergne-Rhône-Alpes","Réseau urbain RLV Mobilités"],"lt":0,"dept":"63"}},{"type":"Feature","geometry":{"type":"Point","coordinates":[3.109,45.89286]},"properties":{"nom":"Sainte Marie","ag":["Agrégat des réseaux urbains et interurbains d'Auvergne-Rhône-Alpes","Réseau urbain RLV Mobilités"],"lt":0,"dept":"63"}},{"type":"Feature","geometry":{"type":"Point","coordinates":[3.10871,45.89334]},"properties":{"nom":"Sainte Marie","ag":["Agrégat des réseaux urbains et interurbains d'Auvergne-Rhône-Alpes","Réseau urbain RLV Mobilités"],"lt":0,"dept":"63"}},{"type":"Feature","geometry":{"type":"Point","coordinates":[3.09698,45.89739]},"properties":{"nom":"Sarrazin","ag":["Agrégat des réseaux urbains et interurbains d'Auvergne-Rhône-Alpes","Réseau urbain RLV Mobilités"],"lt":0,"dept":"63"}},{"type":"Feature","geometry":{"type":"Point","coordinates":[3.10797,45.89611]},"properties":{"nom":"Tilleuls","ag":["Agrégat des réseaux urbains et interurbains d'Auvergne-Rhône-Alpes","Réseau urbain RLV Mobilités"],"lt":0,"dept":"63"}},{"type":"Feature","geometry":{"type":"Point","coordinates":[3.10818,45.89607]},"properties":{"nom":"Tilleuls","ag":["Agrégat des réseaux urbains et interurbains d'Auvergne-Rhône-Alpes","Réseau urbain RLV Mobilités"],"lt":0,"dept":"63"}},{"type":"Feature","geometry":{"type":"Point","coordinates":[3.10855,45.88763]},"properties":{"nom":"Toulon","ag":["Agrégat des réseaux urbains et interurbains d'Auvergne-Rhône-Alpes","Réseau urbain RLV Mobilités"],"lt":0,"dept":"63"}},{"type":"Feature","geometry":{"type":"Point","coordinates":[3.10855,45.88773]},"properties":{"nom":"Toulon","ag":["Agrégat des réseaux urbains et interurbains d'Auvergne-Rhône-Alpes","Réseau urbain RLV Mobilités"],"lt":0,"dept":"63"}},{"type":"Feature","geometry":{"type":"Point","coordinates":[3.12776,45.88244]},"properties":{"nom":"La Varenne","ag":["Agrégat des réseaux urbains et interurbains d'Auvergne-Rhône-Alpes","Réseau urbain RLV Mobilités"],"lt":0,"dept":"63"}},{"type":"Feature","geometry":{"type":"Point","coordinates":[3.12717,45.88226]},"properties":{"nom":"La Varenne","ag":["Agrégat des réseaux urbains et interurbains d'Auvergne-Rhône-Alpes","Réseau urbain RLV Mobilités"],"lt":0,"dept":"63"}},{"type":"Feature","geometry":{"type":"Point","coordinates":[3.10618,45.88312]},"properties":{"nom":"Village Basque","ag":["Agrégat des réseaux urbains et interurbains d'Auvergne-Rhône-Alpes","Réseau urbain RLV Mobilités"],"lt":0,"dept":"63"}},{"type":"Feature","geometry":{"type":"Point","coordinates":[3.1058,45.88353]},"properties":{"nom":"Village Basque","ag":["Agrégat des réseaux urbains et interurbains d'Auvergne-Rhône-Alpes","Réseau urbain RLV Mobilités"],"lt":0,"dept":"63"}},{"type":"Feature","geometry":{"type":"Point","coordinates":[3.09601,45.88384]},"properties":{"nom":"Villerose","ag":["Agrégat des réseaux urbains et interurbains d'Auvergne-Rhône-Alpes","Réseau urbain RLV Mobilités"],"lt":0,"dept":"63"}},{"type":"Feature","geometry":{"type":"Point","coordinates":[3.09586,45.88388]},"properties":{"nom":"Villerose","ag":["Agrégat des réseaux urbains et interurbains d'Auvergne-Rhône-Alpes","Réseau urbain RLV Mobilités"],"lt":0,"dept":"63"}},{"type":"Feature","geometry":{"type":"Point","coordinates":[3.13823,45.91064]},"properties":{"nom":"André Messager","ag":["Agrégat des réseaux urbains et interurbains d'Auvergne-Rhône-Alpes","Réseau urbain RLV Mobilités"],"lt":0,"dept":"63"}},{"type":"Feature","geometry":{"type":"Point","coordinates":[3.17025,45.85009]},"properties":{"nom":"Biopôle 2","ag":["Agrégat des réseaux urbains et interurbains d'Auvergne-Rhône-Alpes","Réseau urbain RLV Mobilités"],"lt":0,"dept":"63"}},{"type":"Feature","geometry":{"type":"Point","coordinates":[3.17051,45.85019]},"properties":{"nom":"Biopôle 2","ag":["Agrégat des réseaux urbains et interurbains d'Auvergne-Rhône-Alpes","Réseau urbain RLV Mobilités"],"lt":0,"dept":"63"}},{"type":"Feature","geometry":{"type":"Point","coordinates":[3.16689,45.84776]},"properties":{"nom":"Biopôle 1","ag":["Agrégat des réseaux urbains et interurbains d'Auvergne-Rhône-Alpes","Réseau urbain RLV Mobilités"],"lt":0,"dept":"63"}},{"type":"Feature","geometry":{"type":"Point","coordinates":[3.16699,45.84782]},"properties":{"nom":"Biopôle 1","ag":["Agrégat des réseaux urbains et interurbains d'Auvergne-Rhône-Alpes","Réseau urbain RLV Mobilités"],"lt":0,"dept":"63"}},{"type":"Feature","geometry":{"type":"Point","coordinates":[3.18028,45.85136]},"properties":{"nom":"Centre Bourg","ag":["Agrégat des réseaux urbains et interurbains d'Auvergne-Rhône-Alpes","Réseau urbain RLV Mobilités"],"lt":0,"dept":"63"}},{"type":"Feature","geometry":{"type":"Point","coordinates":[3.1802,45.85137]},"properties":{"nom":"Centre Bourg","ag":["Agrégat des réseaux urbains et interurbains d'Auvergne-Rhône-Alpes","Réseau urbain RLV Mobilités"],"lt":0,"dept":"63"}},{"type":"Feature","geometry":{"type":"Point","coordinates":[3.20087,45.84509]},"properties":{"nom":"Epinet","ag":["Agrégat des réseaux urbains et interurbains d'Auvergne-Rhône-Alpes","Réseau urbain RLV Mobilités"],"lt":0,"dept":"63"}},{"type":"Feature","geometry":{"type":"Point","coordinates":[3.20083,45.845]},"properties":{"nom":"Epinet","ag":["Agrégat des réseaux urbains et interurbains d'Auvergne-Rhône-Alpes","Réseau urbain RLV Mobilités"],"lt":0,"dept":"63"}},{"type":"Feature","geometry":{"type":"Point","coordinates":[3.17463,45.8489]},"properties":{"nom":"Lilas","ag":["Agrégat des réseaux urbains et interurbains d'Auvergne-Rhône-Alpes","Réseau urbain RLV Mobilités"],"lt":0,"dept":"63"}},{"type":"Feature","geometry":{"type":"Point","coordinates":[3.17459,45.84896]},"properties":{"nom":"Lilas","ag":["Agrégat des réseaux urbains et interurbains d'Auvergne-Rhône-Alpes","Réseau urbain RLV Mobilités"],"lt":0,"dept":"63"}},{"type":"Feature","geometry":{"type":"Point","coordinates":[3.19504,45.86344]},"properties":{"nom":"Puy Chany","ag":["Agrégat des réseaux urbains et interurbains d'Auvergne-Rhône-Alpes","Réseau urbain RLV Mobilités"],"lt":0,"dept":"63"}},{"type":"Feature","geometry":{"type":"Point","coordinates":[3.19506,45.86358]},"properties":{"nom":"Puy Chany","ag":["Agrégat des réseaux urbains et interurbains d'Auvergne-Rhône-Alpes","Réseau urbain RLV Mobilités"],"lt":0,"dept":"63"}},{"type":"Feature","geometry":{"type":"Point","coordinates":[3.18903,45.8725]},"properties":{"nom":"Targnat","ag":["Agrégat des réseaux urbains et interurbains d'Auvergne-Rhône-Alpes","Réseau urbain RLV Mobilités"],"lt":0,"dept":"63"}},{"type":"Feature","geometry":{"type":"Point","coordinates":[3.16944,45.86936]},"properties":{"nom":"La Croix des Trois Mains","ag":["Agrégat des réseaux urbains et interurbains d'Auvergne-Rhône-Alpes","Réseau urbain RLV Mobilités"],"lt":0,"dept":"63"}},{"type":"Feature","geometry":{"type":"Point","coordinates":[3.11144,45.93148]},"properties":{"nom":"Alphonse Filliol","ag":["Agrégat des réseaux urbains et interurbains d'Auvergne-Rhône-Alpes","Réseau urbain RLV Mobilités"],"lt":0,"dept":"63"}},{"type":"Feature","geometry":{"type":"Point","coordinates":[3.10877,45.92932]},"properties":{"nom":"Chauty","ag":["Agrégat des réseaux urbains et interurbains d'Auvergne-Rhône-Alpes","Réseau urbain RLV Mobilités"],"lt":0,"dept":"63"}},{"type":"Feature","geometry":{"type":"Point","coordinates":[3.10893,45.92941]},"properties":{"nom":"Chauty","ag":["Agrégat des réseaux urbains et interurbains d'Auvergne-Rhône-Alpes","Réseau urbain RLV Mobilités"],"lt":0,"dept":"63"}},{"type":"Feature","geometry":{"type":"Point","coordinates":[3.1027,45.92879]},"properties":{"nom":"Les Pêchers","ag":["Agrégat des réseaux urbains et interurbains d'Auvergne-Rhône-Alpes","Réseau urbain RLV Mobilités"],"lt":0,"dept":"63"}},{"type":"Feature","geometry":{"type":"Point","coordinates":[3.10247,45.9288]},"properties":{"nom":"Les Pêchers","ag":["Agrégat des réseaux urbains et interurbains d'Auvergne-Rhône-Alpes","Réseau urbain RLV Mobilités"],"lt":0,"dept":"63"}},{"type":"Feature","geometry":{"type":"Point","coordinates":[3.1141,45.92727]},"properties":{"nom":"République","ag":["Agrégat des réseaux urbains et interurbains d'Auvergne-Rhône-Alpes","Réseau urbain RLV Mobilités"],"lt":0,"dept":"63"}},{"type":"Feature","geometry":{"type":"Point","coordinates":[3.11412,45.92743]},"properties":{"nom":"République","ag":["Agrégat des réseaux urbains et interurbains d'Auvergne-Rhône-Alpes","Réseau urbain RLV Mobilités"],"lt":0,"dept":"63"}},{"type":"Feature","geometry":{"type":"Point","coordinates":[2.82008,46.16114]},"properties":{"nom":"Lycée","ag":["Agrégat des réseaux urbains et interurbains d'Auvergne-Rhône-Alpes"],"lt":0,"dept":"63"}},{"type":"Feature","geometry":{"type":"Point","coordinates":[2.83196,46.16594]},"properties":{"nom":"Place de l'Europe","ag":["Agrégat des réseaux urbains et interurbains d'Auvergne-Rhône-Alpes","Réseau interurbain - Puy-de-Dôme (63)","Réseau interurbain - Allier (03)"],"lt":0,"dept":"63"}},{"type":"Feature","geometry":{"type":"Point","coordinates":[2.82383,46.1619]},"properties":{"nom":"Lycée","ag":["Agrégat des réseaux urbains et interurbains d'Auvergne-Rhône-Alpes","Réseau interurbain Cars Région Express"],"lt":0,"dept":"63"}},{"type":"Feature","geometry":{"type":"Point","coordinates":[2.84099,45.93992]},"properties":{"nom":"R Écoles","ag":["Agrégat des réseaux urbains et interurbains d'Auvergne-Rhône-Alpes","Réseau interurbain Cars Région Express"],"lt":0,"dept":"63"}},{"type":"Feature","geometry":{"type":"Point","coordinates":[2.81111,46.03089]},"properties":{"nom":"LPA","ag":["Agrégat des réseaux urbains et interurbains d'Auvergne-Rhône-Alpes"],"lt":0,"dept":"63"}},{"type":"Feature","geometry":{"type":"Point","coordinates":[2.82129,46.02874]},"properties":{"nom":"Saint-Gervais - Château-Neuf","ag":["Agrégat des réseaux urbains et interurbains d'Auvergne-Rhône-Alpes","Réseau interurbain Cars Région Express","Réseau SNCF TGV, Intercités et TER"],"lt":0,"dept":"63"}},{"type":"Feature","geometry":{"type":"Point","coordinates":[2.81178,46.03086]},"properties":{"nom":"Saint-Gervais Chateauneuf LPA","ag":["Agrégat des réseaux urbains et interurbains d'Auvergne-Rhône-Alpes","Réseau interurbain Cars Région Express","Réseau SNCF TGV, Intercités et TER"],"lt":0,"dept":"63"}},{"type":"Feature","geometry":{"type":"Point","coordinates":[3.2875,45.91543]},"properties":{"nom":"Buxerolles","ag":["Agrégat des réseaux urbains et interurbains d'Auvergne-Rhône-Alpes","Réseau urbain RLV Mobilités"],"lt":0,"dept":"63"}},{"type":"Feature","geometry":{"type":"Point","coordinates":[3.28764,45.91544]},"properties":{"nom":"Buxerolles","ag":["Agrégat des réseaux urbains et interurbains d'Auvergne-Rhône-Alpes","Réseau urbain RLV Mobilités"],"lt":0,"dept":"63"}},{"type":"Feature","geometry":{"type":"Point","coordinates":[3.24811,45.91947]},"properties":{"nom":"Champeyroux","ag":["Agrégat des réseaux urbains et interurbains d'Auvergne-Rhône-Alpes","Réseau urbain RLV Mobilités"],"lt":0,"dept":"63"}},{"type":"Feature","geometry":{"type":"Point","coordinates":[3.27305,45.92289]},"properties":{"nom":"Mairie","ag":["Agrégat des réseaux urbains et interurbains d'Auvergne-Rhône-Alpes"],"lt":0,"dept":"63"}},{"type":"Feature","geometry":{"type":"Point","coordinates":[3.27296,45.92307]},"properties":{"nom":"Mairie","ag":["Agrégat des réseaux urbains et interurbains d'Auvergne-Rhône-Alpes"],"lt":0,"dept":"63"}},{"type":"Feature","geometry":{"type":"Point","coordinates":[3.27111,45.9175]},"properties":{"nom":"Maisonneuve","ag":["Agrégat des réseaux urbains et interurbains d'Auvergne-Rhône-Alpes","Réseau urbain RLV Mobilités"],"lt":0,"dept":"63"}},{"type":"Feature","geometry":{"type":"Point","coordinates":[3.29845,45.92505]},"properties":{"nom":"Tirande","ag":["Agrégat des réseaux urbains et interurbains d'Auvergne-Rhône-Alpes","Réseau urbain RLV Mobilités"],"lt":0,"dept":"63"}},{"type":"Feature","geometry":{"type":"Point","coordinates":[3.27103,45.90999]},"properties":{"nom":"Villeneuve l'Abbé","ag":["Agrégat des réseaux urbains et interurbains d'Auvergne-Rhône-Alpes","Réseau urbain RLV Mobilités"],"lt":0,"dept":"63"}},{"type":"Feature","geometry":{"type":"Point","coordinates":[3.27094,45.91002]},"properties":{"nom":"Villeneuve l'Abbé","ag":["Agrégat des réseaux urbains et interurbains d'Auvergne-Rhône-Alpes","Réseau urbain RLV Mobilités"],"lt":0,"dept":"63"}},{"type":"Feature","geometry":{"type":"Point","coordinates":[3.29024,45.90111]},"properties":{"nom":"Bascule","ag":["Agrégat des réseaux urbains et interurbains d'Auvergne-Rhône-Alpes"],"lt":0,"dept":"63"}},{"type":"Feature","geometry":{"type":"Point","coordinates":[3.29016,45.90096]},"properties":{"nom":"Bascule","ag":["Agrégat des réseaux urbains et interurbains d'Auvergne-Rhône-Alpes"],"lt":0,"dept":"63"}},{"type":"Feature","geometry":{"type":"Point","coordinates":[3.28472,45.90139]},"properties":{"nom":"Lotissement Le Mas","ag":["Agrégat des réseaux urbains et interurbains d'Auvergne-Rhône-Alpes","Réseau urbain RLV Mobilités"],"lt":0,"dept":"63"}},{"type":"Feature","geometry":{"type":"Point","coordinates":[3.29283,45.90392]},"properties":{"nom":"Rue Tours de Ville","ag":["Agrégat des réseaux urbains et interurbains d'Auvergne-Rhône-Alpes","Réseau urbain RLV Mobilités"],"lt":0,"dept":"63"}},{"type":"Feature","geometry":{"type":"Point","coordinates":[2.91747,45.85879]},"properties":{"nom":"Le Vauriat","ag":["Agrégat des réseaux urbains et interurbains d'Auvergne-Rhône-Alpes","Réseau interurbain Cars Région Express"],"lt":0,"dept":"63"}},{"type":"Feature","geometry":{"type":"Point","coordinates":[2.89328,45.85044]},"properties":{"nom":"les Roches","ag":["Agrégat des réseaux urbains et interurbains d'Auvergne-Rhône-Alpes","Réseau interurbain Cars Région Express"],"lt":0,"dept":"63"}},{"type":"Feature","geometry":{"type":"Point","coordinates":[2.90083,45.83444]},"properties":{"nom":"Beauloup 1","ag":["Agrégat des réseaux urbains et interurbains d'Auvergne-Rhône-Alpes","Réseau urbain RLV Mobilités"],"lt":0,"dept":"63"}},{"type":"Feature","geometry":{"type":"Point","coordinates":[2.90078,45.83437]},"properties":{"nom":"Beauloup 1","ag":["Agrégat des réseaux urbains et interurbains d'Auvergne-Rhône-Alpes","Réseau urbain RLV Mobilités"],"lt":0,"dept":"63"}},{"type":"Feature","geometry":{"type":"Point","coordinates":[2.90592,45.83222]},"properties":{"nom":"Beauloup 2","ag":["Agrégat des réseaux urbains et interurbains d'Auvergne-Rhône-Alpes","Réseau urbain RLV Mobilités"],"lt":0,"dept":"63"}},{"type":"Feature","geometry":{"type":"Point","coordinates":[2.90597,45.84001]},"properties":{"nom":"Charlon","ag":["Agrégat des réseaux urbains et interurbains d'Auvergne-Rhône-Alpes","Réseau urbain RLV Mobilités"],"lt":0,"dept":"63"}},{"type":"Feature","geometry":{"type":"Point","coordinates":[2.90586,45.83998]},"properties":{"nom":"Charlon","ag":["Agrégat des réseaux urbains et interurbains d'Auvergne-Rhône-Alpes","Réseau urbain RLV Mobilités"],"lt":0,"dept":"63"}},{"type":"Feature","geometry":{"type":"Point","coordinates":[2.90722,45.86597]},"properties":{"nom":"Le Corail","ag":["Agrégat des réseaux urbains et interurbains d'Auvergne-Rhône-Alpes","Réseau urbain RLV Mobilités"],"lt":0,"dept":"63"}},{"type":"Feature","geometry":{"type":"Point","coordinates":[2.89606,45.83028]},"properties":{"nom":"La Courteix","ag":["Agrégat des réseaux urbains et interurbains d'Auvergne-Rhône-Alpes","Réseau urbain RLV Mobilités"],"lt":0,"dept":"63"}},{"type":"Feature","geometry":{"type":"Point","coordinates":[2.89605,45.83036]},"properties":{"nom":"La Courteix","ag":["Agrégat des réseaux urbains et interurbains d'Auvergne-Rhône-Alpes","Réseau urbain RLV Mobilités"],"lt":0,"dept":"63"}},{"type":"Feature","geometry":{"type":"Point","coordinates":[2.89487,45.84878]},"properties":{"nom":"Ecole","ag":["Agrégat des réseaux urbains et interurbains d'Auvergne-Rhône-Alpes"],"lt":0,"dept":"63"}},{"type":"Feature","geometry":{"type":"Point","coordinates":[2.91611,45.82272]},"properties":{"nom":"Maisons Rouges Gîtes","ag":["Agrégat des réseaux urbains et interurbains d'Auvergne-Rhône-Alpes","Réseau urbain RLV Mobilités"],"lt":0,"dept":"63"}},{"type":"Feature","geometry":{"type":"Point","coordinates":[2.89806,45.86335]},"properties":{"nom":"La Gravière","ag":["Agrégat des réseaux urbains et interurbains d'Auvergne-Rhône-Alpes"],"lt":0,"dept":"63"}},{"type":"Feature","geometry":{"type":"Point","coordinates":[2.91259,45.82345]},"properties":{"nom":"Maisons Rouges","ag":["Agrégat des réseaux urbains et interurbains d'Auvergne-Rhône-Alpes","Réseau urbain RLV Mobilités"],"lt":0,"dept":"63"}},{"type":"Feature","geometry":{"type":"Point","coordinates":[2.91889,45.82156]},"properties":{"nom":"Les Roches D941","ag":["Agrégat des réseaux urbains et interurbains d'Auvergne-Rhône-Alpes","Réseau urbain RLV Mobilités"],"lt":0,"dept":"63"}},{"type":"Feature","geometry":{"type":"Point","coordinates":[2.91456,45.82014]},"properties":{"nom":"Les Roches","ag":["Agrégat des réseaux urbains et interurbains d'Auvergne-Rhône-Alpes","Réseau urbain RLV Mobilités"],"lt":0,"dept":"63"}},{"type":"Feature","geometry":{"type":"Point","coordinates":[2.91306,45.82383]},"properties":{"nom":"Maisons Rouges Eglise","ag":["Agrégat des réseaux urbains et interurbains d'Auvergne-Rhône-Alpes","Réseau urbain RLV Mobilités"],"lt":0,"dept":"63"}},{"type":"Feature","geometry":{"type":"Point","coordinates":[2.91761,45.85875]},"properties":{"nom":"Le Vauriat RD943","ag":["Agrégat des réseaux urbains et interurbains d'Auvergne-Rhône-Alpes","Réseau urbain RLV Mobilités"],"lt":0,"dept":"63"}},{"type":"Feature","geometry":{"type":"Point","coordinates":[2.91797,45.86136]},"properties":{"nom":"Le Vauriat","ag":["Agrégat des réseaux urbains et interurbains d'Auvergne-Rhône-Alpes","Réseau urbain RLV Mobilités"],"lt":0,"dept":"63"}},{"type":"Feature","geometry":{"type":"Point","coordinates":[2.88194,45.86542]},"properties":{"nom":"Villelongue","ag":["Agrégat des réseaux urbains et interurbains d'Auvergne-Rhône-Alpes","Réseau urbain RLV Mobilités"],"lt":0,"dept":"63"}},