{"type":"FeatureCollection","features":[{"type":"Feature","geometry":{"type":"Point","coordinates":[-1.46977,43.49655]},"properties":{"nom":"BAYONNE - PEM GARE SNCF QUAI 3","ag":["Réseau interurbain - Landes (40)"],"lt":1,"dept":"64"}},{"type":"Feature","geometry":{"type":"Point","coordinates":[-1.46973,43.49657]},"properties":{"nom":"BAYONNE - PEM GARE SNCF QUAI 3","ag":["Réseau interurbain - Landes (40)"],"lt":0,"dept":"64"}},{"type":"Feature","geometry":{"type":"Point","coordinates":[-1.46981,43.49653]},"properties":{"nom":"BAYONNE - PEM GARE SNCF QUAI 3","ag":["Réseau interurbain - Landes (40)"],"lt":0,"dept":"64"}},{"type":"Feature","geometry":{"type":"Point","coordinates":[-0.35885,43.27767]},"properties":{"nom":"15 RUE LOUIS BARTHOU","ag":["Réseau scolaire Scolaris"],"lt":1,"dept":"64"}},{"type":"Feature","geometry":{"type":"Point","coordinates":[-0.35045,43.31251]},"properties":{"nom":"43 AVENUE DE BUROS","ag":["Réseau scolaire Scolaris"],"lt":1,"dept":"64"}},{"type":"Feature","geometry":{"type":"Point","coordinates":[-0.34787,43.31644]},"properties":{"nom":"79 AVENUE DE BUROS","ag":["Réseau scolaire Scolaris"],"lt":1,"dept":"64"}},{"type":"Feature","geometry":{"type":"Point","coordinates":[-0.24547,43.27431]},"properties":{"nom":"08-mai-45","ag":["Réseau scolaire Scolaris"],"lt":1,"dept":"64"}},{"type":"Feature","geometry":{"type":"Point","coordinates":[-0.4023,43.26329]},"properties":{"nom":"ANCIENNE ECOLE","ag":["Réseau scolaire Scolaris"],"lt":1,"dept":"64"}},{"type":"Feature","geometry":{"type":"Point","coordinates":[-0.37121,43.38089]},"properties":{"nom":"AIGRETTES","ag":["Réseau scolaire Scolaris"],"lt":1,"dept":"64"}},{"type":"Feature","geometry":{"type":"Point","coordinates":[-0.34094,43.28279]},"properties":{"nom":"ALBERT 1ER","ag":["Réseau scolaire Scolaris"],"lt":1,"dept":"64"}},{"type":"Feature","geometry":{"type":"Point","coordinates":[-0.36757,43.30389]},"properties":{"nom":"ALSACE LORRAINE","ag":["Réseau scolaire Scolaris"],"lt":1,"dept":"64"}},{"type":"Feature","geometry":{"type":"Point","coordinates":[-0.51009,43.33752]},"properties":{"nom":"ARBUS CHATEAU D EAU","ag":["Réseau scolaire Scolaris"],"lt":1,"dept":"64"}},{"type":"Feature","geometry":{"type":"Point","coordinates":[-0.49449,43.32641]},"properties":{"nom":"ARBUS CLOS BEDAT","ag":["Réseau scolaire Scolaris"],"lt":1,"dept":"64"}},{"type":"Feature","geometry":{"type":"Point","coordinates":[-0.50708,43.33482]},"properties":{"nom":"ARBUS ECOLE","ag":["Réseau scolaire Scolaris"],"lt":1,"dept":"64"}},{"type":"Feature","geometry":{"type":"Point","coordinates":[-0.50168,43.32865]},"properties":{"nom":"ARBUS LARRIBOT","ag":["Réseau scolaire Scolaris"],"lt":1,"dept":"64"}},{"type":"Feature","geometry":{"type":"Point","coordinates":[-0.48777,43.32265]},"properties":{"nom":"ARBUS SAINT SORQUE","ag":["Réseau scolaire Scolaris"],"lt":1,"dept":"64"}},{"type":"Feature","geometry":{"type":"Point","coordinates":[-0.32614,43.27962]},"properties":{"nom":"ARESSY CLINIQUE","ag":["Réseau scolaire Scolaris"],"lt":1,"dept":"64"}},{"type":"Feature","geometry":{"type":"Point","coordinates":[-0.29966,43.28658]},"properties":{"nom":"ARMANDIEU","ag":["Réseau scolaire Scolaris"],"lt":1,"dept":"64"}},{"type":"Feature","geometry":{"type":"Point","coordinates":[-0.37378,43.40032]},"properties":{"nom":"ARRIBETS","ag":["Réseau scolaire Scolaris"],"lt":1,"dept":"64"}},{"type":"Feature","geometry":{"type":"Point","coordinates":[-0.3122,43.29773]},"properties":{"nom":"ARROUTUROUS","ag":["Réseau scolaire Scolaris"],"lt":1,"dept":"64"}},{"type":"Feature","geometry":{"type":"Point","coordinates":[-0.47522,43.30801]},"properties":{"nom":"ARTIGUELOUVE LANSOLLES","ag":["Réseau scolaire Scolaris"],"lt":1,"dept":"64"}},{"type":"Feature","geometry":{"type":"Point","coordinates":[-0.24798,43.2758]},"properties":{"nom":"ARTIGUELOUTAN STADE","ag":["Réseau scolaire Scolaris"],"lt":1,"dept":"64"}},{"type":"Feature","geometry":{"type":"Point","coordinates":[-0.47662,43.31595]},"properties":{"nom":"ARTIGUELOUVE CHEMIN DU PIQUEUR","ag":["Réseau scolaire Scolaris"],"lt":1,"dept":"64"}},{"type":"Feature","geometry":{"type":"Point","coordinates":[-0.47077,43.32053]},"properties":{"nom":"ARTIGUELOUVE GARE","ag":["Réseau scolaire Scolaris"],"lt":1,"dept":"64"}},{"type":"Feature","geometry":{"type":"Point","coordinates":[-0.47588,43.32128]},"properties":{"nom":"ARTIGUELOUVE LA CROIX","ag":["Réseau scolaire Scolaris"],"lt":1,"dept":"64"}},{"type":"Feature","geometry":{"type":"Point","coordinates":[-0.45597,43.3168]},"properties":{"nom":"ARTIGUELOUVE LE GOLF","ag":["Réseau scolaire Scolaris"],"lt":1,"dept":"64"}},{"type":"Feature","geometry":{"type":"Point","coordinates":[-0.48054,43.32106]},"properties":{"nom":"ARTIGUELOUVE LES BARTHES","ag":["Réseau scolaire Scolaris"],"lt":1,"dept":"64"}},{"type":"Feature","geometry":{"type":"Point","coordinates":[-0.47251,43.30308]},"properties":{"nom":"ARTIGUELOUVE SALABERTHE","ag":["Réseau scolaire Scolaris"],"lt":1,"dept":"64"}},{"type":"Feature","geometry":{"type":"Point","coordinates":[-0.36926,43.40297]},"properties":{"nom":"ARZACQ","ag":["Réseau scolaire Scolaris"],"lt":1,"dept":"64"}},{"type":"Feature","geometry":{"type":"Point","coordinates":[-0.3308,43.31683]},"properties":{"nom":"ASFO","ag":["Réseau scolaire Scolaris"],"lt":1,"dept":"64"}},{"type":"Feature","geometry":{"type":"Point","coordinates":[-0.39063,43.25886]},"properties":{"nom":"ASTOUS","ag":["Réseau scolaire Scolaris"],"lt":1,"dept":"64"}},{"type":"Feature","geometry":{"type":"Point","coordinates":[-0.48167,43.32425]},"properties":{"nom":"ARTIGUELOUVE PALETOU","ag":["Réseau scolaire Scolaris"],"lt":1,"dept":"64"}},{"type":"Feature","geometry":{"type":"Point","coordinates":[-0.48341,43.27359]},"properties":{"nom":"AUBERTIN ECOLE","ag":["Réseau scolaire Scolaris"],"lt":1,"dept":"64"}},{"type":"Feature","geometry":{"type":"Point","coordinates":[-0.40969,43.3312]},"properties":{"nom":"AUBISQUE","ag":["Réseau scolaire Scolaris"],"lt":1,"dept":"64"}},{"type":"Feature","geometry":{"type":"Point","coordinates":[-0.48352,43.27492]},"properties":{"nom":"AUBERTIN Bitaillou","ag":["Réseau scolaire Scolaris"],"lt":1,"dept":"64"}},{"type":"Feature","geometry":{"type":"Point","coordinates":[-0.33287,43.3147]},"properties":{"nom":"AURIOL","ag":["Réseau scolaire Scolaris"],"lt":1,"dept":"64"}},{"type":"Feature","geometry":{"type":"Point","coordinates":[-0.47288,43.35662]},"properties":{"nom":"AUSSEVIELLE CHEMIN DE LA SERRE","ag":["Réseau scolaire Scolaris"],"lt":1,"dept":"64"}},{"type":"Feature","geometry":{"type":"Point","coordinates":[-0.48734,43.35525]},"properties":{"nom":"AUSSEVIELLE CLOS DE BEARN","ag":["Réseau scolaire Scolaris"],"lt":1,"dept":"64"}},{"type":"Feature","geometry":{"type":"Point","coordinates":[-0.4797,43.35954]},"properties":{"nom":"AUSSEVIELLE COTE DE LABOURDETTE","ag":["Réseau scolaire Scolaris"],"lt":1,"dept":"64"}},{"type":"Feature","geometry":{"type":"Point","coordinates":[-0.48306,43.35459]},"properties":{"nom":"AUSSEVIELLE ECOLE MATERNELLE","ag":["Réseau scolaire Scolaris"],"lt":1,"dept":"64"}},{"type":"Feature","geometry":{"type":"Point","coordinates":[-0.48107,43.35492]},"properties":{"nom":"AUSSEVIELLE L OUSSE","ag":["Réseau scolaire Scolaris"],"lt":1,"dept":"64"}},{"type":"Feature","geometry":{"type":"Point","coordinates":[-0.40108,43.25442]},"properties":{"nom":"AVENUE DES PYRENEES","ag":["Réseau scolaire Scolaris"],"lt":1,"dept":"64"}},{"type":"Feature","geometry":{"type":"Point","coordinates":[-0.31438,43.30332]},"properties":{"nom":"AVIATION","ag":["Réseau scolaire Scolaris"],"lt":1,"dept":"64"}},{"type":"Feature","geometry":{"type":"Point","coordinates":[-0.38014,43.35539]},"properties":{"nom":"Ayguelongue","ag":["Réseau scolaire Scolaris"],"lt":1,"dept":"64"}},{"type":"Feature","geometry":{"type":"Point","coordinates":[-0.38377,43.32532]},"properties":{"nom":"AZNAR","ag":["Réseau scolaire Scolaris"],"lt":1,"dept":"64"}},{"type":"Feature","geometry":{"type":"Point","coordinates":[-0.25547,43.34562]},"properties":{"nom":"BARATNAU","ag":["Réseau scolaire Scolaris"],"lt":1,"dept":"64"}},{"type":"Feature","geometry":{"type":"Point","coordinates":[-0.36106,43.32157]},"properties":{"nom":"BARINCOU","ag":["Réseau scolaire Scolaris"],"lt":1,"dept":"64"}},{"type":"Feature","geometry":{"type":"Point","coordinates":[-0.27667,43.28488]},"properties":{"nom":"BARTHOUIL","ag":["Réseau scolaire Scolaris"],"lt":1,"dept":"64"}},{"type":"Feature","geometry":{"type":"Point","coordinates":[-0.37895,43.26187]},"properties":{"nom":"HAUT DE CAPDEROU","ag":["Réseau scolaire Scolaris"],"lt":1,"dept":"64"}},{"type":"Feature","geometry":{"type":"Point","coordinates":[-0.35329,43.30708]},"properties":{"nom":"BAUDELAIRE","ag":["Réseau scolaire Scolaris"],"lt":1,"dept":"64"}},{"type":"Feature","geometry":{"type":"Point","coordinates":[-0.35078,43.3869]},"properties":{"nom":"BAYROU","ag":["Réseau scolaire Scolaris"],"lt":1,"dept":"64"}},{"type":"Feature","geometry":{"type":"Point","coordinates":[-0.38383,43.30721]},"properties":{"nom":"BEAU FRENE CLAIR SOLEIL","ag":["Réseau scolaire Scolaris"],"lt":1,"dept":"64"}},{"type":"Feature","geometry":{"type":"Point","coordinates":[-0.3204,43.29895]},"properties":{"nom":"BEAU SOLEIL","ag":["Réseau scolaire Scolaris"],"lt":1,"dept":"64"}},{"type":"Feature","geometry":{"type":"Point","coordinates":[-0.34535,43.3646]},"properties":{"nom":"BEBIOT","ag":["Réseau scolaire Scolaris"],"lt":1,"dept":"64"}},{"type":"Feature","geometry":{"type":"Point","coordinates":[-0.41566,43.25185]},"properties":{"nom":"BEL AIR","ag":["Réseau scolaire Scolaris"],"lt":1,"dept":"64"}},{"type":"Feature","geometry":{"type":"Point","coordinates":[-0.3883,43.27561]},"properties":{"nom":"BELLE OASIS","ag":["Réseau scolaire Scolaris"],"lt":1,"dept":"64"}},{"type":"Feature","geometry":{"type":"Point","coordinates":[-0.37585,43.4064]},"properties":{"nom":"BELLEVUE","ag":["Réseau scolaire Scolaris"],"lt":1,"dept":"64"}},{"type":"Feature","geometry":{"type":"Point","coordinates":[-0.42575,43.32672]},"properties":{"nom":"BENEHARNUM","ag":["Réseau scolaire Scolaris"],"lt":1,"dept":"64"}},{"type":"Feature","geometry":{"type":"Point","coordinates":[-0.2984,43.32341]},"properties":{"nom":"BERLANNE","ag":["Réseau scolaire Scolaris"],"lt":1,"dept":"64"}},{"type":"Feature","geometry":{"type":"Point","coordinates":[-0.29662,43.32641]},"properties":{"nom":"BERLANNE LES PINS","ag":["Réseau scolaire Scolaris"],"lt":1,"dept":"64"}},{"type":"Feature","geometry":{"type":"Point","coordinates":[-0.29819,43.32521]},"properties":{"nom":"BERLANNE RUE DES BERGERS","ag":["Réseau scolaire Scolaris"],"lt":1,"dept":"64"}},{"type":"Feature","geometry":{"type":"Point","coordinates":[-0.42914,43.328]},"properties":{"nom":"BERNAT","ag":["Réseau scolaire Scolaris"],"lt":1,"dept":"64"}},{"type":"Feature","geometry":{"type":"Point","coordinates":[-0.34546,43.36733]},"properties":{"nom":"BERNATAS","ag":["Réseau scolaire Scolaris"],"lt":1,"dept":"64"}},{"type":"Feature","geometry":{"type":"Point","coordinates":[-0.3668,43.26655]},"properties":{"nom":"BETERETTE","ag":["Réseau scolaire Scolaris"],"lt":1,"dept":"64"}},{"type":"Feature","geometry":{"type":"Point","coordinates":[-0.47229,43.37283]},"properties":{"nom":"BEYRIE EN BEARN MAIRIE","ag":["Réseau scolaire Scolaris"],"lt":1,"dept":"64"}},{"type":"Feature","geometry":{"type":"Point","coordinates":[-0.46552,43.37539]},"properties":{"nom":"BEYRIE EN BEARN TAPIE","ag":["Réseau scolaire Scolaris"],"lt":1,"dept":"64"}},{"type":"Feature","geometry":{"type":"Point","coordinates":[-0.3737,43.33162]},"properties":{"nom":"BEZET","ag":["Réseau scolaire Scolaris"],"lt":1,"dept":"64"}},{"type":"Feature","geometry":{"type":"Point","coordinates":[-0.28239,43.28509]},"properties":{"nom":"BICHES","ag":["Réseau scolaire Scolaris"],"lt":1,"dept":"64"}},{"type":"Feature","geometry":{"type":"Point","coordinates":[-0.38834,43.23146]},"properties":{"nom":"BIDAU","ag":["Réseau scolaire Scolaris"],"lt":1,"dept":"64"}},{"type":"Feature","geometry":{"type":"Point","coordinates":[-0.42347,43.33215]},"properties":{"nom":"BIDOU","ag":["Réseau scolaire Scolaris"],"lt":1,"dept":"64"}},{"type":"Feature","geometry":{"type":"Point","coordinates":[-0.42216,43.32441]},"properties":{"nom":"BILAA","ag":["Réseau scolaire Scolaris"],"lt":1,"dept":"64"}},{"type":"Feature","geometry":{"type":"Point","coordinates":[-0.39728,43.30263]},"properties":{"nom":"BILLERE MAIRIE","ag":["Réseau scolaire Scolaris"],"lt":1,"dept":"64"}},{"type":"Feature","geometry":{"type":"Point","coordinates":[-0.40555,43.29713]},"properties":{"nom":"BILLERE PLAINE","ag":["Réseau scolaire Scolaris"],"lt":1,"dept":"64"}},{"type":"Feature","geometry":{"type":"Point","coordinates":[-0.3998,43.29943]},"properties":{"nom":"STADE HUGOT","ag":["Réseau scolaire Scolaris"],"lt":1,"dept":"64"}},{"type":"Feature","geometry":{"type":"Point","coordinates":[-0.32919,43.37233]},"properties":{"nom":"BIRABENS","ag":["Réseau scolaire Scolaris"],"lt":1,"dept":"64"}},{"type":"Feature","geometry":{"type":"Point","coordinates":[-0.33382,43.31741]},"properties":{"nom":"BLANQUI","ag":["Réseau scolaire Scolaris"],"lt":1,"dept":"64"}},{"type":"Feature","geometry":{"type":"Point","coordinates":[-0.39195,43.33195]},"properties":{"nom":"BLERIOT","ag":["Réseau scolaire Scolaris"],"lt":1,"dept":"64"}},{"type":"Feature","geometry":{"type":"Point","coordinates":[-0.35254,43.30917]},"properties":{"nom":"BLEUETS","ag":["Réseau scolaire Scolaris"],"lt":1,"dept":"64"}},{"type":"Feature","geometry":{"type":"Point","coordinates":[-0.35518,43.28971]},"properties":{"nom":"BIZANOS Mairie","ag":["Réseau scolaire Scolaris"],"lt":1,"dept":"64"}},{"type":"Feature","geometry":{"type":"Point","coordinates":[-0.34363,43.36968]},"properties":{"nom":"BOCAGE L'ARRIBERE","ag":["Réseau scolaire Scolaris"],"lt":1,"dept":"64"}},{"type":"Feature","geometry":{"type":"Point","coordinates":[-0.36836,43.32612]},"properties":{"nom":"BOILEAU","ag":["Réseau scolaire Scolaris"],"lt":1,"dept":"64"}},{"type":"Feature","geometry":{"type":"Point","coordinates":[-0.38637,43.3153]},"properties":{"nom":"BON ACCUEIL","ag":["Réseau scolaire Scolaris"],"lt":1,"dept":"64"}},{"type":"Feature","geometry":{"type":"Point","coordinates":[-0.36163,43.21102]},"properties":{"nom":"BOSDARROS BOURG","ag":["Réseau scolaire Scolaris"],"lt":1,"dept":"64"}},{"type":"Feature","geometry":{"type":"Point","coordinates":[-0.33577,43.21407]},"properties":{"nom":"BOSDARROS CAMINO","ag":["Réseau scolaire Scolaris"],"lt":1,"dept":"64"}},{"type":"Feature","geometry":{"type":"Point","coordinates":[-0.36284,43.22203]},"properties":{"nom":"BOSDARROS LES 4 CHEMINS","ag":["Réseau scolaire Scolaris"],"lt":1,"dept":"64"}},{"type":"Feature","geometry":{"type":"Point","coordinates":[-0.36074,43.21451]},"properties":{"nom":"BOSDARROS LOT DES PYRENEES","ag":["Réseau scolaire Scolaris"],"lt":1,"dept":"64"}},{"type":"Feature","geometry":{"type":"Point","coordinates":[-0.35205,43.22402]},"properties":{"nom":"BOSDARROS NARBOUT","ag":["Réseau scolaire Scolaris"],"lt":1,"dept":"64"}},{"type":"Feature","geometry":{"type":"Point","coordinates":[-0.36561,43.29774]},"properties":{"nom":"BOSQUET QUAI C","ag":["Réseau scolaire Scolaris"],"lt":1,"dept":"64"}},{"type":"Feature","geometry":{"type":"Point","coordinates":[-0.36532,43.29785]},"properties":{"nom":"BOSQUET QUAI D","ag":["Réseau scolaire Scolaris"],"lt":1,"dept":"64"}},{"type":"Feature","geometry":{"type":"Point","coordinates":[-0.36798,43.39256]},"properties":{"nom":"BOUDOUSSE","ag":["Réseau scolaire Scolaris"],"lt":1,"dept":"64"}},{"type":"Feature","geometry":{"type":"Point","coordinates":[-0.25692,43.2738]},"properties":{"nom":"BOUEY","ag":["Réseau scolaire Scolaris"],"lt":1,"dept":"64"}},{"type":"Feature","geometry":{"type":"Point","coordinates":[-0.47074,43.38414]},"properties":{"nom":"BOUGARBER AUGE","ag":["Réseau scolaire Scolaris"],"lt":1,"dept":"64"}},{"type":"Feature","geometry":{"type":"Point","coordinates":[-0.47208,43.39536]},"properties":{"nom":"BOUGARBER LA CROIX","ag":["Réseau scolaire Scolaris"],"lt":1,"dept":"64"}},{"type":"Feature","geometry":{"type":"Point","coordinates":[-0.4558,43.37983]},"properties":{"nom":"BOUGARBER LE RELAIS","ag":["Réseau scolaire Scolaris"],"lt":1,"dept":"64"}},{"type":"Feature","geometry":{"type":"Point","coordinates":[-0.47203,43.39196]},"properties":{"nom":"BOUGARBER LIRET","ag":["Réseau scolaire Scolaris"],"lt":1,"dept":"64"}},{"type":"Feature","geometry":{"type":"Point","coordinates":[-0.47348,43.39915]},"properties":{"nom":"BOUGARBER MAIRIE","ag":["Réseau scolaire Scolaris"],"lt":1,"dept":"64"}},{"type":"Feature","geometry":{"type":"Point","coordinates":[-0.38939,43.26752]},"properties":{"nom":"BOURDIEU","ag":["Réseau scolaire Scolaris"],"lt":1,"dept":"64"}},{"type":"Feature","geometry":{"type":"Point","coordinates":[-0.34188,43.4131]},"properties":{"nom":"BOURG","ag":["Réseau scolaire Scolaris"],"lt":1,"dept":"64"}},{"type":"Feature","geometry":{"type":"Point","coordinates":[-0.38754,43.22086]},"properties":{"nom":"BRASSENS","ag":["Réseau scolaire Scolaris"],"lt":1,"dept":"64"}},{"type":"Feature","geometry":{"type":"Point","coordinates":[-0.38946,43.22563]},"properties":{"nom":"BROCA","ag":["Réseau scolaire Scolaris"],"lt":1,"dept":"64"}},{"type":"Feature","geometry":{"type":"Point","coordinates":[-0.39823,43.228]},"properties":{"nom":"BROUGNAT","ag":["Réseau scolaire Scolaris"],"lt":1,"dept":"64"}},{"type":"Feature","geometry":{"type":"Point","coordinates":[-0.35787,43.29298]},"properties":{"nom":"Buisson","ag":["Réseau scolaire Scolaris","Réseau urbain Idelis"],"lt":1,"dept":"64"}},{"type":"Feature","geometry":{"type":"Point","coordinates":[-0.33451,43.30631]},"properties":{"nom":"PORTE DES PYRENEES","ag":["Réseau scolaire Scolaris"],"lt":1,"dept":"64"}},{"type":"Feature","geometry":{"type":"Point","coordinates":[-0.28641,43.32891]},"properties":{"nom":"CACHALAT","ag":["Réseau scolaire Scolaris"],"lt":1,"dept":"64"}},{"type":"Feature","geometry":{"type":"Point","coordinates":[-0.37137,43.33086]},"properties":{"nom":"CADETS","ag":["Réseau scolaire Scolaris"],"lt":1,"dept":"64"}},{"type":"Feature","geometry":{"type":"Point","coordinates":[-0.43134,43.39658]},"properties":{"nom":"CALONGE","ag":["Réseau scolaire Scolaris"],"lt":1,"dept":"64"}},{"type":"Feature","geometry":{"type":"Point","coordinates":[-0.31549,43.29263]},"properties":{"nom":"CAM MARTY","ag":["Réseau scolaire Scolaris"],"lt":1,"dept":"64"}},{"type":"Feature","geometry":{"type":"Point","coordinates":[-0.30728,43.28758]},"properties":{"nom":"CAMARDOUN","ag":["Réseau scolaire Scolaris"],"lt":1,"dept":"64"}},{"type":"Feature","geometry":{"type":"Point","coordinates":[-0.33632,43.2949]},"properties":{"nom":"CAMBETS","ag":["Réseau scolaire Scolaris"],"lt":1,"dept":"64"}},{"type":"Feature","geometry":{"type":"Point","coordinates":[-0.26971,43.2808]},"properties":{"nom":"CAMI DE HER","ag":["Réseau scolaire Scolaris"],"lt":1,"dept":"64"}},{"type":"Feature","geometry":{"type":"Point","coordinates":[-0.26064,43.29493]},"properties":{"nom":"CAMI DOU BOS","ag":["Réseau scolaire Scolaris"],"lt":1,"dept":"64"}},{"type":"Feature","geometry":{"type":"Point","coordinates":[-0.27699,43.31274]},"properties":{"nom":"CAMI SALIE (SENDETS)","ag":["Réseau scolaire Scolaris"],"lt":1,"dept":"64"}},{"type":"Feature","geometry":{"type":"Point","coordinates":[-0.40786,43.30956]},"properties":{"nom":"CAMPAGNOLE","ag":["Réseau scolaire Scolaris"],"lt":1,"dept":"64"}},{"type":"Feature","geometry":{"type":"Point","coordinates":[-0.45128,43.32036]},"properties":{"nom":"CAMPING DE LESCAR","ag":["Réseau scolaire Scolaris"],"lt":1,"dept":"64"}},{"type":"Feature","geometry":{"type":"Point","coordinates":[-0.26194,43.28168]},"properties":{"nom":"CANAL","ag":["Réseau scolaire Scolaris"],"lt":1,"dept":"64"}},{"type":"Feature","geometry":{"type":"Point","coordinates":[-0.36854,43.30373]},"properties":{"nom":"CARNOT","ag":["Réseau scolaire Scolaris"],"lt":1,"dept":"64"}},{"type":"Feature","geometry":{"type":"Point","coordinates":[-0.39027,43.39401]},"properties":{"nom":"CASCADE","ag":["Réseau scolaire Scolaris"],"lt":1,"dept":"64"}},{"type":"Feature","geometry":{"type":"Point","coordinates":[-0.35394,43.32423]},"properties":{"nom":"CASSOU BLD HAUTERIVE","ag":["Réseau scolaire Scolaris"],"lt":1,"dept":"64"}},{"type":"Feature","geometry":{"type":"Point","coordinates":[-0.36165,43.31594]},"properties":{"nom":"Catherine de Bourbon quai D","ag":["Réseau scolaire Scolaris"],"lt":1,"dept":"64"}},{"type":"Feature","geometry":{"type":"Point","coordinates":[-0.3606,43.3214]},"properties":{"nom":"Catherine de Bourbon quai E","ag":["Réseau scolaire Scolaris"],"lt":1,"dept":"64"}},{"type":"Feature","geometry":{"type":"Point","coordinates":[-0.43821,43.24303]},"properties":{"nom":"Caubet","ag":["Réseau scolaire Scolaris"],"lt":1,"dept":"64"}},{"type":"Feature","geometry":{"type":"Point","coordinates":[-0.38972,43.23772]},"properties":{"nom":"CAVE","ag":["Réseau scolaire Scolaris"],"lt":1,"dept":"64"}},{"type":"Feature","geometry":{"type":"Point","coordinates":[-0.31694,43.2696]},"properties":{"nom":"Clos du Béarn","ag":["Réseau scolaire Scolaris"],"lt":1,"dept":"64"}},{"type":"Feature","geometry":{"type":"Point","coordinates":[-0.41052,43.24643]},"properties":{"nom":"CHEMIN DE CARRAT","ag":["Réseau scolaire Scolaris"],"lt":1,"dept":"64"}},{"type":"Feature","geometry":{"type":"Point","coordinates":[-0.39852,43.2458]},"properties":{"nom":"CHEMIN DU MONT DORE","ag":["Réseau scolaire Scolaris"],"lt":1,"dept":"64"}},{"type":"Feature","geometry":{"type":"Point","coordinates":[-0.40233,43.23679]},"properties":{"nom":"CHEMIN DE SERROT","ag":["Réseau scolaire Scolaris"],"lt":1,"dept":"64"}},{"type":"Feature","geometry":{"type":"Point","coordinates":[-0.37405,43.32946]},"properties":{"nom":"CENTRE AFPA","ag":["Réseau scolaire Scolaris"],"lt":1,"dept":"64"}},{"type":"Feature","geometry":{"type":"Point","coordinates":[-0.37972,43.32818]},"properties":{"nom":"LE MAIL","ag":["Réseau scolaire Scolaris"],"lt":1,"dept":"64"}},{"type":"Feature","geometry":{"type":"Point","coordinates":[-0.37943,43.25818]},"properties":{"nom":"CENTRE MONREPOS","ag":["Réseau scolaire Scolaris"],"lt":1,"dept":"64"}},{"type":"Feature","geometry":{"type":"Point","coordinates":[-0.40948,43.31165]},"properties":{"nom":"CENTRE SOCIO CULTUREL","ag":["Réseau scolaire Scolaris"],"lt":1,"dept":"64"}},{"type":"Feature","geometry":{"type":"Point","coordinates":[-0.38126,43.24284]},"properties":{"nom":"CHEMIN D'ALIOU","ag":["Réseau scolaire Scolaris"],"lt":1,"dept":"64"}},{"type":"Feature","geometry":{"type":"Point","coordinates":[-0.38685,43.40361]},"properties":{"nom":"CHAMP DE FOIRE","ag":["Réseau scolaire Scolaris"],"lt":1,"dept":"64"}},{"type":"Feature","geometry":{"type":"Point","coordinates":[-0.4029,43.29773]},"properties":{"nom":"CHAMPS","ag":["Réseau scolaire Scolaris","Réseau urbain Idelis"],"lt":1,"dept":"64"}},{"type":"Feature","geometry":{"type":"Point","coordinates":[-0.37407,43.38372]},"properties":{"nom":"CHARLES GOUNOD","ag":["Réseau scolaire Scolaris"],"lt":1,"dept":"64"}},{"type":"Feature","geometry":{"type":"Point","coordinates":[-0.31335,43.29043]},"properties":{"nom":"CHATEAU D'IDRON","ag":["Réseau scolaire Scolaris"],"lt":1,"dept":"64"}},{"type":"Feature","geometry":{"type":"Point","coordinates":[-0.36808,43.25532]},"properties":{"nom":"Chemin de Carraze","ag":["Réseau scolaire Scolaris"],"lt":1,"dept":"64"}},{"type":"Feature","geometry":{"type":"Point","coordinates":[-0.38124,43.24377]},"properties":{"nom":"CHEMIN CHATIEU","ag":["Réseau scolaire Scolaris"],"lt":1,"dept":"64"}},{"type":"Feature","geometry":{"type":"Point","coordinates":[-0.26535,43.35234]},"properties":{"nom":"CHEMIN DE BASACLE","ag":["Réseau scolaire Scolaris"],"lt":1,"dept":"64"}},{"type":"Feature","geometry":{"type":"Point","coordinates":[-0.29724,43.291]},"properties":{"nom":"CHEMIN DU BEDAT","ag":["Réseau scolaire Scolaris"],"lt":1,"dept":"64"}},{"type":"Feature","geometry":{"type":"Point","coordinates":[-0.39899,43.24978]},"properties":{"nom":"CHEMIN HAUT DE LABORDE","ag":["Réseau scolaire Scolaris"],"lt":1,"dept":"64"}},{"type":"Feature","geometry":{"type":"Point","coordinates":[-0.39843,43.26772]},"properties":{"nom":"Chemin du Bourdieu","ag":["Réseau scolaire Scolaris"],"lt":1,"dept":"64"}},{"type":"Feature","geometry":{"type":"Point","coordinates":[-0.38066,43.25216]},"properties":{"nom":"CHEMIN BETEROUS","ag":["Réseau scolaire Scolaris"],"lt":1,"dept":"64"}},{"type":"Feature","geometry":{"type":"Point","coordinates":[-0.26852,43.33192]},"properties":{"nom":"CHEMIN BOURDE","ag":["Réseau scolaire Scolaris"],"lt":1,"dept":"64"}},{"type":"Feature","geometry":{"type":"Point","coordinates":[-0.36146,43.38947]},"properties":{"nom":"CHEMIN CASTET","ag":["Réseau scolaire Scolaris"],"lt":1,"dept":"64"}},{"type":"Feature","geometry":{"type":"Point","coordinates":[-0.49578,43.36227]},"properties":{"nom":"CHEMIN D AUSSEVIELLE","ag":["Réseau scolaire Scolaris"],"lt":1,"dept":"64"}},{"type":"Feature","geometry":{"type":"Point","coordinates":[-0.27374,43.33003]},"properties":{"nom":"CHEMIN DE BROC","ag":["Réseau scolaire Scolaris"],"lt":1,"dept":"64"}},{"type":"Feature","geometry":{"type":"Point","coordinates":[-0.4205,43.26801]},"properties":{"nom":"CHEMIN DE LARREDYA","ag":["Réseau scolaire Scolaris"],"lt":1,"dept":"64"}},{"type":"Feature","geometry":{"type":"Point","coordinates":[-0.34898,43.40003]},"properties":{"nom":"CHEMIN DE LASDITES","ag":["Réseau scolaire Scolaris"],"lt":1,"dept":"64"}},{"type":"Feature","geometry":{"type":"Point","coordinates":[-0.39332,43.38676]},"properties":{"nom":"CHEMIN DE MORLANNE","ag":["Réseau scolaire Scolaris"],"lt":1,"dept":"64"}},{"type":"Feature","geometry":{"type":"Point","coordinates":[-0.35073,43.36642]},"properties":{"nom":"CHEMIN DE ROMAS","ag":["Réseau scolaire Scolaris"],"lt":1,"dept":"64"}},{"type":"Feature","geometry":{"type":"Point","coordinates":[-0.33853,43.39714]},"properties":{"nom":"CHEMIN DES CRETES","ag":["Réseau scolaire Scolaris"],"lt":1,"dept":"64"}},{"type":"Feature","geometry":{"type":"Point","coordinates":[-0.39415,43.40267]},"properties":{"nom":"CHEMIN DU COURNAU","ag":["Réseau scolaire Scolaris"],"lt":1,"dept":"64"}},{"type":"Feature","geometry":{"type":"Point","coordinates":[-0.36347,43.38267]},"properties":{"nom":"CHEMIN DU MOULY","ag":["Réseau scolaire Scolaris"],"lt":1,"dept":"64"}},{"type":"Feature","geometry":{"type":"Point","coordinates":[-0.3362,43.40501]},"properties":{"nom":"CHEMIN DU PAPE","ag":["Réseau scolaire Scolaris"],"lt":1,"dept":"64"}},{"type":"Feature","geometry":{"type":"Point","coordinates":[-0.47292,43.29663]},"properties":{"nom":"CHEMIN DE LA JUSCLE","ag":["Réseau scolaire Scolaris"],"lt":1,"dept":"64"}},{"type":"Feature","geometry":{"type":"Point","coordinates":[-0.40128,43.21856]},"properties":{"nom":"CHEMIN LANNEGRAND","ag":["Réseau scolaire Scolaris"],"lt":1,"dept":"64"}},{"type":"Feature","geometry":{"type":"Point","coordinates":[-0.35573,43.37266]},"properties":{"nom":"CHEMIN LHEPT","ag":["Réseau scolaire Scolaris"],"lt":1,"dept":"64"}},{"type":"Feature","geometry":{"type":"Point","coordinates":[-0.25298,43.32836]},"properties":{"nom":"CHEMIN MARQUE","ag":["Réseau scolaire Scolaris"],"lt":1,"dept":"64"}},{"type":"Feature","geometry":{"type":"Point","coordinates":[-0.34252,43.38604]},"properties":{"nom":"CHEMIN MULE","ag":["Réseau scolaire Scolaris"],"lt":1,"dept":"64"}},{"type":"Feature","geometry":{"type":"Point","coordinates":[-0.41799,43.25394]},"properties":{"nom":"CHEMIN PEYROUSE","ag":["Réseau scolaire Scolaris"],"lt":1,"dept":"64"}},{"type":"Feature","geometry":{"type":"Point","coordinates":[-0.40029,43.25177]},"properties":{"nom":"CHEMIN VIGNATS","ag":["Réseau scolaire Scolaris"],"lt":1,"dept":"64"}},{"type":"Feature","geometry":{"type":"Point","coordinates":[-0.39873,43.31838]},"properties":{"nom":"CHENERAIE","ag":["Réseau scolaire Scolaris"],"lt":1,"dept":"64"}},{"type":"Feature","geometry":{"type":"Point","coordinates":[-0.36854,43.38459]},"properties":{"nom":"CHEVREUIL","ag":["Réseau scolaire Scolaris"],"lt":1,"dept":"64"}},{"type":"Feature","geometry":{"type":"Point","coordinates":[-0.4366,43.26497]},"properties":{"nom":"CHEMIN DE LAS HIES","ag":["Réseau scolaire Scolaris"],"lt":1,"dept":"64"}},{"type":"Feature","geometry":{"type":"Point","coordinates":[-0.36761,43.31883]},"properties":{"nom":"CITE UNIVERSITAIRE","ag":["Réseau scolaire Scolaris"],"lt":1,"dept":"64"}},{"type":"Feature","geometry":{"type":"Point","coordinates":[-0.39789,43.32869]},"properties":{"nom":"CLOHARE","ag":["Réseau scolaire Scolaris"],"lt":1,"dept":"64"}},{"type":"Feature","geometry":{"type":"Point","coordinates":[-0.32263,43.29009]},"properties":{"nom":"CLOS BEAUMONT","ag":["Réseau scolaire Scolaris"],"lt":1,"dept":"64"}},{"type":"Feature","geometry":{"type":"Point","coordinates":[-0.27057,43.32585]},"properties":{"nom":"CLOS DE SERRES","ag":["Réseau scolaire Scolaris"],"lt":1,"dept":"64"}},{"type":"Feature","geometry":{"type":"Point","coordinates":[-0.42822,43.33457]},"properties":{"nom":"CLOS FLEURI","ag":["Réseau scolaire Scolaris"],"lt":1,"dept":"64"}},{"type":"Feature","geometry":{"type":"Point","coordinates":[-0.39367,43.30747]},"properties":{"nom":"COLLEGE BOIS D'AMOUR","ag":["Réseau scolaire Scolaris"],"lt":1,"dept":"64"}},{"type":"Feature","geometry":{"type":"Point","coordinates":[-0.37112,43.31112]},"properties":{"nom":"COLLEGE CLERMONT","ag":["Réseau scolaire Scolaris"],"lt":1,"dept":"64"}},{"type":"Feature","geometry":{"type":"Point","coordinates":[-0.34629,43.29265]},"properties":{"nom":"COLLEGE DES LAVANDIERES","ag":["Réseau scolaire Scolaris"],"lt":1,"dept":"64"}},{"type":"Feature","geometry":{"type":"Point","coordinates":[-0.34301,43.30133]},"properties":{"nom":"COLLEGE JEANNE D'ALBRET","ag":["Réseau scolaire Scolaris"],"lt":1,"dept":"64"}},{"type":"Feature","geometry":{"type":"Point","coordinates":[-0.37473,43.37564]},"properties":{"nom":"COLLEGE RENE FORGUES","ag":["Réseau scolaire Scolaris"],"lt":1,"dept":"64"}},{"type":"Feature","geometry":{"type":"Point","coordinates":[-0.43839,43.33644]},"properties":{"nom":"COLLEGE SIMIN PALAY","ag":["Réseau scolaire Scolaris"],"lt":1,"dept":"64"}},{"type":"Feature","geometry":{"type":"Point","coordinates":[-0.38829,43.28913]},"properties":{"nom":"COLLEGE ST JOSEPH (ARRET LOLIBE)","ag":["Réseau scolaire Scolaris"],"lt":1,"dept":"64"}},{"type":"Feature","geometry":{"type":"Point","coordinates":[-0.33278,43.32401]},"properties":{"nom":"COPERNIC","ag":["Réseau scolaire Scolaris"],"lt":1,"dept":"64"}},{"type":"Feature","geometry":{"type":"Point","coordinates":[-0.36083,43.32358]},"properties":{"nom":"COUETTES","ag":["Réseau scolaire Scolaris"],"lt":1,"dept":"64"}},{"type":"Feature","geometry":{"type":"Point","coordinates":[-0.36166,43.31589]},"properties":{"nom":"Condorcet Université quai D","ag":["Réseau scolaire Scolaris"],"lt":1,"dept":"64"}},{"type":"Feature","geometry":{"type":"Point","coordinates":[-0.40795,43.29883]},"properties":{"nom":"COURREAUX","ag":["Réseau scolaire Scolaris"],"lt":1,"dept":"64"}},{"type":"Feature","geometry":{"type":"Point","coordinates":[-0.40488,43.3308]},"properties":{"nom":"COUSTETTES","ag":["Réseau scolaire Scolaris"],"lt":1,"dept":"64"}},{"type":"Feature","geometry":{"type":"Point","coordinates":[-0.38865,43.3993]},"properties":{"nom":"CROIX BERNES","ag":["Réseau scolaire Scolaris"],"lt":1,"dept":"64"}},{"type":"Feature","geometry":{"type":"Point","coordinates":[-0.38028,43.28788]},"properties":{"nom":"CROIX DU PRINCE","ag":["Réseau scolaire Scolaris"],"lt":1,"dept":"64"}},{"type":"Feature","geometry":{"type":"Point","coordinates":[-0.34714,43.38164]},"properties":{"nom":"Cygnes","ag":["Réseau scolaire Scolaris"],"lt":1,"dept":"64"}},{"type":"Feature","geometry":{"type":"Point","coordinates":[-0.41326,43.30218]},"properties":{"nom":"M. DASSAULT","ag":["Réseau scolaire Scolaris"],"lt":1,"dept":"64"}},{"type":"Feature","geometry":{"type":"Point","coordinates":[-0.35061,43.27596]},"properties":{"nom":"De Gaulle","ag":["Réseau scolaire Scolaris"],"lt":1,"dept":"64"}},{"type":"Feature","geometry":{"type":"Point","coordinates":[-0.49635,43.34917]},"properties":{"nom":"DENGUIN L ARRIBERE","ag":["Réseau scolaire Scolaris"],"lt":1,"dept":"64"}},{"type":"Feature","geometry":{"type":"Point","coordinates":[-0.49131,43.34662]},"properties":{"nom":"DENGUIN L ASPROBE","ag":["Réseau scolaire Scolaris"],"lt":1,"dept":"64"}},{"type":"Feature","geometry":{"type":"Point","coordinates":[-0.50023,43.35964]},"properties":{"nom":"DENGUIN LOTISSEMENT L AULOUZE","ag":["Réseau scolaire Scolaris"],"lt":1,"dept":"64"}},{"type":"Feature","geometry":{"type":"Point","coordinates":[-0.38804,43.22263]},"properties":{"nom":"DISSEZ","ag":["Réseau scolaire Scolaris"],"lt":1,"dept":"64"}},{"type":"Feature","geometry":{"type":"Point","coordinates":[-0.37418,43.32487]},"properties":{"nom":"DRUIDES","ag":["Réseau scolaire Scolaris"],"lt":1,"dept":"64"}},{"type":"Feature","geometry":{"type":"Point","coordinates":[-0.26327,43.32783]},"properties":{"nom":"DUGAT","ag":["Réseau scolaire Scolaris"],"lt":1,"dept":"64"}},{"type":"Feature","geometry":{"type":"Point","coordinates":[-0.34546,43.32083]},"properties":{"nom":"EAUZE","ag":["Réseau scolaire Scolaris"],"lt":1,"dept":"64"}},{"type":"Feature","geometry":{"type":"Point","coordinates":[-0.38567,43.39829]},"properties":{"nom":"ECOLE PRIMAIRE","ag":["Réseau scolaire Scolaris"],"lt":1,"dept":"64"}},{"type":"Feature","geometry":{"type":"Point","coordinates":[-0.35905,43.30129]},"properties":{"nom":"EDOUARD 7 - LYCEE ST CRICQ","ag":["Réseau scolaire Scolaris"],"lt":1,"dept":"64"}},{"type":"Feature","geometry":{"type":"Point","coordinates":[-0.3366,43.31756]},"properties":{"nom":"EGLANTINES","ag":["Réseau scolaire Scolaris"],"lt":1,"dept":"64"}},{"type":"Feature","geometry":{"type":"Point","coordinates":[-0.32894,43.25971]},"properties":{"nom":"RONTIGNON EGLISE","ag":["Réseau scolaire Scolaris"],"lt":1,"dept":"64"}},{"type":"Feature","geometry":{"type":"Point","coordinates":[-0.4084,43.30073]},"properties":{"nom":"ENTREPRENEUR","ag":["Réseau scolaire Scolaris"],"lt":1,"dept":"64"}},{"type":"Feature","geometry":{"type":"Point","coordinates":[-0.39477,43.328]},"properties":{"nom":"ERCKMAN CHATRIAN","ag":["Réseau scolaire Scolaris"],"lt":1,"dept":"64"}},{"type":"Feature","geometry":{"type":"Point","coordinates":[-0.40447,43.32116]},"properties":{"nom":"ESTIENI","ag":["Réseau scolaire Scolaris"],"lt":1,"dept":"64"}},{"type":"Feature","geometry":{"type":"Point","coordinates":[-0.36177,43.2998]},"properties":{"nom":"FAISANS - LYCEE ST CRICQ","ag":["Réseau scolaire Scolaris"],"lt":1,"dept":"64"}},{"type":"Feature","geometry":{"type":"Point","coordinates":[-0.39161,43.33726]},"properties":{"nom":"FARMAN","ag":["Réseau scolaire Scolaris"],"lt":1,"dept":"64"}},{"type":"Feature","geometry":{"type":"Point","coordinates":[-0.40055,43.23844]},"properties":{"nom":"FAUX DE LABORDE","ag":["Réseau scolaire Scolaris"],"lt":1,"dept":"64"}},{"type":"Feature","geometry":{"type":"Point","coordinates":[-0.37971,43.33063]},"properties":{"nom":"FEUILLAGE","ag":["Réseau scolaire Scolaris"],"lt":1,"dept":"64"}},{"type":"Feature","geometry":{"type":"Point","coordinates":[-0.33001,43.31329]},"properties":{"nom":"FLORA TRISTAN","ag":["Réseau scolaire Scolaris"],"lt":1,"dept":"64"}},{"type":"Feature","geometry":{"type":"Point","coordinates":[-0.24155,43.27731]},"properties":{"nom":"FONTAINE","ag":["Réseau scolaire Scolaris"],"lt":1,"dept":"64"}},{"type":"Feature","geometry":{"type":"Point","coordinates":[-0.37781,43.31428]},"properties":{"nom":"FOUCHET (institut St Dominique)","ag":["Réseau scolaire Scolaris"],"lt":1,"dept":"64"}},{"type":"Feature","geometry":{"type":"Point","coordinates":[-0.33006,43.29894]},"properties":{"nom":"FOUGERES","ag":["Réseau scolaire Scolaris"],"lt":1,"dept":"64"}},{"type":"Feature","geometry":{"type":"Point","coordinates":[-0.4128,43.33152]},"properties":{"nom":"FRENES","ag":["Réseau scolaire Scolaris"],"lt":1,"dept":"64"}},{"type":"Feature","geometry":{"type":"Point","coordinates":[-0.38957,43.25423]},"properties":{"nom":"FROMAGERIE","ag":["Réseau scolaire Scolaris"],"lt":1,"dept":"64"}},{"type":"Feature","geometry":{"type":"Point","coordinates":[-0.43526,43.22583]},"properties":{"nom":"GAN BAOUCH","ag":["Réseau scolaire Scolaris"],"lt":1,"dept":"64"}},{"type":"Feature","geometry":{"type":"Point","coordinates":[-0.36614,43.41786]},"properties":{"nom":"GARAGE PROVENCE","ag":["Réseau scolaire Scolaris"],"lt":1,"dept":"64"}},{"type":"Feature","geometry":{"type":"Point","coordinates":[-0.36642,43.32511]},"properties":{"nom":"GAVARNIE","ag":["Réseau scolaire Scolaris"],"lt":1,"dept":"64"}},{"type":"Feature","geometry":{"type":"Point","coordinates":[-0.37445,43.28491]},"properties":{"nom":"GELOS LP PROFESSIONNEL","ag":["Réseau scolaire Scolaris"],"lt":1,"dept":"64"}},{"type":"Feature","geometry":{"type":"Point","coordinates":[-0.39038,43.31541]},"properties":{"nom":"GENETS","ag":["Réseau scolaire Scolaris"],"lt":1,"dept":"64"}},{"type":"Feature","geometry":{"type":"Point","coordinates":[-0.37746,43.39219]},"properties":{"nom":"Grives","ag":["Réseau scolaire Scolaris"],"lt":1,"dept":"64"}},{"type":"Feature","geometry":{"type":"Point","coordinates":[-0.33938,43.31705]},"properties":{"nom":"GUILHEM","ag":["Réseau scolaire Scolaris"],"lt":1,"dept":"64"}},{"type":"Feature","geometry":{"type":"Point","coordinates":[-0.33641,43.37655]},"properties":{"nom":"GUILHOU","ag":["Réseau scolaire Scolaris"],"lt":1,"dept":"64"}},{"type":"Feature","geometry":{"type":"Point","coordinates":[-0.3589,43.38035]},"properties":{"nom":"Haouros","ag":["Réseau scolaire Scolaris"],"lt":1,"dept":"64"}},{"type":"Feature","geometry":{"type":"Point","coordinates":[-0.41301,43.28482]},"properties":{"nom":"HAUT DE BEAUVALLON","ag":["Réseau scolaire Scolaris"],"lt":1,"dept":"64"}},{"type":"Feature","geometry":{"type":"Point","coordinates":[-0.42932,43.17829]},"properties":{"nom":"HAUT de GAN (Auberge Bearnaise)","ag":["Réseau scolaire Scolaris"],"lt":1,"dept":"64"}},{"type":"Feature","geometry":{"type":"Point","coordinates":[-0.26748,43.34345]},"properties":{"nom":"HENRI IV","ag":["Réseau scolaire Scolaris"],"lt":1,"dept":"64"}},{"type":"Feature","geometry":{"type":"Point","coordinates":[-0.3397,43.32035]},"properties":{"nom":"HIBISCUS","ag":["Réseau scolaire Scolaris"],"lt":1,"dept":"64"}},{"type":"Feature","geometry":{"type":"Point","coordinates":[-0.37964,43.33291]},"properties":{"nom":"DAURAT","ag":["Réseau scolaire Scolaris"],"lt":1,"dept":"64"}},{"type":"Feature","geometry":{"type":"Point","coordinates":[-0.32629,43.2905]},"properties":{"nom":"HONDAIS","ag":["Réseau scolaire Scolaris"],"lt":1,"dept":"64"}},{"type":"Feature","geometry":{"type":"Point","coordinates":[-0.30709,43.2937]},"properties":{"nom":"IDRON MAIRIE","ag":["Réseau scolaire Scolaris"],"lt":1,"dept":"64"}},{"type":"Feature","geometry":{"type":"Point","coordinates":[-0.30596,43.30093]},"properties":{"nom":"STADE D IDRON","ag":["Réseau scolaire Scolaris"],"lt":1,"dept":"64"}},{"type":"Feature","geometry":{"type":"Point","coordinates":[-0.35082,43.4187]},"properties":{"nom":"IMPASSE DE LA NATIONALE","ag":["Réseau scolaire Scolaris"],"lt":1,"dept":"64"}},{"type":"Feature","geometry":{"type":"Point","coordinates":[-0.2736,43.31141]},"properties":{"nom":"IMPASSE DES FOUGERES","ag":["Réseau scolaire Scolaris"],"lt":1,"dept":"64"}},{"type":"Feature","geometry":{"type":"Point","coordinates":[-0.36115,43.42872]},"properties":{"nom":"IMPASSE DU BOIS","ag":["Réseau scolaire Scolaris"],"lt":1,"dept":"64"}},{"type":"Feature","geometry":{"type":"Point","coordinates":[-0.38583,43.21887]},"properties":{"nom":"BREL","ag":["Réseau scolaire Scolaris"],"lt":1,"dept":"64"}},{"type":"Feature","geometry":{"type":"Point","coordinates":[-0.43697,43.33364]},"properties":{"nom":"BIE GRANDE","ag":["Réseau scolaire Scolaris"],"lt":1,"dept":"64"}},{"type":"Feature","geometry":{"type":"Point","coordinates":[-0.36693,43.33205]},"properties":{"nom":"JAI ALAI","ag":["Réseau scolaire Scolaris"],"lt":1,"dept":"64"}},{"type":"Feature","geometry":{"type":"Point","coordinates":[-0.27449,43.33594]},"properties":{"nom":"JOUANHEROU","ag":["Réseau scolaire Scolaris"],"lt":1,"dept":"64"}},{"type":"Feature","geometry":{"type":"Point","coordinates":[-0.42184,43.26018]},"properties":{"nom":"JURANCON CHAPELLE DE ROUSSE","ag":["Réseau scolaire Scolaris"],"lt":1,"dept":"64"}},{"type":"Feature","geometry":{"type":"Point","coordinates":[-0.38494,43.28433]},"properties":{"nom":"JURANCON COLLEGE GABARD","ag":["Réseau scolaire Scolaris"],"lt":1,"dept":"64"}},{"type":"Feature","geometry":{"type":"Point","coordinates":[-0.39044,43.28735]},"properties":{"nom":"JURANCON MAIRIE","ag":["Réseau scolaire Scolaris"],"lt":1,"dept":"64"}},{"type":"Feature","geometry":{"type":"Point","coordinates":[-0.39212,43.40099]},"properties":{"nom":"L ENSOULEYADO","ag":["Réseau scolaire Scolaris"],"lt":1,"dept":"64"}},{"type":"Feature","geometry":{"type":"Point","coordinates":[-0.34479,43.372]},"properties":{"nom":"L ESCLOUPE","ag":["Réseau scolaire Scolaris"],"lt":1,"dept":"64"}},{"type":"Feature","geometry":{"type":"Point","coordinates":[-0.42029,43.32298]},"properties":{"nom":"LA CAVETTE","ag":["Réseau scolaire Scolaris"],"lt":1,"dept":"64"}},{"type":"Feature","geometry":{"type":"Point","coordinates":[-0.2582,43.32517]},"properties":{"nom":"LA HOUN","ag":["Réseau scolaire Scolaris"],"lt":1,"dept":"64"}},{"type":"Feature","geometry":{"type":"Point","coordinates":[-0.43474,43.33601]},"properties":{"nom":"LA HOURQUIE","ag":["Réseau scolaire Scolaris"],"lt":1,"dept":"64"}},{"type":"Feature","geometry":{"type":"Point","coordinates":[-0.27188,43.29233]},"properties":{"nom":"LA QUINDA","ag":["Réseau scolaire Scolaris"],"lt":1,"dept":"64"}},{"type":"Feature","geometry":{"type":"Point","coordinates":[-0.38965,43.3268]},"properties":{"nom":"LABOURIE","ag":["Réseau scolaire Scolaris"],"lt":1,"dept":"64"}},{"type":"Feature","geometry":{"type":"Point","coordinates":[-0.34242,43.39798]},"properties":{"nom":"LACARIOU","ag":["Réseau scolaire Scolaris"],"lt":1,"dept":"64"}},{"type":"Feature","geometry":{"type":"Point","coordinates":[-0.36411,43.29235]},"properties":{"nom":"Lacoste","ag":["Réseau scolaire Scolaris","Réseau urbain Idelis"],"lt":1,"dept":"64"}},{"type":"Feature","geometry":{"type":"Point","coordinates":[-0.27332,43.28449]},"properties":{"nom":"LAFOI","ag":["Réseau scolaire Scolaris"],"lt":1,"dept":"64"}},{"type":"Feature","geometry":{"type":"Point","coordinates":[-0.26005,43.30224]},"properties":{"nom":"LANNE","ag":["Réseau scolaire Scolaris"],"lt":1,"dept":"64"}},{"type":"Feature","geometry":{"type":"Point","coordinates":[-0.36352,43.32434]},"properties":{"nom":"LAPERRINE","ag":["Réseau scolaire Scolaris"],"lt":1,"dept":"64"}},{"type":"Feature","geometry":{"type":"Point","coordinates":[-0.27166,43.29522]},"properties":{"nom":"LAPEYRADE","ag":["Réseau scolaire Scolaris"],"lt":1,"dept":"64"}},{"type":"Feature","geometry":{"type":"Point","coordinates":[-0.34455,43.31054]},"properties":{"nom":"LAPUYADE","ag":["Réseau scolaire Scolaris"],"lt":1,"dept":"64"}},{"type":"Feature","geometry":{"type":"Point","coordinates":[-0.44377,43.30558]},"properties":{"nom":"LAROIN CHEMIN DU STADE","ag":["Réseau scolaire Scolaris"],"lt":1,"dept":"64"}},{"type":"Feature","geometry":{"type":"Point","coordinates":[-0.44753,43.30823]},"properties":{"nom":"LAROIN LABAT CAMY","ag":["Réseau scolaire Scolaris"],"lt":1,"dept":"64"}},{"type":"Feature","geometry":{"type":"Point","coordinates":[-0.4358,43.29397]},"properties":{"nom":"LAROIN MAUHOURAT","ag":["Réseau scolaire Scolaris"],"lt":1,"dept":"64"}},{"type":"Feature","geometry":{"type":"Point","coordinates":[-0.3336,43.3803]},"properties":{"nom":"LARRECQ","ag":["Réseau scolaire Scolaris"],"lt":1,"dept":"64"}},{"type":"Feature","geometry":{"type":"Point","coordinates":[-0.41318,43.31376]},"properties":{"nom":"LARROUY","ag":["Réseau scolaire Scolaris"],"lt":1,"dept":"64"}},{"type":"Feature","geometry":{"type":"Point","coordinates":[-0.37966,43.32554]},"properties":{"nom":"LARTIGUE","ag":["Réseau scolaire Scolaris"],"lt":1,"dept":"64"}},{"type":"Feature","geometry":{"type":"Point","coordinates":[-0.4684,43.26271]},"properties":{"nom":"Las Gabarres","ag":["Réseau scolaire Scolaris"],"lt":1,"dept":"64"}},{"type":"Feature","geometry":{"type":"Point","coordinates":[-0.41042,43.30673]},"properties":{"nom":"LASGOURGUES","ag":["Réseau scolaire Scolaris"],"lt":1,"dept":"64"}},{"type":"Feature","geometry":{"type":"Point","coordinates":[-0.39497,43.30261]},"properties":{"nom":"LASSANSAA","ag":["Réseau scolaire Scolaris"],"lt":1,"dept":"64"}},{"type":"Feature","geometry":{"type":"Point","coordinates":[-0.33717,43.38307]},"properties":{"nom":"LAUGA","ag":["Réseau scolaire Scolaris"],"lt":1,"dept":"64"}},{"type":"Feature","geometry":{"type":"Point","coordinates":[-0.4131,43.3083]},"properties":{"nom":"LAVOISIER","ag":["Réseau scolaire Scolaris"],"lt":1,"dept":"64"}},{"type":"Feature","geometry":{"type":"Point","coordinates":[-0.29923,43.30007]},"properties":{"nom":"LE CAMP","ag":["Réseau scolaire Scolaris"],"lt":1,"dept":"64"}},{"type":"Feature","geometry":{"type":"Point","coordinates":[-0.38717,43.19855]},"properties":{"nom":"LE TUCQ","ag":["Réseau scolaire Scolaris"],"lt":1,"dept":"64"}},{"type":"Feature","geometry":{"type":"Point","coordinates":[-0.28848,43.29427]},"properties":{"nom":"LEE D817","ag":["Réseau scolaire Scolaris"],"lt":1,"dept":"64"}},{"type":"Feature","geometry":{"type":"Point","coordinates":[-0.29206,43.28747]},"properties":{"nom":"LEE ECOLE","ag":["Réseau scolaire Scolaris"],"lt":1,"dept":"64"}},{"type":"Feature","geometry":{"type":"Point","coordinates":[-0.29135,43.28897]},"properties":{"nom":"LEE PONT","ag":["Réseau scolaire Scolaris"],"lt":1,"dept":"64"}},{"type":"Feature","geometry":{"type":"Point","coordinates":[-0.39966,43.40061]},"properties":{"nom":"LES PLATANES","ag":["Réseau scolaire Scolaris"],"lt":1,"dept":"64"}},{"type":"Feature","geometry":{"type":"Point","coordinates":[-0.42984,43.33407]},"properties":{"nom":"LESCAR COLLEGE NOTRE DAME","ag":["Réseau scolaire Scolaris"],"lt":1,"dept":"64"}},{"type":"Feature","geometry":{"type":"Point","coordinates":[-0.43523,43.33073]},"properties":{"nom":"LESCAR LYCEE JACQUES MONOD","ag":["Réseau scolaire Scolaris"],"lt":1,"dept":"64"}},{"type":"Feature","geometry":{"type":"Point","coordinates":[-0.357,43.28042]},"properties":{"nom":"LEZONS","ag":["Réseau scolaire Scolaris"],"lt":1,"dept":"64"}},{"type":"Feature","geometry":{"type":"Point","coordinates":[-0.36526,43.38652]},"properties":{"nom":"LIBEN","ag":["Réseau scolaire Scolaris"],"lt":1,"dept":"64"}},{"type":"Feature","geometry":{"type":"Point","coordinates":[-0.33871,43.32421]},"properties":{"nom":"LILAS","ag":["Réseau scolaire Scolaris"],"lt":1,"dept":"64"}},{"type":"Feature","geometry":{"type":"Point","coordinates":[-0.3137,43.26677]},"properties":{"nom":"Lotissement Layus","ag":["Réseau scolaire Scolaris"],"lt":1,"dept":"64"}},{"type":"Feature","geometry":{"type":"Point","coordinates":[-0.47293,43.34894]},"properties":{"nom":"Les Metairies","ag":["Réseau scolaire Scolaris"],"lt":1,"dept":"64"}},{"type":"Feature","geometry":{"type":"Point","coordinates":[-0.41371,43.31759]},"properties":{"nom":"LONS EGLISE","ag":["Réseau scolaire Scolaris"],"lt":1,"dept":"64"}},{"type":"Feature","geometry":{"type":"Point","coordinates":[-0.40937,43.31615]},"properties":{"nom":"LONS MAIRIE","ag":["Réseau scolaire Scolaris"],"lt":1,"dept":"64"}},{"type":"Feature","geometry":{"type":"Point","coordinates":[-0.40631,43.30826]},"properties":{"nom":"LONS VERT GALANT","ag":["Réseau scolaire Scolaris"],"lt":1,"dept":"64"}},{"type":"Feature","geometry":{"type":"Point","coordinates":[-0.34479,43.38312]},"properties":{"nom":"LOT CERVAN","ag":["Réseau scolaire Scolaris"],"lt":1,"dept":"64"}},{"type":"Feature","geometry":{"type":"Point","coordinates":[-0.36982,43.41074]},"properties":{"nom":"LOT HAUTE VUE","ag":["Réseau scolaire Scolaris"],"lt":1,"dept":"64"}},{"type":"Feature","geometry":{"type":"Point","coordinates":[-0.36418,43.42175]},"properties":{"nom":"LOT PROVENCE","ag":["Réseau scolaire Scolaris"],"lt":1,"dept":"64"}},{"type":"Feature","geometry":{"type":"Point","coordinates":[-0.41416,43.38685]},"properties":{"nom":"LOTISSEMENT ICARE","ag":["Réseau scolaire Scolaris"],"lt":1,"dept":"64"}},{"type":"Feature","geometry":{"type":"Point","coordinates":[-0.4489,43.30979]},"properties":{"nom":"LOTISSEMENT LE REGAIN","ag":["Réseau scolaire Scolaris"],"lt":1,"dept":"64"}},{"type":"Feature","geometry":{"type":"Point","coordinates":[-0.36583,43.2792]},"properties":{"nom":"LOULIE","ag":["Réseau scolaire Scolaris"],"lt":1,"dept":"64"}},{"type":"Feature","geometry":{"type":"Point","coordinates":[-0.39008,43.26298]},"properties":{"nom":"LOUSTALOT","ag":["Réseau scolaire Scolaris"],"lt":1,"dept":"64"}},{"type":"Feature","geometry":{"type":"Point","coordinates":[-0.35609,43.31721]},"properties":{"nom":"LP BARADAT","ag":["Réseau scolaire Scolaris"],"lt":1,"dept":"64"}},{"type":"Feature","geometry":{"type":"Point","coordinates":[-0.27611,43.33824]},"properties":{"nom":"LP HAUTE VUE","ag":["Réseau scolaire Scolaris"],"lt":1,"dept":"64"}},{"type":"Feature","geometry":{"type":"Point","coordinates":[-0.46748,43.26033]},"properties":{"nom":"Larrimou","ag":["Réseau scolaire Scolaris"],"lt":1,"dept":"64"}},{"type":"Feature","geometry":{"type":"Point","coordinates":[-0.36236,43.31898]},"properties":{"nom":"PAU Lycee St John Perse","ag":["Réseau scolaire Scolaris"],"lt":1,"dept":"64"}},{"type":"Feature","geometry":{"type":"Point","coordinates":[-0.40124,43.29207]},"properties":{"nom":"LYCEE ANDRE CAMPA JURANCON","ag":["Réseau scolaire Scolaris"],"lt":1,"dept":"64"}},{"type":"Feature","geometry":{"type":"Point","coordinates":[-0.36535,43.29459]},"properties":{"nom":"BARTHOU BEAUMONT","ag":["Réseau scolaire Scolaris"],"lt":1,"dept":"64"}},{"type":"Feature","geometry":{"type":"Point","coordinates":[-0.36572,43.31909]},"properties":{"nom":"LYCEE SAINT JOHN PERSE","ag":["Réseau scolaire Scolaris"],"lt":1,"dept":"64"}},{"type":"Feature","geometry":{"type":"Point","coordinates":[-0.2594,43.34298]},"properties":{"nom":"MAISON DE LA SOLIDARITE","ag":["Réseau scolaire Scolaris"],"lt":1,"dept":"64"}},{"type":"Feature","geometry":{"type":"Point","coordinates":[-0.39186,43.32996]},"properties":{"nom":"VERDERIE","ag":["Réseau scolaire Scolaris"],"lt":1,"dept":"64"}},{"type":"Feature","geometry":{"type":"Point","coordinates":[-0.41165,43.30421]},"properties":{"nom":"MALIHONDA","ag":["Réseau scolaire Scolaris"],"lt":1,"dept":"64"}},{"type":"Feature","geometry":{"type":"Point","coordinates":[-0.37161,43.2802]},"properties":{"nom":"MAQUIS","ag":["Réseau scolaire Scolaris"],"lt":1,"dept":"64"}},{"type":"Feature","geometry":{"type":"Point","coordinates":[-0.38591,43.22744]},"properties":{"nom":"MARCA","ag":["Réseau scolaire Scolaris"],"lt":1,"dept":"64"}},{"type":"Feature","geometry":{"type":"Point","coordinates":[-0.25485,43.34297]},"properties":{"nom":"MARCADET","ag":["Réseau scolaire Scolaris"],"lt":1,"dept":"64"}},{"type":"Feature","geometry":{"type":"Point","coordinates":[-0.43087,43.33095]},"properties":{"nom":"MARIOTTE","ag":["Réseau scolaire Scolaris"],"lt":1,"dept":"64"}},{"type":"Feature","geometry":{"type":"Point","coordinates":[-0.33501,43.28149]},"properties":{"nom":"MATACHOT","ag":["Réseau scolaire Scolaris"],"lt":1,"dept":"64"}},{"type":"Feature","geometry":{"type":"Point","coordinates":[-0.24133,43.2727]},"properties":{"nom":"MATTOTS","ag":["Réseau scolaire Scolaris"],"lt":1,"dept":"64"}},{"type":"Feature","geometry":{"type":"Point","coordinates":[-0.35936,43.2813]},"properties":{"nom":"GRAND SUD","ag":["Réseau scolaire Scolaris"],"lt":1,"dept":"64"}},{"type":"Feature","geometry":{"type":"Point","coordinates":[-0.31105,43.264]},"properties":{"nom":"MEILLON Centre","ag":["Réseau scolaire Scolaris"],"lt":1,"dept":"64"}},{"type":"Feature","geometry":{"type":"Point","coordinates":[-0.38396,43.2185]},"properties":{"nom":"MERCE","ag":["Réseau scolaire Scolaris"],"lt":1,"dept":"64"}},{"type":"Feature","geometry":{"type":"Point","coordinates":[-0.34398,43.31974]},"properties":{"nom":"MGR CAMPO","ag":["Réseau scolaire Scolaris"],"lt":1,"dept":"64"}},{"type":"Feature","geometry":{"type":"Point","coordinates":[-0.43769,43.23117]},"properties":{"nom":"Minjoulat","ag":["Réseau scolaire Scolaris"],"lt":1,"dept":"64"}},{"type":"Feature","geometry":{"type":"Point","coordinates":[-0.33189,43.37769]},"properties":{"nom":"MONTARDON BAREILLES","ag":["Réseau scolaire Scolaris"],"lt":1,"dept":"64"}},{"type":"Feature","geometry":{"type":"Point","coordinates":[-0.34874,43.36852]},"properties":{"nom":"MONTARDON CENTRE COMMERCIAL","ag":["Réseau scolaire Scolaris"],"lt":1,"dept":"64"}},{"type":"Feature","geometry":{"type":"Point","coordinates":[-0.34276,43.37504]},"properties":{"nom":"MONTARDON MAIRIE","ag":["Réseau scolaire Scolaris"],"lt":1,"dept":"64"}},{"type":"Feature","geometry":{"type":"Point","coordinates":[-0.38188,43.27068]},"properties":{"nom":"MONTFLEURI","ag":["Réseau scolaire Scolaris"],"lt":1,"dept":"64"}},{"type":"Feature","geometry":{"type":"Point","coordinates":[-0.26163,43.34095]},"properties":{"nom":"MORLAAS COLLEGE","ag":["Réseau scolaire Scolaris"],"lt":1,"dept":"64"}},{"type":"Feature","geometry":{"type":"Point","coordinates":[-0.2511,43.33947]},"properties":{"nom":"MORLAAS COMMUNAUTE DE COMMUNE","ag":["Réseau scolaire Scolaris"],"lt":1,"dept":"64"}},{"type":"Feature","geometry":{"type":"Point","coordinates":[-0.24898,43.33528]},"properties":{"nom":"MORLAAS DDE","ag":["Réseau scolaire Scolaris"],"lt":1,"dept":"64"}},{"type":"Feature","geometry":{"type":"Point","coordinates":[-0.26348,43.345]},"properties":{"nom":"MORLAAS MAIRIE","ag":["Réseau scolaire Scolaris"],"lt":1,"dept":"64"}},{"type":"Feature","geometry":{"type":"Point","coordinates":[-0.26247,43.34871]},"properties":{"nom":"MORLAAS PISCINE","ag":["Réseau scolaire Scolaris"],"lt":1,"dept":"64"}},{"type":"Feature","geometry":{"type":"Point","coordinates":[-0.40282,43.31963]},"properties":{"nom":"MOULIN","ag":["Réseau scolaire Scolaris"],"lt":1,"dept":"64"}},{"type":"Feature","geometry":{"type":"Point","coordinates":[-0.24313,43.26985]},"properties":{"nom":"MOUNYOYE","ag":["Réseau scolaire Scolaris"],"lt":1,"dept":"64"}},{"type":"Feature","geometry":{"type":"Point","coordinates":[-0.34527,43.31362]},"properties":{"nom":"MOZART","ag":["Réseau scolaire Scolaris"],"lt":1,"dept":"64"}},{"type":"Feature","geometry":{"type":"Point","coordinates":[-0.39667,43.16001]},"properties":{"nom":"Mairie de Rebenacq","ag":["Réseau scolaire Scolaris"],"lt":1,"dept":"64"}},{"type":"Feature","geometry":{"type":"Point","coordinates":[-0.40533,43.39744]},"properties":{"nom":"MULE","ag":["Réseau scolaire Scolaris"],"lt":1,"dept":"64"}},{"type":"Feature","geometry":{"type":"Point","coordinates":[-0.34227,43.41589]},"properties":{"nom":"NAVAILLES FOYER","ag":["Réseau scolaire Scolaris"],"lt":1,"dept":"64"}},{"type":"Feature","geometry":{"type":"Point","coordinates":[-0.30557,43.32001]},"properties":{"nom":"NOBEL","ag":["Réseau scolaire Scolaris"],"lt":1,"dept":"64"}},{"type":"Feature","geometry":{"type":"Point","coordinates":[-0.40389,43.30798]},"properties":{"nom":"NOUSTE HENRIC","ag":["Réseau scolaire Scolaris"],"lt":1,"dept":"64"}},{"type":"Feature","geometry":{"type":"Point","coordinates":[-0.38123,43.32478]},"properties":{"nom":"OSSAU","ag":["Réseau scolaire Scolaris"],"lt":1,"dept":"64"}},{"type":"Feature","geometry":{"type":"Point","coordinates":[-0.27257,43.2899]},"properties":{"nom":"OUSSE D817","ag":["Réseau scolaire Scolaris"],"lt":1,"dept":"64"}},{"type":"Feature","geometry":{"type":"Point","coordinates":[-0.26829,43.28315]},"properties":{"nom":"OUSSE MAIRIE","ag":["Réseau scolaire Scolaris"],"lt":1,"dept":"64"}},{"type":"Feature","geometry":{"type":"Point","coordinates":[-0.26901,43.28403]},"properties":{"nom":"LES PYRENEES","ag":["Réseau scolaire Scolaris"],"lt":1,"dept":"64"}},{"type":"Feature","geometry":{"type":"Point","coordinates":[-0.28832,43.29879]},"properties":{"nom":"OUSSERE","ag":["Réseau scolaire Scolaris"],"lt":1,"dept":"64"}},{"type":"Feature","geometry":{"type":"Point","coordinates":[-0.3768,43.30494]},"properties":{"nom":"PARC DES EXPOSITIONS( immac/beau-frene)","ag":["Réseau scolaire Scolaris"],"lt":1,"dept":"64"}},{"type":"Feature","geometry":{"type":"Point","coordinates":[-0.34357,43.32134]},"properties":{"nom":"PARC EN CIEL","ag":["Réseau scolaire Scolaris"],"lt":1,"dept":"64"}},{"type":"Feature","geometry":{"type":"Point","coordinates":[-0.3823,43.33566]},"properties":{"nom":"PARIS MADRID","ag":["Réseau scolaire Scolaris"],"lt":1,"dept":"64"}},{"type":"Feature","geometry":{"type":"Point","coordinates":[-0.39047,43.39087]},"properties":{"nom":"PARISEAU","ag":["Réseau scolaire Scolaris"],"lt":1,"dept":"64"}},{"type":"Feature","geometry":{"type":"Point","coordinates":[-0.35475,43.36746]},"properties":{"nom":"PASSADES","ag":["Réseau scolaire Scolaris"],"lt":1,"dept":"64"}},{"type":"Feature","geometry":{"type":"Point","coordinates":[-0.36319,43.29679]},"properties":{"nom":"PAU BLD BARBANEGRE","ag":["Réseau scolaire Scolaris"],"lt":1,"dept":"64"}},{"type":"Feature","geometry":{"type":"Point","coordinates":[-0.36953,43.2923]},"properties":{"nom":"PAU GARE SNCF","ag":["Réseau scolaire Scolaris"],"lt":1,"dept":"64"}},{"type":"Feature","geometry":{"type":"Point","coordinates":[-0.36852,43.3592]},"properties":{"nom":"MONTARDON LEGTA","ag":["Réseau scolaire Scolaris"],"lt":1,"dept":"64"}},{"type":"Feature","geometry":{"type":"Point","coordinates":[-0.38432,43.22081]},"properties":{"nom":"PEBE","ag":["Réseau scolaire Scolaris"],"lt":1,"dept":"64"}},{"type":"Feature","geometry":{"type":"Point","coordinates":[-0.33088,43.31091]},"properties":{"nom":"PEBOUE","ag":["Réseau scolaire Scolaris","Réseau urbain Idelis"],"lt":1,"dept":"64"}},{"type":"Feature","geometry":{"type":"Point","coordinates":[-0.24536,43.27185]},"properties":{"nom":"PECHEURS","ag":["Réseau scolaire Scolaris"],"lt":1,"dept":"64"}},{"type":"Feature","geometry":{"type":"Point","coordinates":[-0.38206,43.24656]},"properties":{"nom":"PEDEFLOUS","ag":["Réseau scolaire Scolaris"],"lt":1,"dept":"64"}},{"type":"Feature","geometry":{"type":"Point","coordinates":[-0.41655,43.31535]},"properties":{"nom":"PENIN","ag":["Réseau scolaire Scolaris"],"lt":1,"dept":"64"}},{"type":"Feature","geometry":{"type":"Point","coordinates":[-0.35081,43.4156]},"properties":{"nom":"PERET","ag":["Réseau scolaire Scolaris"],"lt":1,"dept":"64"}},{"type":"Feature","geometry":{"type":"Point","coordinates":[-0.33545,43.31973]},"properties":{"nom":"PERRIN","ag":["Réseau scolaire Scolaris"],"lt":1,"dept":"64"}},{"type":"Feature","geometry":{"type":"Point","coordinates":[-0.3777,43.38438]},"properties":{"nom":"PESCADOU","ag":["Réseau scolaire Scolaris"],"lt":1,"dept":"64"}},{"type":"Feature","geometry":{"type":"Point","coordinates":[-0.40205,43.32211]},"properties":{"nom":"PESQUE","ag":["Réseau scolaire Scolaris"],"lt":1,"dept":"64"}},{"type":"Feature","geometry":{"type":"Point","coordinates":[-0.37609,43.28159]},"properties":{"nom":"PEYROU","ag":["Réseau scolaire Scolaris"],"lt":1,"dept":"64"}},{"type":"Feature","geometry":{"type":"Point","coordinates":[-0.38127,43.39747]},"properties":{"nom":"PEYS","ag":["Réseau scolaire Scolaris"],"lt":1,"dept":"64"}},{"type":"Feature","geometry":{"type":"Point","coordinates":[-0.39143,43.33503]},"properties":{"nom":"PINSONS","ag":["Réseau scolaire Scolaris"],"lt":1,"dept":"64"}},{"type":"Feature","geometry":{"type":"Point","coordinates":[-0.39556,43.32656]},"properties":{"nom":"PISCINE AQUALONS","ag":["Réseau scolaire Scolaris"],"lt":1,"dept":"64"}},{"type":"Feature","geometry":{"type":"Point","coordinates":[-0.32427,43.31095]},"properties":{"nom":"PISSARD SANTARELLI","ag":["Réseau scolaire Scolaris"],"lt":1,"dept":"64"}},{"type":"Feature","geometry":{"type":"Point","coordinates":[-0.26572,43.34632]},"properties":{"nom":"PLACE DES FORS","ag":["Réseau scolaire Scolaris"],"lt":1,"dept":"64"}},{"type":"Feature","geometry":{"type":"Point","coordinates":[-0.3393,43.40905]},"properties":{"nom":"PLACE EDMOND JAYMES","ag":["Réseau scolaire Scolaris"],"lt":1,"dept":"64"}},{"type":"Feature","geometry":{"type":"Point","coordinates":[-0.30989,43.28781]},"properties":{"nom":"PLACETTE","ag":["Réseau scolaire Scolaris"],"lt":1,"dept":"64"}},{"type":"Feature","geometry":{"type":"Point","coordinates":[-0.39782,43.32379]},"properties":{"nom":"PLAINE DES SPORTS","ag":["Réseau scolaire Scolaris"],"lt":1,"dept":"64"}},{"type":"Feature","geometry":{"type":"Point","coordinates":[-0.43098,43.33522]},"properties":{"nom":"PLAISANCE","ag":["Réseau scolaire Scolaris"],"lt":1,"dept":"64"}},{"type":"Feature","geometry":{"type":"Point","coordinates":[-0.43599,43.39801]},"properties":{"nom":"PLACE DU LANOT","ag":["Réseau scolaire Scolaris"],"lt":1,"dept":"64"}},{"type":"Feature","geometry":{"type":"Point","coordinates":[-0.39388,43.31631]},"properties":{"nom":"PLATEAU","ag":["Réseau scolaire Scolaris"],"lt":1,"dept":"64"}},{"type":"Feature","geometry":{"type":"Point","coordinates":[-0.37094,43.32037]},"properties":{"nom":"PLEIN-CIEL","ag":["Réseau scolaire Scolaris"],"lt":1,"dept":"64"}},{"type":"Feature","geometry":{"type":"Point","coordinates":[-0.44278,43.23542]},"properties":{"nom":"La Plume Bio","ag":["Réseau scolaire Scolaris"],"lt":1,"dept":"64"}},{"type":"Feature","geometry":{"type":"Point","coordinates":[-0.45878,43.35353]},"properties":{"nom":"POEY- LESCAR CAMI SALIE","ag":["Réseau scolaire Scolaris"],"lt":1,"dept":"64"}},{"type":"Feature","geometry":{"type":"Point","coordinates":[-0.45189,43.35045]},"properties":{"nom":"POEY -LESCAR CASSOURETS","ag":["Réseau scolaire Scolaris"],"lt":1,"dept":"64"}},{"type":"Feature","geometry":{"type":"Point","coordinates":[-0.46951,43.34309]},"properties":{"nom":"POEY LESCAR CHEMIN DE PAU","ag":["Réseau scolaire Scolaris"],"lt":1,"dept":"64"}},{"type":"Feature","geometry":{"type":"Point","coordinates":[-0.46946,43.34656]},"properties":{"nom":"POEY LESCAR CHEMIN DU CHATEAU","ag":["Réseau scolaire Scolaris"],"lt":1,"dept":"64"}},{"type":"Feature","geometry":{"type":"Point","coordinates":[-0.46269,43.35356]},"properties":{"nom":"POEY - LESCAR IMPASSE DES CRETES","ag":["Réseau scolaire Scolaris"],"lt":1,"dept":"64"}},{"type":"Feature","geometry":{"type":"Point","coordinates":[-0.46908,43.35492]},"properties":{"nom":"POEY - LESCAR LA SERRE","ag":["Réseau scolaire Scolaris"],"lt":1,"dept":"64"}},{"type":"Feature","geometry":{"type":"Point","coordinates":[-0.47831,43.34781]},"properties":{"nom":"POEY LESCAR ZA CHEMIN DU LAGOUE","ag":["Réseau scolaire Scolaris"],"lt":1,"dept":"64"}},{"type":"Feature","geometry":{"type":"Point","coordinates":[-0.3848,43.22342]},"properties":{"nom":"POMPE","ag":["Réseau scolaire Scolaris"],"lt":1,"dept":"64"}},{"type":"Feature","geometry":{"type":"Point","coordinates":[-0.34073,43.37565]},"properties":{"nom":"POUBLAN","ag":["Réseau scolaire Scolaris"],"lt":1,"dept":"64"}},{"type":"Feature","geometry":{"type":"Point","coordinates":[-0.38763,43.27971]},"properties":{"nom":"PONT D OLY","ag":["Réseau scolaire Scolaris"],"lt":1,"dept":"64"}},{"type":"Feature","geometry":{"type":"Point","coordinates":[-0.37826,43.28509]},"properties":{"nom":"PONT DU CAPITAINE","ag":["Réseau scolaire Scolaris"],"lt":1,"dept":"64"}},{"type":"Feature","geometry":{"type":"Point","coordinates":[-0.40747,43.22587]},"properties":{"nom":"PONT LAS-HIES","ag":["Réseau scolaire Scolaris"],"lt":1,"dept":"64"}},{"type":"Feature","geometry":{"type":"Point","coordinates":[-0.38673,43.33612]},"properties":{"nom":"PONT LONG","ag":["Réseau scolaire Scolaris"],"lt":1,"dept":"64"}},{"type":"Feature","geometry":{"type":"Point","coordinates":[-0.41974,43.3318]},"properties":{"nom":"PONTERIQUE","ag":["Réseau scolaire Scolaris"],"lt":1,"dept":"64"}},{"type":"Feature","geometry":{"type":"Point","coordinates":[-0.25117,43.27739]},"properties":{"nom":"POUSSINIERE","ag":["Réseau scolaire Scolaris"],"lt":1,"dept":"64"}},{"type":"Feature","geometry":{"type":"Point","coordinates":[-0.40634,43.31358]},"properties":{"nom":"PRES","ag":["Réseau scolaire Scolaris"],"lt":1,"dept":"64"}},{"type":"Feature","geometry":{"type":"Point","coordinates":[-0.26964,43.27562]},"properties":{"nom":"PRIMEVERES","ag":["Réseau scolaire Scolaris"],"lt":1,"dept":"64"}},{"type":"Feature","geometry":{"type":"Point","coordinates":[-0.41709,43.32048]},"properties":{"nom":"PRIX D AMERIQUE","ag":["Réseau scolaire Scolaris"],"lt":1,"dept":"64"}},{"type":"Feature","geometry":{"type":"Point","coordinates":[-0.36423,43.29722]},"properties":{"nom":"PAU Rue Mathieu Lalanne","ag":["Réseau scolaire Scolaris"],"lt":1,"dept":"64"}},{"type":"Feature","geometry":{"type":"Point","coordinates":[-0.37227,43.26882]},"properties":{"nom":"PUCHEU","ag":["Réseau scolaire Scolaris"],"lt":1,"dept":"64"}},{"type":"Feature","geometry":{"type":"Point","coordinates":[-0.32967,43.3993]},"properties":{"nom":"PYRENEES","ag":["Réseau scolaire Scolaris"],"lt":1,"dept":"64"}},{"type":"Feature","geometry":{"type":"Point","coordinates":[-0.41958,43.20107]},"properties":{"nom":"QUARTIER BOUILLET","ag":["Réseau scolaire Scolaris"],"lt":1,"dept":"64"}},{"type":"Feature","geometry":{"type":"Point","coordinates":[-0.34412,43.31706]},"properties":{"nom":"RAMEAU","ag":["Réseau scolaire Scolaris"],"lt":1,"dept":"64"}},{"type":"Feature","geometry":{"type":"Point","coordinates":[-0.37016,43.25027]},"properties":{"nom":"RAPATOUT","ag":["Réseau scolaire Scolaris"],"lt":1,"dept":"64"}},{"type":"Feature","geometry":{"type":"Point","coordinates":[-0.44284,43.23544]},"properties":{"nom":"RD346","ag":["Réseau scolaire Scolaris"],"lt":1,"dept":"64"}},{"type":"Feature","geometry":{"type":"Point","coordinates":[-0.28932,43.29281]},"properties":{"nom":"RUE DES FONTAINES","ag":["Réseau scolaire Scolaris"],"lt":1,"dept":"64"}},{"type":"Feature","geometry":{"type":"Point","coordinates":[-0.26966,43.32913]},"properties":{"nom":"RUE DES GENETS","ag":["Réseau scolaire Scolaris"],"lt":1,"dept":"64"}},{"type":"Feature","geometry":{"type":"Point","coordinates":[-0.26139,43.34647]},"properties":{"nom":"REMPARTS","ag":["Réseau scolaire Scolaris"],"lt":1,"dept":"64"}},{"type":"Feature","geometry":{"type":"Point","coordinates":[-0.37102,43.39986]},"properties":{"nom":"RN BOULANGERIE","ag":["Réseau scolaire Scolaris"],"lt":1,"dept":"64"}},{"type":"Feature","geometry":{"type":"Point","coordinates":[-0.38062,43.39159]},"properties":{"nom":"RN ROUTIER","ag":["Réseau scolaire Scolaris"],"lt":1,"dept":"64"}},{"type":"Feature","geometry":{"type":"Point","coordinates":[-0.33922,43.30823]},"properties":{"nom":"ROND POINT","ag":["Réseau scolaire Scolaris"],"lt":1,"dept":"64"}},{"type":"Feature","geometry":{"type":"Point","coordinates":[-0.39301,43.22407]},"properties":{"nom":"ROND POINT GAN","ag":["Réseau scolaire Scolaris"],"lt":1,"dept":"64"}},{"type":"Feature","geometry":{"type":"Point","coordinates":[-0.33721,43.26634]},"properties":{"nom":"RONTIGNON CHEMIN DU MOULIN","ag":["Réseau scolaire Scolaris"],"lt":1,"dept":"64"}},{"type":"Feature","geometry":{"type":"Point","coordinates":[-0.3271,43.25792]},"properties":{"nom":"RONTIGNON CIMETIERE","ag":["Réseau scolaire Scolaris"],"lt":1,"dept":"64"}},{"type":"Feature","geometry":{"type":"Point","coordinates":[-0.33345,43.26387]},"properties":{"nom":"RONTIGNON LES CAIRES","ag":["Réseau scolaire Scolaris"],"lt":1,"dept":"64"}},{"type":"Feature","geometry":{"type":"Point","coordinates":[-0.33017,43.26202]},"properties":{"nom":"RONTIGNON MAIRIE","ag":["Réseau scolaire Scolaris"],"lt":1,"dept":"64"}},{"type":"Feature","geometry":{"type":"Point","coordinates":[-0.33216,43.39561]},"properties":{"nom":"ROUMENTAS","ag":["Réseau scolaire Scolaris"],"lt":1,"dept":"64"}},{"type":"Feature","geometry":{"type":"Point","coordinates":[-0.39654,43.16003]},"properties":{"nom":"ROUTE DE REBENACQ","ag":["Réseau scolaire Scolaris"],"lt":1,"dept":"64"}},{"type":"Feature","geometry":{"type":"Point","coordinates":[-0.26547,43.35575]},"properties":{"nom":"RUE DES ERABLES","ag":["Réseau scolaire Scolaris"],"lt":1,"dept":"64"}},{"type":"Feature","geometry":{"type":"Point","coordinates":[-0.23762,43.2698]},"properties":{"nom":"RUISSEAU","ag":["Réseau scolaire Scolaris"],"lt":1,"dept":"64"}},{"type":"Feature","geometry":{"type":"Point","coordinates":[-0.35911,43.29832]},"properties":{"nom":"BONADO SAINT CRICQ","ag":["Réseau scolaire Scolaris"],"lt":1,"dept":"64"}},{"type":"Feature","geometry":{"type":"Point","coordinates":[-0.4402,43.28772]},"properties":{"nom":"SAINT FAUST BAREILLES","ag":["Réseau scolaire Scolaris"],"lt":1,"dept":"64"}},{"type":"Feature","geometry":{"type":"Point","coordinates":[-0.44351,43.25089]},"properties":{"nom":"SAINT FAUST BAUDAURRE","ag":["Réseau scolaire Scolaris"],"lt":1,"dept":"64"}},{"type":"Feature","geometry":{"type":"Point","coordinates":[-0.43449,43.27167]},"properties":{"nom":"SAINT FAUST CHAPELLE DE ROUSSE","ag":["Réseau scolaire Scolaris"],"lt":1,"dept":"64"}},{"type":"Feature","geometry":{"type":"Point","coordinates":[-0.45236,43.27013]},"properties":{"nom":"SAINT FAUST ECOLE","ag":["Réseau scolaire Scolaris"],"lt":1,"dept":"64"}},{"type":"Feature","geometry":{"type":"Point","coordinates":[-0.44118,43.24931]},"properties":{"nom":"SAINT FAUST JOUANCHICOT","ag":["Réseau scolaire Scolaris"],"lt":1,"dept":"64"}},{"type":"Feature","geometry":{"type":"Point","coordinates":[-0.43756,43.2776]},"properties":{"nom":"SAINT FAUST OLIVAN","ag":["Réseau scolaire Scolaris"],"lt":1,"dept":"64"}},{"type":"Feature","geometry":{"type":"Point","coordinates":[-0.36261,43.28175]},"properties":{"nom":"SAINT JEAN","ag":["Réseau scolaire Scolaris"],"lt":1,"dept":"64"}},{"type":"Feature","geometry":{"type":"Point","coordinates":[-0.34559,43.31859]},"properties":{"nom":"SAINT JEAN-BAPTISTE","ag":["Réseau scolaire Scolaris"],"lt":1,"dept":"64"}},{"type":"Feature","geometry":{"type":"Point","coordinates":[-0.37636,43.30659]},"properties":{"nom":"SAINT JOSEPH ( Beau-Frene/immac)","ag":["Réseau scolaire Scolaris"],"lt":1,"dept":"64"}},{"type":"Feature","geometry":{"type":"Point","coordinates":[-0.37937,43.32307]},"properties":{"nom":"SAINT JULIEN","ag":["Réseau scolaire Scolaris"],"lt":1,"dept":"64"}},{"type":"Feature","geometry":{"type":"Point","coordinates":[-0.36549,43.25905]},"properties":{"nom":"SAINT LEON","ag":["Réseau scolaire Scolaris"],"lt":1,"dept":"64"}},{"type":"Feature","geometry":{"type":"Point","coordinates":[-0.30384,43.28728]},"properties":{"nom":"SAINT LOUIS","ag":["Réseau scolaire Scolaris"],"lt":1,"dept":"64"}},{"type":"Feature","geometry":{"type":"Point","coordinates":[-0.29402,43.29926]},"properties":{"nom":"SAINT MARC","ag":["Réseau scolaire Scolaris"],"lt":1,"dept":"64"}},{"type":"Feature","geometry":{"type":"Point","coordinates":[-0.3048,43.29692]},"properties":{"nom":"SAINT VINCENT","ag":["Réseau scolaire Scolaris"],"lt":1,"dept":"64"}},{"type":"Feature","geometry":{"type":"Point","coordinates":[-0.24575,43.27354]},"properties":{"nom":"SALLE DES FETES","ag":["Réseau scolaire Scolaris"],"lt":1,"dept":"64"}},{"type":"Feature","geometry":{"type":"Point","coordinates":[-0.32833,43.30212]},"properties":{"nom":"SANSARRICQ","ag":["Réseau scolaire Scolaris"],"lt":1,"dept":"64"}},{"type":"Feature","geometry":{"type":"Point","coordinates":[-0.33156,43.30103]},"properties":{"nom":"SAPINS","ag":["Réseau scolaire Scolaris"],"lt":1,"dept":"64"}},{"type":"Feature","geometry":{"type":"Point","coordinates":[-0.35845,43.37072]},"properties":{"nom":"SARRAMAGNA","ag":["Réseau scolaire Scolaris"],"lt":1,"dept":"64"}},{"type":"Feature","geometry":{"type":"Point","coordinates":[-0.36787,43.33026]},"properties":{"nom":"SAUMUR","ag":["Réseau scolaire Scolaris"],"lt":1,"dept":"64"}},{"type":"Feature","geometry":{"type":"Point","coordinates":[-0.25985,43.29718]},"properties":{"nom":"SENDETS MAIRIE","ag":["Réseau scolaire Scolaris"],"lt":1,"dept":"64"}},{"type":"Feature","geometry":{"type":"Point","coordinates":[-0.3574,43.38737]},"properties":{"nom":"SERRES CASTET MAIRIE","ag":["Réseau scolaire Scolaris"],"lt":1,"dept":"64"}},{"type":"Feature","geometry":{"type":"Point","coordinates":[-0.37686,43.38021]},"properties":{"nom":"STADE H. MARRACQ","ag":["Réseau scolaire Scolaris"],"lt":1,"dept":"64"}},{"type":"Feature","geometry":{"type":"Point","coordinates":[-0.26297,43.32278]},"properties":{"nom":"CHEMIN DU LUY","ag":["Réseau scolaire Scolaris"],"lt":1,"dept":"64"}},{"type":"Feature","geometry":{"type":"Point","coordinates":[-0.4833,43.34387]},"properties":{"nom":"SIROS ECOLE RPI","ag":["Réseau scolaire Scolaris"],"lt":1,"dept":"64"}},{"type":"Feature","geometry":{"type":"Point","coordinates":[-0.48318,43.3437]},"properties":{"nom":"SIROS PLACE YAN SABALOT","ag":["Réseau scolaire Scolaris"],"lt":1,"dept":"64"}},{"type":"Feature","geometry":{"type":"Point","coordinates":[-0.35323,43.28851]},"properties":{"nom":"St Magne","ag":["Réseau scolaire Scolaris","Réseau urbain Idelis"],"lt":1,"dept":"64"}},{"type":"Feature","geometry":{"type":"Point","coordinates":[-0.27116,43.28749]},"properties":{"nom":"SOUM DE COSTE","ag":["Réseau scolaire Scolaris"],"lt":1,"dept":"64"}},{"type":"Feature","geometry":{"type":"Point","coordinates":[-0.32479,43.30209]},"properties":{"nom":"ST BENOIT","ag":["Réseau scolaire Scolaris"],"lt":1,"dept":"64"}},{"type":"Feature","geometry":{"type":"Point","coordinates":[-0.37562,43.31524]},"properties":{"nom":"ST DOMINIQUE","ag":["Réseau scolaire Scolaris"],"lt":1,"dept":"64"}},{"type":"Feature","geometry":{"type":"Point","coordinates":[-0.33304,43.31013]},"properties":{"nom":"STE JEANNE ELISABETH","ag":["Réseau scolaire Scolaris"],"lt":1,"dept":"64"}},{"type":"Feature","geometry":{"type":"Point","coordinates":[-0.40267,43.31002]},"properties":{"nom":"SULLY","ag":["Réseau scolaire Scolaris"],"lt":1,"dept":"64"}},{"type":"Feature","geometry":{"type":"Point","coordinates":[-0.34956,43.29885]},"properties":{"nom":"STE URSULE","ag":["Réseau scolaire Scolaris"],"lt":1,"dept":"64"}},{"type":"Feature","geometry":{"type":"Point","coordinates":[-0.38588,43.39366]},"properties":{"nom":"TAILLADES","ag":["Réseau scolaire Scolaris"],"lt":1,"dept":"64"}},{"type":"Feature","geometry":{"type":"Point","coordinates":[-0.41566,43.33181]},"properties":{"nom":"TEULERE","ag":["Réseau scolaire Scolaris"],"lt":1,"dept":"64"}},{"type":"Feature","geometry":{"type":"Point","coordinates":[-0.36932,43.40739]},"properties":{"nom":"TOUJA","ag":["Réseau scolaire Scolaris"],"lt":1,"dept":"64"}},{"type":"Feature","geometry":{"type":"Point","coordinates":[-0.38396,43.40583]},"properties":{"nom":"TOUPIS","ag":["Réseau scolaire Scolaris"],"lt":1,"dept":"64"}},{"type":"Feature","geometry":{"type":"Point","coordinates":[-0.37007,43.32247]},"properties":{"nom":"TOUQUET","ag":["Réseau scolaire Scolaris"],"lt":1,"dept":"64"}},{"type":"Feature","geometry":{"type":"Point","coordinates":[-0.33819,43.32571]},"properties":{"nom":"TOURTERELLES","ag":["Réseau scolaire Scolaris"],"lt":1,"dept":"64"}},{"type":"Feature","geometry":{"type":"Point","coordinates":[-0.34513,43.32224]},"properties":{"nom":"TRAIT D UNION","ag":["Réseau scolaire Scolaris"],"lt":1,"dept":"64"}},{"type":"Feature","geometry":{"type":"Point","coordinates":[-0.3282,43.32366]},"properties":{"nom":"TRIANON","ag":["Réseau scolaire Scolaris"],"lt":1,"dept":"64"}},{"type":"Feature","geometry":{"type":"Point","coordinates":[-0.3741,43.32795]},"properties":{"nom":"TURSAN","ag":["Réseau scolaire Scolaris"],"lt":1,"dept":"64"}},{"type":"Feature","geometry":{"type":"Point","coordinates":[-0.32596,43.32295]},"properties":{"nom":"CITE MULTIMEDIA","ag":["Réseau scolaire Scolaris"],"lt":1,"dept":"64"}},{"type":"Feature","geometry":{"type":"Point","coordinates":[-0.43316,43.3997]},"properties":{"nom":"UZEIN SALLE POLYVALENTE","ag":["Réseau scolaire Scolaris"],"lt":1,"dept":"64"}},{"type":"Feature","geometry":{"type":"Point","coordinates":[-0.34339,43.27067]},"properties":{"nom":"UZOS EGLISE","ag":["Réseau scolaire Scolaris"],"lt":1,"dept":"64"}},{"type":"Feature","geometry":{"type":"Point","coordinates":[-0.3863,43.29247]},"properties":{"nom":"VALLEE","ag":["Réseau scolaire Scolaris"],"lt":1,"dept":"64"}},{"type":"Feature","geometry":{"type":"Point","coordinates":[-0.37234,43.32325]},"properties":{"nom":"VELLEDA","ag":["Réseau scolaire Scolaris"],"lt":1,"dept":"64"}},{"type":"Feature","geometry":{"type":"Point","coordinates":[-0.37995,43.4052]},"properties":{"nom":"VENEZUELA","ag":["Réseau scolaire Scolaris"],"lt":1,"dept":"64"}},{"type":"Feature","geometry":{"type":"Point","coordinates":[-0.38468,43.20662]},"properties":{"nom":"VIEUX MOULIN","ag":["Réseau scolaire Scolaris"],"lt":1,"dept":"64"}},{"type":"Feature","geometry":{"type":"Point","coordinates":[-0.40047,43.30821]},"properties":{"nom":"Vignes","ag":["Réseau scolaire Scolaris"],"lt":1,"dept":"64"}},{"type":"Feature","geometry":{"type":"Point","coordinates":[-0.31819,43.32221]},"properties":{"nom":"VIGNANCOUR","ag":["Réseau scolaire Scolaris"],"lt":1,"dept":"64"}},{"type":"Feature","geometry":{"type":"Point","coordinates":[-0.4006,43.30864]},"properties":{"nom":"LONS VIGNES","ag":["Réseau scolaire Scolaris"],"lt":1,"dept":"64"}},{"type":"Feature","geometry":{"type":"Point","coordinates":[-0.38955,43.23523]},"properties":{"nom":"VILLEFRANCHE","ag":["Réseau scolaire Scolaris"],"lt":1,"dept":"64"}},{"type":"Feature","geometry":{"type":"Point","coordinates":[-0.36921,43.37681]},"properties":{"nom":"VOIE DES FEES","ag":["Réseau scolaire Scolaris"],"lt":1,"dept":"64"}},{"type":"Feature","geometry":{"type":"Point","coordinates":[-0.26191,43.29134]},"properties":{"nom":"YANOULET","ag":["Réseau scolaire Scolaris"],"lt":1,"dept":"64"}},{"type":"Feature","geometry":{"type":"Point","coordinates":[-0.38881,43.2716]},"properties":{"nom":"Z.A VERT GALANT","ag":["Réseau scolaire Scolaris"],"lt":1,"dept":"64"}},{"type":"Feature","geometry":{"type":"Point","coordinates":[-0.35885,43.27767]},"properties":{"nom":"MAZERES LEZONS 15 Rue Louis Barthou","ag":["Réseau scolaire Scolaris"],"lt":0,"dept":"64"}},{"type":"Feature","geometry":{"type":"Point","coordinates":[-0.50708,43.33482]},"properties":{"nom":"Ecole d'Arbus","ag":["Réseau scolaire Scolaris"],"lt":0,"dept":"64"}},{"type":"Feature","geometry":{"type":"Point","coordinates":[-0.50168,43.32865]},"properties":{"nom":"Larribot","ag":["Réseau scolaire Scolaris"],"lt":0,"dept":"64"}},{"type":"Feature","geometry":{"type":"Point","coordinates":[-0.48777,43.32265]},"properties":{"nom":"Saint Sorque","ag":["Réseau scolaire Scolaris"],"lt":0,"dept":"64"}},{"type":"Feature","geometry":{"type":"Point","coordinates":[-0.47522,43.30801]},"properties":{"nom":"Lansolles","ag":["Réseau scolaire Scolaris"],"lt":0,"dept":"64"}},{"type":"Feature","geometry":{"type":"Point","coordinates":[-0.24798,43.2758]},"properties":{"nom":"Stade d'Artigueloutan","ag":["Réseau scolaire Scolaris"],"lt":0,"dept":"64"}},{"type":"Feature","geometry":{"type":"Point","coordinates":[-0.47077,43.32053]},"properties":{"nom":"Gare d'Artiguelouve","ag":["Réseau scolaire Scolaris"],"lt":0,"dept":"64"}},{"type":"Feature","geometry":{"type":"Point","coordinates":[-0.47588,43.32128]},"properties":{"nom":"La Croix","ag":["Réseau scolaire Scolaris"],"lt":0,"dept":"64"}},{"type":"Feature","geometry":{"type":"Point","coordinates":[-0.45597,43.3168]},"properties":{"nom":"Le Golf","ag":["Réseau scolaire Scolaris"],"lt":0,"dept":"64"}},{"type":"Feature","geometry":{"type":"Point","coordinates":[-0.47251,43.30308]},"properties":{"nom":"Salaberthe","ag":["Réseau scolaire Scolaris"],"lt":0,"dept":"64"}},{"type":"Feature","geometry":{"type":"Point","coordinates":[-0.36926,43.40297]},"properties":{"nom":"SAUVAGNON Arzacq","ag":["Réseau scolaire Scolaris"],"lt":0,"dept":"64"}},{"type":"Feature","geometry":{"type":"Point","coordinates":[-0.48167,43.32425]},"properties":{"nom":"Paletou","ag":["Réseau scolaire Scolaris"],"lt":0,"dept":"64"}},{"type":"Feature","geometry":{"type":"Point","coordinates":[-0.47288,43.35662]},"properties":{"nom":"Chemin de la Serre","ag":["Réseau scolaire Scolaris"],"lt":0,"dept":"64"}},{"type":"Feature","geometry":{"type":"Point","coordinates":[-0.48734,43.35525]},"properties":{"nom":"Clos le Bearn","ag":["Réseau scolaire Scolaris"],"lt":0,"dept":"64"}},{"type":"Feature","geometry":{"type":"Point","coordinates":[-0.4797,43.35954]},"properties":{"nom":"Cote de Labourdette","ag":["Réseau scolaire Scolaris"],"lt":0,"dept":"64"}},{"type":"Feature","geometry":{"type":"Point","coordinates":[-0.48107,43.35492]},"properties":{"nom":"L'Ousse","ag":["Réseau scolaire Scolaris"],"lt":0,"dept":"64"}},{"type":"Feature","geometry":{"type":"Point","coordinates":[-0.31438,43.30332]},"properties":{"nom":"IDRON Aviation","ag":["Réseau scolaire Scolaris"],"lt":0,"dept":"64"}},{"type":"Feature","geometry":{"type":"Point","coordinates":[-0.27667,43.28488]},"properties":{"nom":"OUSSE Barthouil","ag":["Réseau scolaire Scolaris"],"lt":0,"dept":"64"}},{"type":"Feature","geometry":{"type":"Point","coordinates":[-0.37896,43.26186]},"properties":{"nom":"Haut de Capderou","ag":["Réseau scolaire Scolaris"],"lt":0,"dept":"64"}},{"type":"Feature","geometry":{"type":"Point","coordinates":[-0.3533,43.30708]},"properties":{"nom":"Baudelaire","ag":["Réseau scolaire Scolaris"],"lt":0,"dept":"64"}},{"type":"Feature","geometry":{"type":"Point","coordinates":[-0.38383,43.30721]},"properties":{"nom":"Clair Soleil","ag":["Réseau scolaire Scolaris"],"lt":0,"dept":"64"}},{"type":"Feature","geometry":{"type":"Point","coordinates":[-0.3204,43.29895]},"properties":{"nom":"BIZANOS Beau Soleil","ag":["Réseau scolaire Scolaris"],"lt":0,"dept":"64"}},{"type":"Feature","geometry":{"type":"Point","coordinates":[-0.29662,43.32641]},"properties":{"nom":"MORLAAS les Pins","ag":["Réseau scolaire Scolaris"],"lt":0,"dept":"64"}},{"type":"Feature","geometry":{"type":"Point","coordinates":[-0.29819,43.32521]},"properties":{"nom":"Rue des Bergers","ag":["Réseau scolaire Scolaris"],"lt":0,"dept":"64"}},{"type":"Feature","geometry":{"type":"Point","coordinates":[-0.46552,43.37539]},"properties":{"nom":"Tapie","ag":["Réseau scolaire Scolaris"],"lt":0,"dept":"64"}},{"type":"Feature","geometry":{"type":"Point","coordinates":[-0.37371,43.33162]},"properties":{"nom":"Bezet","ag":["Réseau scolaire Scolaris"],"lt":0,"dept":"64"}},{"type":"Feature","geometry":{"type":"Point","coordinates":[-0.3973,43.30265]},"properties":{"nom":"Mairie de Billere","ag":["Réseau scolaire Scolaris"],"lt":0,"dept":"64"}},{"type":"Feature","geometry":{"type":"Point","coordinates":[-0.40555,43.29713]},"properties":{"nom":"Plaine","ag":["Réseau scolaire Scolaris"],"lt":0,"dept":"64"}},{"type":"Feature","geometry":{"type":"Point","coordinates":[-0.3998,43.29943]},"properties":{"nom":"BILLERE Stade Hugot","ag":["Réseau scolaire Scolaris"],"lt":0,"dept":"64"}},{"type":"Feature","geometry":{"type":"Point","coordinates":[-0.32919,43.37233]},"properties":{"nom":"MONTARDON Birabens","ag":["Réseau scolaire Scolaris"],"lt":0,"dept":"64"}},{"type":"Feature","geometry":{"type":"Point","coordinates":[-0.33368,43.31742]},"properties":{"nom":"Blanqui","ag":["Réseau scolaire Scolaris"],"lt":0,"dept":"64"}},{"type":"Feature","geometry":{"type":"Point","coordinates":[-0.36163,43.21102]},"properties":{"nom":"Bourg","ag":["Réseau scolaire Scolaris"],"lt":0,"dept":"64"}},{"type":"Feature","geometry":{"type":"Point","coordinates":[-0.36284,43.22203]},"properties":{"nom":"Les 4 Chemins","ag":["Réseau scolaire Scolaris"],"lt":0,"dept":"64"}},{"type":"Feature","geometry":{"type":"Point","coordinates":[-0.36074,43.21451]},"properties":{"nom":"Lotissement les Pyrenees","ag":["Réseau scolaire Scolaris"],"lt":0,"dept":"64"}},{"type":"Feature","geometry":{"type":"Point","coordinates":[-0.36561,43.29774]},"properties":{"nom":"PAU Bosquet Quai C","ag":["Réseau scolaire Scolaris"],"lt":0,"dept":"64"}},{"type":"Feature","geometry":{"type":"Point","coordinates":[-0.36532,43.29785]},"properties":{"nom":"PAU Bosquet Quai D","ag":["Réseau scolaire Scolaris"],"lt":0,"dept":"64"}},{"type":"Feature","geometry":{"type":"Point","coordinates":[-0.47074,43.38414]},"properties":{"nom":"Auge","ag":["Réseau scolaire Scolaris"],"lt":0,"dept":"64"}},{"type":"Feature","geometry":{"type":"Point","coordinates":[-0.47203,43.39196]},"properties":{"nom":"Liret","ag":["Réseau scolaire Scolaris"],"lt":0,"dept":"64"}},{"type":"Feature","geometry":{"type":"Point","coordinates":[-0.47348,43.39915]},"properties":{"nom":"Mairie de Bougarber","ag":["Réseau scolaire Scolaris"],"lt":0,"dept":"64"}},{"type":"Feature","geometry":{"type":"Point","coordinates":[-0.33451,43.30631]},"properties":{"nom":"PAU Porte des Pyrenees","ag":["Réseau scolaire Scolaris"],"lt":0,"dept":"64"}},{"type":"Feature","geometry":{"type":"Point","coordinates":[-0.43134,43.39658]},"properties":{"nom":"Rue Calonge","ag":["Réseau scolaire Scolaris"],"lt":0,"dept":"64"}},{"type":"Feature","geometry":{"type":"Point","coordinates":[-0.27699,43.31274]},"properties":{"nom":"SENDETS Cami Salie","ag":["Réseau scolaire Scolaris"],"lt":0,"dept":"64"}},{"type":"Feature","geometry":{"type":"Point","coordinates":[-0.40787,43.30954]},"properties":{"nom":"Campagnole","ag":["Réseau scolaire Scolaris"],"lt":0,"dept":"64"}},{"type":"Feature","geometry":{"type":"Point","coordinates":[-0.35394,43.32423]},"properties":{"nom":"PAU Cassou Bld Hauterive","ag":["Réseau scolaire Scolaris"],"lt":0,"dept":"64"}},{"type":"Feature","geometry":{"type":"Point","coordinates":[-0.40246,43.23662]},"properties":{"nom":"Chemin de Serrot","ag":["Réseau scolaire Scolaris"],"lt":0,"dept":"64"}},{"type":"Feature","geometry":{"type":"Point","coordinates":[-0.38124,43.24377]},"properties":{"nom":"Chemin de Chatieu","ag":["Réseau scolaire Scolaris"],"lt":0,"dept":"64"}},{"type":"Feature","geometry":{"type":"Point","coordinates":[-0.36146,43.38947]},"properties":{"nom":"SERRES CASTET Chemin Castet","ag":["Réseau scolaire Scolaris"],"lt":0,"dept":"64"}},{"type":"Feature","geometry":{"type":"Point","coordinates":[-0.27374,43.33003]},"properties":{"nom":"Chemin du Broc","ag":["Réseau scolaire Scolaris"],"lt":0,"dept":"64"}},{"type":"Feature","geometry":{"type":"Point","coordinates":[-0.34898,43.40003]},"properties":{"nom":"SERRES CASTET Chemin de Lasdites","ag":["Réseau scolaire Scolaris"],"lt":0,"dept":"64"}},{"type":"Feature","geometry":{"type":"Point","coordinates":[-0.39332,43.38676]},"properties":{"nom":"Chemin Morlane","ag":["Réseau scolaire Scolaris"],"lt":0,"dept":"64"}},{"type":"Feature","geometry":{"type":"Point","coordinates":[-0.35073,43.36642]},"properties":{"nom":"Chemin Romas","ag":["Réseau scolaire Scolaris"],"lt":0,"dept":"64"}},{"type":"Feature","geometry":{"type":"Point","coordinates":[-0.47292,43.29663]},"properties":{"nom":"ARTIGUELOUVE Chemin de La Juscle","ag":["Réseau scolaire Scolaris"],"lt":0,"dept":"64"}},{"type":"Feature","geometry":{"type":"Point","coordinates":[-0.40128,43.21856]},"properties":{"nom":"GAN Chemin de Lannegrand","ag":["Réseau scolaire Scolaris"],"lt":0,"dept":"64"}},{"type":"Feature","geometry":{"type":"Point","coordinates":[-0.34243,43.38601]},"properties":{"nom":"Chemin Mule","ag":["Réseau scolaire Scolaris"],"lt":0,"dept":"64"}},{"type":"Feature","geometry":{"type":"Point","coordinates":[-0.41798,43.25396]},"properties":{"nom":"Chemin Peyrouse","ag":["Réseau scolaire Scolaris"],"lt":0,"dept":"64"}},{"type":"Feature","geometry":{"type":"Point","coordinates":[-0.36762,43.31885]},"properties":{"nom":"Cite Universitaire","ag":["Réseau scolaire Scolaris"],"lt":0,"dept":"64"}},{"type":"Feature","geometry":{"type":"Point","coordinates":[-0.39789,43.32869]},"properties":{"nom":"LONS Clohare","ag":["Réseau scolaire Scolaris"],"lt":0,"dept":"64"}},{"type":"Feature","geometry":{"type":"Point","coordinates":[-0.39367,43.30747]},"properties":{"nom":"BILLERE College Bois d'Amour","ag":["Réseau scolaire Scolaris"],"lt":0,"dept":"64"}},{"type":"Feature","geometry":{"type":"Point","coordinates":[-0.34629,43.29265]},"properties":{"nom":"BIZANOS College des Lavandieres","ag":["Réseau scolaire Scolaris"],"lt":0,"dept":"64"}},{"type":"Feature","geometry":{"type":"Point","coordinates":[-0.34301,43.30133]},"properties":{"nom":"PAU College Jeanne D'Albret","ag":["Réseau scolaire Scolaris"],"lt":0,"dept":"64"}},{"type":"Feature","geometry":{"type":"Point","coordinates":[-0.37473,43.37564]},"properties":{"nom":"SERRES CASTET College R. Forgues","ag":["Réseau scolaire Scolaris"],"lt":0,"dept":"64"}},{"type":"Feature","geometry":{"type":"Point","coordinates":[-0.43839,43.33644]},"properties":{"nom":"LESCAR College S. Palay","ag":["Réseau scolaire Scolaris"],"lt":0,"dept":"64"}},{"type":"Feature","geometry":{"type":"Point","coordinates":[-0.38829,43.28913]},"properties":{"nom":"JURANCON Lolibe (College St Joseph)","ag":["Réseau scolaire Scolaris"],"lt":0,"dept":"64"}},{"type":"Feature","geometry":{"type":"Point","coordinates":[-0.41326,43.30218]},"properties":{"nom":"Dassault","ag":["Réseau scolaire Scolaris"],"lt":0,"dept":"64"}},{"type":"Feature","geometry":{"type":"Point","coordinates":[-0.49131,43.34662]},"properties":{"nom":"Lasprobes","ag":["Réseau scolaire Scolaris"],"lt":0,"dept":"64"}},{"type":"Feature","geometry":{"type":"Point","coordinates":[-0.34546,43.32083]},"properties":{"nom":"PAU Eauze","ag":["Réseau scolaire Scolaris"],"lt":0,"dept":"64"}},{"type":"Feature","geometry":{"type":"Point","coordinates":[-0.38564,43.39829]},"properties":{"nom":"Ecole Primaire","ag":["Réseau scolaire Scolaris"],"lt":0,"dept":"64"}},{"type":"Feature","geometry":{"type":"Point","coordinates":[-0.35905,43.30129]},"properties":{"nom":"PAU Edouard 7 - Lycee St Cricq","ag":["Réseau scolaire Scolaris"],"lt":0,"dept":"64"}},{"type":"Feature","geometry":{"type":"Point","coordinates":[-0.32894,43.25971]},"properties":{"nom":"Eglise de Rontignon","ag":["Réseau scolaire Scolaris"],"lt":0,"dept":"64"}},{"type":"Feature","geometry":{"type":"Point","coordinates":[-0.4084,43.30073]},"properties":{"nom":"Entrepreneurs","ag":["Réseau scolaire Scolaris"],"lt":0,"dept":"64"}},{"type":"Feature","geometry":{"type":"Point","coordinates":[-0.36177,43.2998]},"properties":{"nom":"PAU Faisans (Lycee St Cricq)","ag":["Réseau scolaire Scolaris"],"lt":0,"dept":"64"}},{"type":"Feature","geometry":{"type":"Point","coordinates":[-0.24155,43.27731]},"properties":{"nom":"ARTIGUELOUTAN Fontaine","ag":["Réseau scolaire Scolaris"],"lt":0,"dept":"64"}},{"type":"Feature","geometry":{"type":"Point","coordinates":[-0.37781,43.31428]},"properties":{"nom":"PAU Fouchet (Institut St Dominique)","ag":["Réseau scolaire Scolaris"],"lt":0,"dept":"64"}},{"type":"Feature","geometry":{"type":"Point","coordinates":[-0.37468,43.28434]},"properties":{"nom":"Lycee des Metiers de l'Habitat","ag":["Réseau scolaire Scolaris"],"lt":0,"dept":"64"}},{"type":"Feature","geometry":{"type":"Point","coordinates":[-0.3905,43.31546]},"properties":{"nom":"Genets","ag":["Réseau scolaire Scolaris"],"lt":0,"dept":"64"}},{"type":"Feature","geometry":{"type":"Point","coordinates":[-0.33944,43.31722]},"properties":{"nom":"Guilhem","ag":["Réseau scolaire Scolaris"],"lt":0,"dept":"64"}},{"type":"Feature","geometry":{"type":"Point","coordinates":[-0.33646,43.37658]},"properties":{"nom":"Guilhou","ag":["Réseau scolaire Scolaris"],"lt":0,"dept":"64"}},{"type":"Feature","geometry":{"type":"Point","coordinates":[-0.42932,43.17829]},"properties":{"nom":"GAN Auberge Bearnaise","ag":["Réseau scolaire Scolaris"],"lt":0,"dept":"64"}},{"type":"Feature","geometry":{"type":"Point","coordinates":[-0.3397,43.32035]},"properties":{"nom":"PAU Hibiscus","ag":["Réseau scolaire Scolaris"],"lt":0,"dept":"64"}},{"type":"Feature","geometry":{"type":"Point","coordinates":[-0.30596,43.30093]},"properties":{"nom":"IDRON Stade d'Idron","ag":["Réseau scolaire Scolaris"],"lt":0,"dept":"64"}},{"type":"Feature","geometry":{"type":"Point","coordinates":[-0.35082,43.4187]},"properties":{"nom":"NAVAILLES ANGOS Impasse de la Nationale","ag":["Réseau scolaire Scolaris"],"lt":0,"dept":"64"}},{"type":"Feature","geometry":{"type":"Point","coordinates":[-0.38494,43.28433]},"properties":{"nom":"JURANCON College E. Gabard","ag":["Réseau scolaire Scolaris"],"lt":0,"dept":"64"}},{"type":"Feature","geometry":{"type":"Point","coordinates":[-0.39045,43.28736]},"properties":{"nom":"JURANCON Mairie de Jurancon","ag":["Réseau scolaire Scolaris"],"lt":0,"dept":"64"}},{"type":"Feature","geometry":{"type":"Point","coordinates":[-0.39212,43.40099]},"properties":{"nom":"Ensoureyado","ag":["Réseau scolaire Scolaris"],"lt":0,"dept":"64"}},{"type":"Feature","geometry":{"type":"Point","coordinates":[-0.34479,43.372]},"properties":{"nom":"Lescloupe","ag":["Réseau scolaire Scolaris"],"lt":0,"dept":"64"}},{"type":"Feature","geometry":{"type":"Point","coordinates":[-0.44753,43.30823]},"properties":{"nom":"Labat Camy","ag":["Réseau scolaire Scolaris"],"lt":0,"dept":"64"}},{"type":"Feature","geometry":{"type":"Point","coordinates":[-0.29206,43.28747]},"properties":{"nom":"Ecole de Lee","ag":["Réseau scolaire Scolaris"],"lt":0,"dept":"64"}},{"type":"Feature","geometry":{"type":"Point","coordinates":[-0.29135,43.28897]},"properties":{"nom":"LEE Pont de Lee","ag":["Réseau scolaire Scolaris"],"lt":0,"dept":"64"}},{"type":"Feature","geometry":{"type":"Point","coordinates":[-0.39966,43.40061]},"properties":{"nom":"Platanes","ag":["Réseau scolaire Scolaris"],"lt":0,"dept":"64"}},{"type":"Feature","geometry":{"type":"Point","coordinates":[-0.42994,43.33407]},"properties":{"nom":"LESCAR College Notre Dame","ag":["Réseau scolaire Scolaris"],"lt":0,"dept":"64"}},{"type":"Feature","geometry":{"type":"Point","coordinates":[-0.43523,43.33073]},"properties":{"nom":"LESCAR Lycee J. Monod","ag":["Réseau scolaire Scolaris"],"lt":0,"dept":"64"}},{"type":"Feature","geometry":{"type":"Point","coordinates":[-0.36526,43.38652]},"properties":{"nom":"Griffous","ag":["Réseau scolaire Scolaris"],"lt":0,"dept":"64"}},{"type":"Feature","geometry":{"type":"Point","coordinates":[-0.41371,43.31759]},"properties":{"nom":"Eglise","ag":["Réseau scolaire Scolaris"],"lt":0,"dept":"64"}},{"type":"Feature","geometry":{"type":"Point","coordinates":[-0.40937,43.31615]},"properties":{"nom":"Mairie de Lons","ag":["Réseau scolaire Scolaris"],"lt":0,"dept":"64"}},{"type":"Feature","geometry":{"type":"Point","coordinates":[-0.40631,43.30826]},"properties":{"nom":"Vert Galant","ag":["Réseau scolaire Scolaris"],"lt":0,"dept":"64"}},{"type":"Feature","geometry":{"type":"Point","coordinates":[-0.34479,43.38314]},"properties":{"nom":"Lotissement le Cervin","ag":["Réseau scolaire Scolaris"],"lt":0,"dept":"64"}},{"type":"Feature","geometry":{"type":"Point","coordinates":[-0.36982,43.41074]},"properties":{"nom":"SAUVAGNON Haute Vue","ag":["Réseau scolaire Scolaris"],"lt":0,"dept":"64"}},{"type":"Feature","geometry":{"type":"Point","coordinates":[-0.36418,43.42175]},"properties":{"nom":"Lotissement Provence","ag":["Réseau scolaire Scolaris"],"lt":0,"dept":"64"}},{"type":"Feature","geometry":{"type":"Point","coordinates":[-0.41416,43.38685]},"properties":{"nom":"Icare","ag":["Réseau scolaire Scolaris"],"lt":0,"dept":"64"}},{"type":"Feature","geometry":{"type":"Point","coordinates":[-0.4489,43.30979]},"properties":{"nom":"Le Regain","ag":["Réseau scolaire Scolaris"],"lt":0,"dept":"64"}},{"type":"Feature","geometry":{"type":"Point","coordinates":[-0.35607,43.31722]},"properties":{"nom":"PAU LP H. Baradat","ag":["Réseau scolaire Scolaris"],"lt":0,"dept":"64"}},{"type":"Feature","geometry":{"type":"Point","coordinates":[-0.27611,43.33824]},"properties":{"nom":"MORLAAS LP Haute Vue","ag":["Réseau scolaire Scolaris"],"lt":0,"dept":"64"}},{"type":"Feature","geometry":{"type":"Point","coordinates":[-0.40124,43.29207]},"properties":{"nom":"JURANCON Lycee A. Campa","ag":["Réseau scolaire Scolaris"],"lt":0,"dept":"64"}},{"type":"Feature","geometry":{"type":"Point","coordinates":[-0.36573,43.31909]},"properties":{"nom":"PAU Lycee St John Perse","ag":["Réseau scolaire Scolaris"],"lt":0,"dept":"64"}},{"type":"Feature","geometry":{"type":"Point","coordinates":[-0.39238,43.32985]},"properties":{"nom":"Verderie","ag":["Réseau scolaire Scolaris"],"lt":0,"dept":"64"}},{"type":"Feature","geometry":{"type":"Point","coordinates":[-0.38396,43.2185]},"properties":{"nom":"GAN Merce","ag":["Réseau scolaire Scolaris"],"lt":0,"dept":"64"}},{"type":"Feature","geometry":{"type":"Point","coordinates":[-0.33189,43.37769]},"properties":{"nom":"Bareilles","ag":["Réseau scolaire Scolaris"],"lt":0,"dept":"64"}},{"type":"Feature","geometry":{"type":"Point","coordinates":[-0.34874,43.36852]},"properties":{"nom":"Centre Commercial","ag":["Réseau scolaire Scolaris"],"lt":0,"dept":"64"}},{"type":"Feature","geometry":{"type":"Point","coordinates":[-0.34276,43.37504]},"properties":{"nom":"Mairie de Montardon","ag":["Réseau scolaire Scolaris"],"lt":0,"dept":"64"}},{"type":"Feature","geometry":{"type":"Point","coordinates":[-0.38188,43.27068]},"properties":{"nom":"JURANCON Montfleuri","ag":["Réseau scolaire Scolaris"],"lt":0,"dept":"64"}},{"type":"Feature","geometry":{"type":"Point","coordinates":[-0.26163,43.34095]},"properties":{"nom":"MORLAAS College La Hourquie","ag":["Réseau scolaire Scolaris"],"lt":0,"dept":"64"}},{"type":"Feature","geometry":{"type":"Point","coordinates":[-0.2511,43.33947]},"properties":{"nom":"MORLAAS Communaute de Communes","ag":["Réseau scolaire Scolaris"],"lt":0,"dept":"64"}},{"type":"Feature","geometry":{"type":"Point","coordinates":[-0.24898,43.33528]},"properties":{"nom":"DDE de Morlaas","ag":["Réseau scolaire Scolaris"],"lt":0,"dept":"64"}},{"type":"Feature","geometry":{"type":"Point","coordinates":[-0.26348,43.345]},"properties":{"nom":"Mairie de Morlaas","ag":["Réseau scolaire Scolaris"],"lt":0,"dept":"64"}},{"type":"Feature","geometry":{"type":"Point","coordinates":[-0.26243,43.34874]},"properties":{"nom":"MORLAAS Piscine","ag":["Réseau scolaire Scolaris"],"lt":0,"dept":"64"}},{"type":"Feature","geometry":{"type":"Point","coordinates":[-0.34227,43.41589]},"properties":{"nom":"Foyer","ag":["Réseau scolaire Scolaris"],"lt":0,"dept":"64"}},{"type":"Feature","geometry":{"type":"Point","coordinates":[-0.38123,43.32478]},"properties":{"nom":"LONS Ossau","ag":["Réseau scolaire Scolaris"],"lt":0,"dept":"64"}},{"type":"Feature","geometry":{"type":"Point","coordinates":[-0.26869,43.28331]},"properties":{"nom":"Mairie d'Ousse","ag":["Réseau scolaire Scolaris"],"lt":0,"dept":"64"}},{"type":"Feature","geometry":{"type":"Point","coordinates":[-0.36833,43.35874]},"properties":{"nom":"MONTARDON Lycee Agricole","ag":["Réseau scolaire Scolaris"],"lt":0,"dept":"64"}},{"type":"Feature","geometry":{"type":"Point","coordinates":[-0.37609,43.28159]},"properties":{"nom":"GELOS Peyrou","ag":["Réseau scolaire Scolaris"],"lt":0,"dept":"64"}},{"type":"Feature","geometry":{"type":"Point","coordinates":[-0.3393,43.40905]},"properties":{"nom":"Pl. Edmond Jaymes","ag":["Réseau scolaire Scolaris"],"lt":0,"dept":"64"}},{"type":"Feature","geometry":{"type":"Point","coordinates":[-0.43599,43.39801]},"properties":{"nom":"UZEIN Place du Lanot","ag":["Réseau scolaire Scolaris"],"lt":0,"dept":"64"}},{"type":"Feature","geometry":{"type":"Point","coordinates":[-0.45878,43.35353]},"properties":{"nom":"Cami Salie","ag":["Réseau scolaire Scolaris"],"lt":0,"dept":"64"}},{"type":"Feature","geometry":{"type":"Point","coordinates":[-0.45189,43.35045]},"properties":{"nom":"POEY DE LESCAR Cassourets","ag":["Réseau scolaire Scolaris"],"lt":0,"dept":"64"}},{"type":"Feature","geometry":{"type":"Point","coordinates":[-0.46951,43.34309]},"properties":{"nom":"Chemin de Pau","ag":["Réseau scolaire Scolaris"],"lt":0,"dept":"64"}},{"type":"Feature","geometry":{"type":"Point","coordinates":[-0.46946,43.34656]},"properties":{"nom":"Chemin du Chateau","ag":["Réseau scolaire Scolaris"],"lt":0,"dept":"64"}},{"type":"Feature","geometry":{"type":"Point","coordinates":[-0.46269,43.35356]},