{"type":"FeatureCollection","features":[{"type":"Feature","geometry":{"type":"Point","coordinates":[4.80425,45.88813]},"properties":{"nom":"SNCF","ag":["Réseau interurbain - Ain (01)","Agrégat des réseaux urbains et interurbains d'Auvergne-Rhône-Alpes"],"lt":0,"dept":"69"}},{"type":"Feature","geometry":{"type":"Point","coordinates":[4.71563,45.98887]},"properties":{"nom":"Ville","ag":["Réseau interurbain - Ain (01)","Agrégat des réseaux urbains et interurbains d'Auvergne-Rhône-Alpes"],"lt":0,"dept":"69"}},{"type":"Feature","geometry":{"type":"Point","coordinates":[4.88524,45.8056]},"properties":{"nom":"Crépieux","ag":["Réseau interurbain - Ain (01)","Agrégat des réseaux urbains et interurbains d'Auvergne-Rhône-Alpes"],"lt":0,"dept":"69"}},{"type":"Feature","geometry":{"type":"Point","coordinates":[4.89903,45.80806]},"properties":{"nom":"Castellane","ag":["Réseau interurbain - Ain (01)","Agrégat des réseaux urbains et interurbains d'Auvergne-Rhône-Alpes"],"lt":0,"dept":"69"}},{"type":"Feature","geometry":{"type":"Point","coordinates":[4.86085,45.79085]},"properties":{"nom":"Saint-Clair","ag":["Réseau interurbain - Ain (01)","Agrégat des réseaux urbains et interurbains d'Auvergne-Rhône-Alpes"],"lt":0,"dept":"69"}},{"type":"Feature","geometry":{"type":"Point","coordinates":[4.83772,45.7592]},"properties":{"nom":"Pont Guillotière","ag":["Réseau interurbain - Ain (01)","Agrégat des réseaux urbains et interurbains d'Auvergne-Rhône-Alpes"],"lt":0,"dept":"69"}},{"type":"Feature","geometry":{"type":"Point","coordinates":[4.72962,46.11236]},"properties":{"nom":"Gare SNCF","ag":["Réseau interurbain - Ain (01)","Agrégat des réseaux urbains et interurbains d'Auvergne-Rhône-Alpes"],"lt":0,"dept":"69"}},{"type":"Feature","geometry":{"type":"Point","coordinates":[4.83794,45.76856]},"properties":{"nom":"Hôtel de Ville L. Pradel","ag":["Réseau interurbain - Ain (01)","Agrégat des réseaux urbains et interurbains d'Auvergne-Rhône-Alpes"],"lt":0,"dept":"69"}},{"type":"Feature","geometry":{"type":"Point","coordinates":[4.71996,45.98365]},"properties":{"nom":"Gare Routière","ag":["Réseau interurbain - Ain (01)","Agrégat des réseaux urbains et interurbains d'Auvergne-Rhône-Alpes"],"lt":0,"dept":"69"}},{"type":"Feature","geometry":{"type":"Point","coordinates":[4.76637,46.15716]},"properties":{"nom":"Village","ag":["Réseau interurbain - Ain (01)","Agrégat des réseaux urbains et interurbains d'Auvergne-Rhône-Alpes"],"lt":0,"dept":"69"}},{"type":"Feature","geometry":{"type":"Point","coordinates":[4.88018,45.8025]},"properties":{"nom":"Buissière Viralamande","ag":["Réseau interurbain - Ain (01)","Agrégat des réseaux urbains et interurbains d'Auvergne-Rhône-Alpes"],"lt":0,"dept":"69"}},{"type":"Feature","geometry":{"type":"Point","coordinates":[4.88327,45.80428]},"properties":{"nom":"Buissière Viralamande","ag":["Réseau interurbain - Ain (01)","Agrégat des réseaux urbains et interurbains d'Auvergne-Rhône-Alpes"],"lt":0,"dept":"69"}},{"type":"Feature","geometry":{"type":"Point","coordinates":[4.89292,45.80734]},"properties":{"nom":"Pelletière","ag":["Réseau interurbain - Ain (01)","Agrégat des réseaux urbains et interurbains d'Auvergne-Rhône-Alpes"],"lt":0,"dept":"69"}},{"type":"Feature","geometry":{"type":"Point","coordinates":[4.90654,45.80834]},"properties":{"nom":"Sablière","ag":["Réseau interurbain - Ain (01)","Agrégat des réseaux urbains et interurbains d'Auvergne-Rhône-Alpes"],"lt":0,"dept":"69"}},{"type":"Feature","geometry":{"type":"Point","coordinates":[4.91286,45.8081]},"properties":{"nom":"Crépieux Bros.","ag":["Réseau interurbain - Ain (01)","Agrégat des réseaux urbains et interurbains d'Auvergne-Rhône-Alpes"],"lt":0,"dept":"69"}},{"type":"Feature","geometry":{"type":"Point","coordinates":[4.83841,45.76381]},"properties":{"nom":"Cordeliers","ag":["Réseau interurbain - Ain (01)","Agrégat des réseaux urbains et interurbains d'Auvergne-Rhône-Alpes"],"lt":0,"dept":"69"}},{"type":"Feature","geometry":{"type":"Point","coordinates":[4.83788,45.76097]},"properties":{"nom":"Pont Wilson Rive Droite","ag":["Réseau interurbain - Ain (01)","Agrégat des réseaux urbains et interurbains d'Auvergne-Rhône-Alpes"],"lt":0,"dept":"69"}},{"type":"Feature","geometry":{"type":"Point","coordinates":[4.87739,45.80039]},"properties":{"nom":"Vieux Crépieux","ag":["Réseau interurbain - Ain (01)","Agrégat des réseaux urbains et interurbains d'Auvergne-Rhône-Alpes"],"lt":0,"dept":"69"}},{"type":"Feature","geometry":{"type":"Point","coordinates":[4.87569,45.79717]},"properties":{"nom":"Panorama","ag":["Réseau interurbain - Ain (01)","Agrégat des réseaux urbains et interurbains d'Auvergne-Rhône-Alpes"],"lt":0,"dept":"69"}},{"type":"Feature","geometry":{"type":"Point","coordinates":[4.87134,45.79367]},"properties":{"nom":"Peuplier","ag":["Réseau interurbain - Ain (01)","Agrégat des réseaux urbains et interurbains d'Auvergne-Rhône-Alpes"],"lt":0,"dept":"69"}},{"type":"Feature","geometry":{"type":"Point","coordinates":[4.86618,45.79181]},"properties":{"nom":"Vassieux","ag":["Réseau interurbain - Ain (01)","Agrégat des réseaux urbains et interurbains d'Auvergne-Rhône-Alpes"],"lt":0,"dept":"69"}},{"type":"Feature","geometry":{"type":"Point","coordinates":[4.83873,45.77385]},"properties":{"nom":"Pont de Lattre Rive Droite","ag":["Réseau interurbain - Ain (01)","Agrégat des réseaux urbains et interurbains d'Auvergne-Rhône-Alpes"],"lt":0,"dept":"69"}},{"type":"Feature","geometry":{"type":"Point","coordinates":[4.8383,45.87742]},"properties":{"nom":"Pont Rive Gauche","ag":["Réseau interurbain - Ain (01)","Agrégat des réseaux urbains et interurbains d'Auvergne-Rhône-Alpes"],"lt":0,"dept":"69"}},{"type":"Feature","geometry":{"type":"Point","coordinates":[4.8259,45.89048]},"properties":{"nom":"Z.I. Neuville Genay","ag":["Réseau interurbain - Ain (01)","Agrégat des réseaux urbains et interurbains d'Auvergne-Rhône-Alpes"],"lt":0,"dept":"69"}},{"type":"Feature","geometry":{"type":"Point","coordinates":[4.85708,45.78473]},"properties":{"nom":"Cité Internationale","ag":["Réseau interurbain - Ain (01)","Agrégat des réseaux urbains et interurbains d'Auvergne-Rhône-Alpes"],"lt":0,"dept":"69"}},{"type":"Feature","geometry":{"type":"Point","coordinates":[4.85248,45.78376]},"properties":{"nom":"Musée Art Contemprain","ag":["Réseau interurbain - Ain (01)","Agrégat des réseaux urbains et interurbains d'Auvergne-Rhône-Alpes"],"lt":0,"dept":"69"}},{"type":"Feature","geometry":{"type":"Point","coordinates":[4.84933,45.78214]},"properties":{"nom":"Interpol","ag":["Réseau interurbain - Ain (01)","Agrégat des réseaux urbains et interurbains d'Auvergne-Rhône-Alpes"],"lt":0,"dept":"69"}},{"type":"Feature","geometry":{"type":"Point","coordinates":[4.84454,45.77797]},"properties":{"nom":"Parc Tête d'Or Churchill","ag":["Réseau interurbain - Ain (01)","Agrégat des réseaux urbains et interurbains d'Auvergne-Rhône-Alpes"],"lt":0,"dept":"69"}},{"type":"Feature","geometry":{"type":"Point","coordinates":[4.86339,45.79149]},"properties":{"nom":"Poumeyrol","ag":["Réseau interurbain - Ain (01)","Agrégat des réseaux urbains et interurbains d'Auvergne-Rhône-Alpes"],"lt":0,"dept":"69"}},{"type":"Feature","geometry":{"type":"Point","coordinates":[4.84094,45.77877]},"properties":{"nom":"Pont Churchill Rive Droite","ag":["Réseau interurbain - Ain (01)","Agrégat des réseaux urbains et interurbains d'Auvergne-Rhône-Alpes"],"lt":0,"dept":"69"}},{"type":"Feature","geometry":{"type":"Point","coordinates":[4.74762,46.10632]},"properties":{"nom":"Champ de Foire","ag":["Réseau interurbain - Ain (01)","Agrégat des réseaux urbains et interurbains d'Auvergne-Rhône-Alpes"],"lt":0,"dept":"69"}},{"type":"Feature","geometry":{"type":"Point","coordinates":[4.78976,45.58556]},"properties":{"nom":"Charnevaux","ag":["Agrégat des réseaux urbains et interurbains d'Auvergne-Rhône-Alpes","Réseau urbain L'va"],"lt":0,"dept":"69"}},{"type":"Feature","geometry":{"type":"Point","coordinates":[4.7982,45.58545]},"properties":{"nom":"Les Barbières 19 mars 1962","ag":["Agrégat des réseaux urbains et interurbains d'Auvergne-Rhône-Alpes","Réseau urbain L'va"],"lt":0,"dept":"69"}},{"type":"Feature","geometry":{"type":"Point","coordinates":[4.798,45.5857]},"properties":{"nom":"Les Barbières 19 mars 1962","ag":["Agrégat des réseaux urbains et interurbains d'Auvergne-Rhône-Alpes","Réseau urbain L'va"],"lt":0,"dept":"69"}},{"type":"Feature","geometry":{"type":"Point","coordinates":[4.79053,45.58523]},"properties":{"nom":"Cité Berquet","ag":["Agrégat des réseaux urbains et interurbains d'Auvergne-Rhône-Alpes","Réseau urbain L'va"],"lt":0,"dept":"69"}},{"type":"Feature","geometry":{"type":"Point","coordinates":[4.79165,45.58332]},"properties":{"nom":"Cité Berquet","ag":["Agrégat des réseaux urbains et interurbains d'Auvergne-Rhône-Alpes","Réseau urbain L'va"],"lt":0,"dept":"69"}},{"type":"Feature","geometry":{"type":"Point","coordinates":[4.81065,45.57592]},"properties":{"nom":"Centre Commercial Devalors","ag":["Agrégat des réseaux urbains et interurbains d'Auvergne-Rhône-Alpes","Réseau urbain L'va"],"lt":0,"dept":"69"}},{"type":"Feature","geometry":{"type":"Point","coordinates":[4.81059,45.57585]},"properties":{"nom":"Centre Commercial Devalors","ag":["Agrégat des réseaux urbains et interurbains d'Auvergne-Rhône-Alpes","Réseau urbain L'va"],"lt":0,"dept":"69"}},{"type":"Feature","geometry":{"type":"Point","coordinates":[4.80291,45.5838]},"properties":{"nom":"Cimetière de Chasse","ag":["Agrégat des réseaux urbains et interurbains d'Auvergne-Rhône-Alpes","Réseau urbain L'va"],"lt":0,"dept":"69"}},{"type":"Feature","geometry":{"type":"Point","coordinates":[4.80279,45.58398]},"properties":{"nom":"Cimetière de Chasse","ag":["Agrégat des réseaux urbains et interurbains d'Auvergne-Rhône-Alpes","Réseau urbain L'va"],"lt":0,"dept":"69"}},{"type":"Feature","geometry":{"type":"Point","coordinates":[4.80593,45.58017]},"properties":{"nom":"Place Jules Ferry","ag":["Agrégat des réseaux urbains et interurbains d'Auvergne-Rhône-Alpes","Réseau urbain L'va"],"lt":0,"dept":"69"}},{"type":"Feature","geometry":{"type":"Point","coordinates":[4.80574,45.58016]},"properties":{"nom":"Place Jules Ferry","ag":["Agrégat des réseaux urbains et interurbains d'Auvergne-Rhône-Alpes","Réseau urbain L'va"],"lt":0,"dept":"69"}},{"type":"Feature","geometry":{"type":"Point","coordinates":[4.78724,45.58695]},"properties":{"nom":"Rond-Point Flevieu","ag":["Agrégat des réseaux urbains et interurbains d'Auvergne-Rhône-Alpes","Réseau urbain L'va"],"lt":0,"dept":"69"}},{"type":"Feature","geometry":{"type":"Point","coordinates":[4.78707,45.58674]},"properties":{"nom":"Rond-Point Flevieu","ag":["Agrégat des réseaux urbains et interurbains d'Auvergne-Rhône-Alpes","Réseau urbain L'va"],"lt":0,"dept":"69"}},{"type":"Feature","geometry":{"type":"Point","coordinates":[4.80813,45.57862]},"properties":{"nom":"Mairie Chasse","ag":["Agrégat des réseaux urbains et interurbains d'Auvergne-Rhône-Alpes","Réseau urbain L'va"],"lt":0,"dept":"69"}},{"type":"Feature","geometry":{"type":"Point","coordinates":[4.80806,45.57852]},"properties":{"nom":"Mairie Chasse","ag":["Agrégat des réseaux urbains et interurbains d'Auvergne-Rhône-Alpes","Réseau urbain L'va"],"lt":0,"dept":"69"}},{"type":"Feature","geometry":{"type":"Point","coordinates":[4.7976,45.58315]},"properties":{"nom":"Avenue F. Mitterrand","ag":["Agrégat des réseaux urbains et interurbains d'Auvergne-Rhône-Alpes","Réseau urbain L'va"],"lt":0,"dept":"69"}},{"type":"Feature","geometry":{"type":"Point","coordinates":[4.79826,45.58323]},"properties":{"nom":"Avenue F. Mitterrand","ag":["Agrégat des réseaux urbains et interurbains d'Auvergne-Rhône-Alpes","Réseau urbain L'va"],"lt":0,"dept":"69"}},{"type":"Feature","geometry":{"type":"Point","coordinates":[4.81268,45.58723]},"properties":{"nom":"Z.I. des Platières","ag":["Agrégat des réseaux urbains et interurbains d'Auvergne-Rhône-Alpes","Réseau urbain L'va"],"lt":0,"dept":"69"}},{"type":"Feature","geometry":{"type":"Point","coordinates":[4.79392,45.58121]},"properties":{"nom":"Quartier Gare","ag":["Agrégat des réseaux urbains et interurbains d'Auvergne-Rhône-Alpes","Réseau urbain L'va"],"lt":0,"dept":"69"}},{"type":"Feature","geometry":{"type":"Point","coordinates":[4.81318,45.58519]},"properties":{"nom":"G. Brassens","ag":["Agrégat des réseaux urbains et interurbains d'Auvergne-Rhône-Alpes","Réseau urbain L'va"],"lt":0,"dept":"69"}},{"type":"Feature","geometry":{"type":"Point","coordinates":[4.81314,45.58522]},"properties":{"nom":"G. Brassens","ag":["Agrégat des réseaux urbains et interurbains d'Auvergne-Rhône-Alpes","Réseau urbain L'va"],"lt":0,"dept":"69"}},{"type":"Feature","geometry":{"type":"Point","coordinates":[4.79543,45.58174]},"properties":{"nom":"Quartier Gare","ag":["Agrégat des réseaux urbains et interurbains d'Auvergne-Rhône-Alpes","Réseau urbain L'va"],"lt":0,"dept":"69"}},{"type":"Feature","geometry":{"type":"Point","coordinates":[4.81147,45.58454]},"properties":{"nom":"Le Lot / Soulins","ag":["Agrégat des réseaux urbains et interurbains d'Auvergne-Rhône-Alpes","Réseau urbain L'va"],"lt":0,"dept":"69"}},{"type":"Feature","geometry":{"type":"Point","coordinates":[4.81141,45.58462]},"properties":{"nom":"Le Lot / Soulins","ag":["Agrégat des réseaux urbains et interurbains d'Auvergne-Rhône-Alpes","Réseau urbain L'va"],"lt":0,"dept":"69"}},{"type":"Feature","geometry":{"type":"Point","coordinates":[4.81995,45.58287]},"properties":{"nom":"Les 4 Vents","ag":["Agrégat des réseaux urbains et interurbains d'Auvergne-Rhône-Alpes","Réseau urbain L'va"],"lt":0,"dept":"69"}},{"type":"Feature","geometry":{"type":"Point","coordinates":[4.82007,45.58301]},"properties":{"nom":"Les 4 Vents","ag":["Agrégat des réseaux urbains et interurbains d'Auvergne-Rhône-Alpes","Réseau urbain L'va"],"lt":0,"dept":"69"}},{"type":"Feature","geometry":{"type":"Point","coordinates":[4.80556,45.58026]},"properties":{"nom":"Ecole Primaire Chasse","ag":["Agrégat des réseaux urbains et interurbains d'Auvergne-Rhône-Alpes","Réseau urbain L'va"],"lt":0,"dept":"69"}},{"type":"Feature","geometry":{"type":"Point","coordinates":[4.80545,45.58029]},"properties":{"nom":"Ecole Primaire Chasse","ag":["Agrégat des réseaux urbains et interurbains d'Auvergne-Rhône-Alpes","Réseau urbain L'va"],"lt":0,"dept":"69"}},{"type":"Feature","geometry":{"type":"Point","coordinates":[4.79921,45.5825]},"properties":{"nom":"Quartier Château","ag":["Agrégat des réseaux urbains et interurbains d'Auvergne-Rhône-Alpes","Réseau urbain L'va"],"lt":0,"dept":"69"}},{"type":"Feature","geometry":{"type":"Point","coordinates":[4.79912,45.58257]},"properties":{"nom":"Quartier Château","ag":["Agrégat des réseaux urbains et interurbains d'Auvergne-Rhône-Alpes","Réseau urbain L'va"],"lt":0,"dept":"69"}},{"type":"Feature","geometry":{"type":"Point","coordinates":[4.81377,45.58281]},"properties":{"nom":"Saint Martin","ag":["Agrégat des réseaux urbains et interurbains d'Auvergne-Rhône-Alpes","Réseau urbain L'va"],"lt":0,"dept":"69"}},{"type":"Feature","geometry":{"type":"Point","coordinates":[4.81365,45.58285]},"properties":{"nom":"Saint Martin","ag":["Agrégat des réseaux urbains et interurbains d'Auvergne-Rhône-Alpes","Réseau urbain L'va"],"lt":0,"dept":"69"}},{"type":"Feature","geometry":{"type":"Point","coordinates":[4.79852,45.57731]},"properties":{"nom":"Quartier Rhône","ag":["Agrégat des réseaux urbains et interurbains d'Auvergne-Rhône-Alpes","Réseau urbain L'va"],"lt":0,"dept":"69"}},{"type":"Feature","geometry":{"type":"Point","coordinates":[4.99419,45.61561]},"properties":{"nom":"Romatières","ag":["Agrégat des réseaux urbains et interurbains d'Auvergne-Rhône-Alpes","Réseau interurbain - Isère (38)"],"lt":0,"dept":"69"}},{"type":"Feature","geometry":{"type":"Point","coordinates":[4.99419,45.61559]},"properties":{"nom":"Romatières","ag":["Agrégat des réseaux urbains et interurbains d'Auvergne-Rhône-Alpes","Réseau interurbain - Isère (38)"],"lt":0,"dept":"69"}},{"type":"Feature","geometry":{"type":"Point","coordinates":[4.83375,45.50328]},"properties":{"nom":"Verenay","ag":["Agrégat des réseaux urbains et interurbains d'Auvergne-Rhône-Alpes","Réseau interurbain - Loire (42)"],"lt":0,"dept":"69"}},{"type":"Feature","geometry":{"type":"Point","coordinates":[4.80846,45.48873]},"properties":{"nom":"Mairie","ag":["Agrégat des réseaux urbains et interurbains d'Auvergne-Rhône-Alpes","Réseau interurbain - Loire (42)"],"lt":0,"dept":"69"}},{"type":"Feature","geometry":{"type":"Point","coordinates":[4.7991,45.48741]},"properties":{"nom":"Goutey","ag":["Agrégat des réseaux urbains et interurbains d'Auvergne-Rhône-Alpes","Réseau interurbain - Loire (42)"],"lt":0,"dept":"69"}},{"type":"Feature","geometry":{"type":"Point","coordinates":[4.80833,45.48847]},"properties":{"nom":"Mairie","ag":["Agrégat des réseaux urbains et interurbains d'Auvergne-Rhône-Alpes","Réseau interurbain - Loire (42)"],"lt":0,"dept":"69"}},{"type":"Feature","geometry":{"type":"Point","coordinates":[4.81455,45.4907]},"properties":{"nom":"Roche","ag":["Agrégat des réseaux urbains et interurbains d'Auvergne-Rhône-Alpes","Réseau interurbain - Loire (42)"],"lt":0,"dept":"69"}},{"type":"Feature","geometry":{"type":"Point","coordinates":[4.81509,45.49069]},"properties":{"nom":"Roche","ag":["Agrégat des réseaux urbains et interurbains d'Auvergne-Rhône-Alpes","Réseau interurbain - Loire (42)"],"lt":0,"dept":"69"}},{"type":"Feature","geometry":{"type":"Point","coordinates":[4.83388,45.50314]},"properties":{"nom":"Verenay","ag":["Agrégat des réseaux urbains et interurbains d'Auvergne-Rhône-Alpes","Réseau interurbain - Loire (42)"],"lt":0,"dept":"69"}},{"type":"Feature","geometry":{"type":"Point","coordinates":[4.78257,45.49886]},"properties":{"nom":"Boucharey","ag":["Agrégat des réseaux urbains et interurbains d'Auvergne-Rhône-Alpes","Réseau urbain L'va"],"lt":0,"dept":"69"}},{"type":"Feature","geometry":{"type":"Point","coordinates":[4.78247,45.49875]},"properties":{"nom":"Boucharey","ag":["Agrégat des réseaux urbains et interurbains d'Auvergne-Rhône-Alpes","Réseau urbain L'va"],"lt":0,"dept":"69"}},{"type":"Feature","geometry":{"type":"Point","coordinates":[4.80213,45.50163]},"properties":{"nom":"Carrefour du Champin","ag":["Agrégat des réseaux urbains et interurbains d'Auvergne-Rhône-Alpes","Réseau urbain L'va"],"lt":0,"dept":"69"}},{"type":"Feature","geometry":{"type":"Point","coordinates":[4.78763,45.50447]},"properties":{"nom":"Côte Ferrée","ag":["Agrégat des réseaux urbains et interurbains d'Auvergne-Rhône-Alpes","Réseau urbain L'va"],"lt":0,"dept":"69"}},{"type":"Feature","geometry":{"type":"Point","coordinates":[4.78782,45.50451]},"properties":{"nom":"Côté Ferrée","ag":["Agrégat des réseaux urbains et interurbains d'Auvergne-Rhône-Alpes","Réseau urbain L'va"],"lt":0,"dept":"69"}},{"type":"Feature","geometry":{"type":"Point","coordinates":[4.80864,45.48877]},"properties":{"nom":"Place de l'Eglise","ag":["Agrégat des réseaux urbains et interurbains d'Auvergne-Rhône-Alpes","Réseau urbain L'va"],"lt":0,"dept":"69"}},{"type":"Feature","geometry":{"type":"Point","coordinates":[4.8105,45.48925]},"properties":{"nom":"Place de l'Eglise","ag":["Agrégat des réseaux urbains et interurbains d'Auvergne-Rhône-Alpes","Réseau urbain L'va"],"lt":0,"dept":"69"}},{"type":"Feature","geometry":{"type":"Point","coordinates":[4.81169,45.51255]},"properties":{"nom":"Ferme Simon","ag":["Agrégat des réseaux urbains et interurbains d'Auvergne-Rhône-Alpes","Réseau urbain L'va"],"lt":0,"dept":"69"}},{"type":"Feature","geometry":{"type":"Point","coordinates":[4.81152,45.51249]},"properties":{"nom":"Ferme Simon","ag":["Agrégat des réseaux urbains et interurbains d'Auvergne-Rhône-Alpes","Réseau urbain L'va"],"lt":0,"dept":"69"}},{"type":"Feature","geometry":{"type":"Point","coordinates":[4.79797,45.5038]},"properties":{"nom":"Le Giraud","ag":["Agrégat des réseaux urbains et interurbains d'Auvergne-Rhône-Alpes","Réseau urbain L'va"],"lt":0,"dept":"69"}},{"type":"Feature","geometry":{"type":"Point","coordinates":[4.78496,45.51988]},"properties":{"nom":"Le Girard","ag":["Agrégat des réseaux urbains et interurbains d'Auvergne-Rhône-Alpes","Réseau urbain L'va"],"lt":0,"dept":"69"}},{"type":"Feature","geometry":{"type":"Point","coordinates":[4.7851,45.51991]},"properties":{"nom":"Le Girard","ag":["Agrégat des réseaux urbains et interurbains d'Auvergne-Rhône-Alpes","Réseau urbain L'va"],"lt":0,"dept":"69"}},{"type":"Feature","geometry":{"type":"Point","coordinates":[4.79884,45.48732]},"properties":{"nom":"Le Goutay","ag":["Agrégat des réseaux urbains et interurbains d'Auvergne-Rhône-Alpes","Réseau urbain L'va"],"lt":0,"dept":"69"}},{"type":"Feature","geometry":{"type":"Point","coordinates":[4.79731,45.48658]},"properties":{"nom":"Le Goutay","ag":["Agrégat des réseaux urbains et interurbains d'Auvergne-Rhône-Alpes","Réseau urbain L'va"],"lt":0,"dept":"69"}},{"type":"Feature","geometry":{"type":"Point","coordinates":[4.77682,45.52415]},"properties":{"nom":"Le Recru","ag":["Agrégat des réseaux urbains et interurbains d'Auvergne-Rhône-Alpes","Réseau urbain L'va"],"lt":0,"dept":"69"}},{"type":"Feature","geometry":{"type":"Point","coordinates":[4.80034,45.5]},"properties":{"nom":"Ritolas","ag":["Agrégat des réseaux urbains et interurbains d'Auvergne-Rhône-Alpes","Réseau urbain L'va"],"lt":0,"dept":"69"}},{"type":"Feature","geometry":{"type":"Point","coordinates":[4.81336,45.50351]},"properties":{"nom":"Rosier Lotissement","ag":["Agrégat des réseaux urbains et interurbains d'Auvergne-Rhône-Alpes","Réseau urbain L'va"],"lt":0,"dept":"69"}},{"type":"Feature","geometry":{"type":"Point","coordinates":[4.81306,45.50349]},"properties":{"nom":"Le Rosier","ag":["Agrégat des réseaux urbains et interurbains d'Auvergne-Rhône-Alpes","Réseau urbain L'va"],"lt":0,"dept":"69"}},{"type":"Feature","geometry":{"type":"Point","coordinates":[4.81461,45.49071]},"properties":{"nom":"La Roche","ag":["Agrégat des réseaux urbains et interurbains d'Auvergne-Rhône-Alpes","Réseau urbain L'va"],"lt":0,"dept":"69"}},{"type":"Feature","geometry":{"type":"Point","coordinates":[4.81524,45.49079]},"properties":{"nom":"La Roche","ag":["Agrégat des réseaux urbains et interurbains d'Auvergne-Rhône-Alpes","Réseau urbain L'va"],"lt":0,"dept":"69"}},{"type":"Feature","geometry":{"type":"Point","coordinates":[4.79006,45.49999]},"properties":{"nom":"Tartaras","ag":["Agrégat des réseaux urbains et interurbains d'Auvergne-Rhône-Alpes","Réseau urbain L'va"],"lt":0,"dept":"69"}},{"type":"Feature","geometry":{"type":"Point","coordinates":[4.79015,45.49993]},"properties":{"nom":"Tartaras","ag":["Agrégat des réseaux urbains et interurbains d'Auvergne-Rhône-Alpes","Réseau urbain L'va"],"lt":0,"dept":"69"}},{"type":"Feature","geometry":{"type":"Point","coordinates":[4.79121,45.51565]},"properties":{"nom":"Le Vallin","ag":["Agrégat des réseaux urbains et interurbains d'Auvergne-Rhône-Alpes","Réseau urbain L'va"],"lt":0,"dept":"69"}},{"type":"Feature","geometry":{"type":"Point","coordinates":[4.79132,45.51572]},"properties":{"nom":"Le Vallin","ag":["Agrégat des réseaux urbains et interurbains d'Auvergne-Rhône-Alpes","Réseau urbain L'va"],"lt":0,"dept":"69"}},{"type":"Feature","geometry":{"type":"Point","coordinates":[4.83176,45.50234]},"properties":{"nom":"Verenay","ag":["Agrégat des réseaux urbains et interurbains d'Auvergne-Rhône-Alpes","Réseau urbain L'va"],"lt":0,"dept":"69"}},{"type":"Feature","geometry":{"type":"Point","coordinates":[4.83415,45.50324]},"properties":{"nom":"Verenay","ag":["Agrégat des réseaux urbains et interurbains d'Auvergne-Rhône-Alpes","Réseau urbain L'va"],"lt":0,"dept":"69"}},{"type":"Feature","geometry":{"type":"Point","coordinates":[4.77665,45.52413]},"properties":{"nom":"Le Recru","ag":["Agrégat des réseaux urbains et interurbains d'Auvergne-Rhône-Alpes","Réseau urbain L'va"],"lt":0,"dept":"69"}},{"type":"Feature","geometry":{"type":"Point","coordinates":[4.71954,45.93932]},"properties":{"nom":"GARE TER","ag":["Agrégat des réseaux urbains et interurbains d'Auvergne-Rhône-Alpes","Réseau urbain Saônibus"],"lt":0,"dept":"69"}},{"type":"Feature","geometry":{"type":"Point","coordinates":[4.72028,46.02111]},"properties":{"nom":"Avé Maria","ag":["Agrégat des réseaux urbains et interurbains d'Auvergne-Rhône-Alpes","Réseau interurbain Cars Région Express"],"lt":0,"dept":"69"}},{"type":"Feature","geometry":{"type":"Point","coordinates":[4.72901,46.11195]},"properties":{"nom":"Belleville sur Sâone","ag":["Agrégat des réseaux urbains et interurbains d'Auvergne-Rhône-Alpes","Trains régionaux ZOU !","Réseau interurbain Cars Région Express","Réseau SNCF TGV, Intercités et TER"],"lt":0,"dept":"69"}},{"type":"Feature","geometry":{"type":"Point","coordinates":[4.76859,45.46224]},"properties":{"nom":"Collège Privé les Marronniers","ag":["Agrégat des réseaux urbains et interurbains d'Auvergne-Rhône-Alpes","Réseau interurbain - Isère (38)"],"lt":0,"dept":"69"}},{"type":"Feature","geometry":{"type":"Point","coordinates":[4.76899,45.46246]},"properties":{"nom":"Collège Privé les Marronniers","ag":["Agrégat des réseaux urbains et interurbains d'Auvergne-Rhône-Alpes","Réseau interurbain - Isère (38)"],"lt":0,"dept":"69"}},{"type":"Feature","geometry":{"type":"Point","coordinates":[4.77561,45.47082]},"properties":{"nom":"Collège le Bassenon","ag":["Agrégat des réseaux urbains et interurbains d'Auvergne-Rhône-Alpes","Réseau interurbain - Isère (38)"],"lt":0,"dept":"69"}},{"type":"Feature","geometry":{"type":"Point","coordinates":[4.77557,45.47081]},"properties":{"nom":"Collège le Bassenon","ag":["Agrégat des réseaux urbains et interurbains d'Auvergne-Rhône-Alpes","Réseau interurbain - Isère (38)"],"lt":0,"dept":"69"}},{"type":"Feature","geometry":{"type":"Point","coordinates":[4.76712,45.46134]},"properties":{"nom":"Maison Santé","ag":["Agrégat des réseaux urbains et interurbains d'Auvergne-Rhône-Alpes","Réseau interurbain - Loire (42)"],"lt":0,"dept":"69"}},{"type":"Feature","geometry":{"type":"Point","coordinates":[4.75779,45.45761]},"properties":{"nom":"Maladière","ag":["Agrégat des réseaux urbains et interurbains d'Auvergne-Rhône-Alpes","Réseau interurbain - Loire (42)"],"lt":0,"dept":"69"}},{"type":"Feature","geometry":{"type":"Point","coordinates":[4.76862,45.46239]},"properties":{"nom":"Centre","ag":["Agrégat des réseaux urbains et interurbains d'Auvergne-Rhône-Alpes","Réseau interurbain - Loire (42)"],"lt":0,"dept":"69"}},{"type":"Feature","geometry":{"type":"Point","coordinates":[4.75779,45.45752]},"properties":{"nom":"Maladière","ag":["Agrégat des réseaux urbains et interurbains d'Auvergne-Rhône-Alpes","Réseau interurbain - Loire (42)"],"lt":0,"dept":"69"}},{"type":"Feature","geometry":{"type":"Point","coordinates":[4.76877,45.46235]},"properties":{"nom":"Centre","ag":["Agrégat des réseaux urbains et interurbains d'Auvergne-Rhône-Alpes","Réseau interurbain - Loire (42)"],"lt":0,"dept":"69"}},{"type":"Feature","geometry":{"type":"Point","coordinates":[4.76725,45.46132]},"properties":{"nom":"Maison Santé","ag":["Agrégat des réseaux urbains et interurbains d'Auvergne-Rhône-Alpes","Réseau interurbain - Loire (42)"],"lt":0,"dept":"69"}},{"type":"Feature","geometry":{"type":"Point","coordinates":[4.76603,45.46093]},"properties":{"nom":"Maison de Santé","ag":["Agrégat des réseaux urbains et interurbains d'Auvergne-Rhône-Alpes","Réseau urbain L'va"],"lt":0,"dept":"69"}},{"type":"Feature","geometry":{"type":"Point","coordinates":[4.76746,45.46141]},"properties":{"nom":"Maison de Santé","ag":["Agrégat des réseaux urbains et interurbains d'Auvergne-Rhône-Alpes","Réseau urbain L'va"],"lt":0,"dept":"69"}},{"type":"Feature","geometry":{"type":"Point","coordinates":[4.77405,45.46894]},"properties":{"nom":"Bassenon","ag":["Agrégat des réseaux urbains et interurbains d'Auvergne-Rhône-Alpes","Réseau urbain L'va"],"lt":0,"dept":"69"}},{"type":"Feature","geometry":{"type":"Point","coordinates":[4.77361,45.46809]},"properties":{"nom":"Bassenon","ag":["Agrégat des réseaux urbains et interurbains d'Auvergne-Rhône-Alpes","Réseau urbain L'va"],"lt":0,"dept":"69"}},{"type":"Feature","geometry":{"type":"Point","coordinates":[4.76849,45.46224]},"properties":{"nom":"Centre","ag":["Agrégat des réseaux urbains et interurbains d'Auvergne-Rhône-Alpes"],"lt":0,"dept":"69"}},{"type":"Feature","geometry":{"type":"Point","coordinates":[4.76907,45.46247]},"properties":{"nom":"Centre","ag":["Agrégat des réseaux urbains et interurbains d'Auvergne-Rhône-Alpes"],"lt":0,"dept":"69"}},{"type":"Feature","geometry":{"type":"Point","coordinates":[4.76857,45.46229]},"properties":{"nom":"Collège Privé Les Marroniers","ag":["Agrégat des réseaux urbains et interurbains d'Auvergne-Rhône-Alpes"],"lt":0,"dept":"69"}},{"type":"Feature","geometry":{"type":"Point","coordinates":[4.77617,45.47092]},"properties":{"nom":"Collège le Bassenon","ag":["Agrégat des réseaux urbains et interurbains d'Auvergne-Rhône-Alpes","Réseau urbain L'va"],"lt":0,"dept":"69"}},{"type":"Feature","geometry":{"type":"Point","coordinates":[4.77575,45.47093]},"properties":{"nom":"Collège le Bassenon","ag":["Agrégat des réseaux urbains et interurbains d'Auvergne-Rhône-Alpes","Réseau urbain L'va"],"lt":0,"dept":"69"}},{"type":"Feature","geometry":{"type":"Point","coordinates":[4.75982,45.45842]},"properties":{"nom":"Centre Hospitalier","ag":["Agrégat des réseaux urbains et interurbains d'Auvergne-Rhône-Alpes","Réseau urbain L'va"],"lt":0,"dept":"69"}},{"type":"Feature","geometry":{"type":"Point","coordinates":[4.76014,45.45839]},"properties":{"nom":"Centre Hospitalier","ag":["Agrégat des réseaux urbains et interurbains d'Auvergne-Rhône-Alpes","Réseau urbain L'va"],"lt":0,"dept":"69"}},{"type":"Feature","geometry":{"type":"Point","coordinates":[4.76734,45.47015]},"properties":{"nom":"Le Belvédère","ag":["Agrégat des réseaux urbains et interurbains d'Auvergne-Rhône-Alpes","Réseau urbain L'va"],"lt":0,"dept":"69"}},{"type":"Feature","geometry":{"type":"Point","coordinates":[4.7675,45.47023]},"properties":{"nom":"Le Belvédère","ag":["Agrégat des réseaux urbains et interurbains d'Auvergne-Rhône-Alpes","Réseau urbain L'va"],"lt":0,"dept":"69"}},{"type":"Feature","geometry":{"type":"Point","coordinates":[4.76355,45.47296]},"properties":{"nom":"La Celle","ag":["Agrégat des réseaux urbains et interurbains d'Auvergne-Rhône-Alpes","Réseau urbain L'va"],"lt":0,"dept":"69"}},{"type":"Feature","geometry":{"type":"Point","coordinates":[4.76376,45.47302]},"properties":{"nom":"La Celle","ag":["Agrégat des réseaux urbains et interurbains d'Auvergne-Rhône-Alpes","Réseau urbain L'va"],"lt":0,"dept":"69"}},{"type":"Feature","geometry":{"type":"Point","coordinates":[4.75025,45.48801]},"properties":{"nom":"Les Chaudières","ag":["Agrégat des réseaux urbains et interurbains d'Auvergne-Rhône-Alpes","Réseau urbain L'va"],"lt":0,"dept":"69"}},{"type":"Feature","geometry":{"type":"Point","coordinates":[4.7502,45.48802]},"properties":{"nom":"Les Chaudières","ag":["Agrégat des réseaux urbains et interurbains d'Auvergne-Rhône-Alpes","Réseau urbain L'va"],"lt":0,"dept":"69"}},{"type":"Feature","geometry":{"type":"Point","coordinates":[4.74405,45.48946]},"properties":{"nom":"Les Cordelières","ag":["Agrégat des réseaux urbains et interurbains d'Auvergne-Rhône-Alpes","Réseau urbain L'va"],"lt":0,"dept":"69"}},{"type":"Feature","geometry":{"type":"Point","coordinates":[4.74369,45.48931]},"properties":{"nom":"Les Cordelières","ag":["Agrégat des réseaux urbains et interurbains d'Auvergne-Rhône-Alpes","Réseau urbain L'va"],"lt":0,"dept":"69"}},{"type":"Feature","geometry":{"type":"Point","coordinates":[4.72828,45.49355]},"properties":{"nom":"Le Grand Roule","ag":["Agrégat des réseaux urbains et interurbains d'Auvergne-Rhône-Alpes","Réseau urbain L'va"],"lt":0,"dept":"69"}},{"type":"Feature","geometry":{"type":"Point","coordinates":[4.72814,45.49343]},"properties":{"nom":"Le Grand Roule","ag":["Agrégat des réseaux urbains et interurbains d'Auvergne-Rhône-Alpes","Réseau urbain L'va"],"lt":0,"dept":"69"}},{"type":"Feature","geometry":{"type":"Point","coordinates":[4.76795,45.46357]},"properties":{"nom":"Place de la Mairie","ag":["Agrégat des réseaux urbains et interurbains d'Auvergne-Rhône-Alpes","Réseau urbain L'va"],"lt":0,"dept":"69"}},{"type":"Feature","geometry":{"type":"Point","coordinates":[4.76877,45.46352]},"properties":{"nom":"Place de la Mairie","ag":["Agrégat des réseaux urbains et interurbains d'Auvergne-Rhône-Alpes","Réseau urbain L'va"],"lt":0,"dept":"69"}},{"type":"Feature","geometry":{"type":"Point","coordinates":[4.76023,45.47721]},"properties":{"nom":"Le Rosay","ag":["Agrégat des réseaux urbains et interurbains d'Auvergne-Rhône-Alpes","Réseau urbain L'va"],"lt":0,"dept":"69"}},{"type":"Feature","geometry":{"type":"Point","coordinates":[4.76035,45.47731]},"properties":{"nom":"Le Rosay","ag":["Agrégat des réseaux urbains et interurbains d'Auvergne-Rhône-Alpes","Réseau urbain L'va"],"lt":0,"dept":"69"}},{"type":"Feature","geometry":{"type":"Point","coordinates":[4.72365,45.49534]},"properties":{"nom":"Timbout","ag":["Agrégat des réseaux urbains et interurbains d'Auvergne-Rhône-Alpes","Réseau urbain L'va"],"lt":0,"dept":"69"}},{"type":"Feature","geometry":{"type":"Point","coordinates":[4.75851,45.45788]},"properties":{"nom":"La Maladière","ag":["Agrégat des réseaux urbains et interurbains d'Auvergne-Rhône-Alpes","Réseau urbain L'va"],"lt":0,"dept":"69"}},{"type":"Feature","geometry":{"type":"Point","coordinates":[4.75854,45.45782]},"properties":{"nom":"La Maladière","ag":["Agrégat des réseaux urbains et interurbains d'Auvergne-Rhône-Alpes","Réseau urbain L'va"],"lt":0,"dept":"69"}},{"type":"Feature","geometry":{"type":"Point","coordinates":[4.73428,45.55576]},"properties":{"nom":"Basse Jayère","ag":["Agrégat des réseaux urbains et interurbains d'Auvergne-Rhône-Alpes","Réseau urbain L'va"],"lt":0,"dept":"69"}},{"type":"Feature","geometry":{"type":"Point","coordinates":[4.73422,45.55586]},"properties":{"nom":"Basse Jayère","ag":["Agrégat des réseaux urbains et interurbains d'Auvergne-Rhône-Alpes","Réseau urbain L'va"],"lt":0,"dept":"69"}},{"type":"Feature","geometry":{"type":"Point","coordinates":[4.7353,45.56321]},"properties":{"nom":"La Brache","ag":["Agrégat des réseaux urbains et interurbains d'Auvergne-Rhône-Alpes","Réseau urbain L'va"],"lt":0,"dept":"69"}},{"type":"Feature","geometry":{"type":"Point","coordinates":[4.73543,45.56315]},"properties":{"nom":"La Brache","ag":["Agrégat des réseaux urbains et interurbains d'Auvergne-Rhône-Alpes","Réseau urbain L'va"],"lt":0,"dept":"69"}},{"type":"Feature","geometry":{"type":"Point","coordinates":[4.74559,45.55221]},"properties":{"nom":"Le Petit Chatanay","ag":["Agrégat des réseaux urbains et interurbains d'Auvergne-Rhône-Alpes","Réseau urbain L'va"],"lt":0,"dept":"69"}},{"type":"Feature","geometry":{"type":"Point","coordinates":[4.74564,45.55211]},"properties":{"nom":"Le Petit Chatanay","ag":["Agrégat des réseaux urbains et interurbains d'Auvergne-Rhône-Alpes","Réseau urbain L'va"],"lt":0,"dept":"69"}},{"type":"Feature","geometry":{"type":"Point","coordinates":[4.75228,45.55282]},"properties":{"nom":"Chatanay","ag":["Agrégat des réseaux urbains et interurbains d'Auvergne-Rhône-Alpes","Réseau urbain L'va"],"lt":0,"dept":"69"}},{"type":"Feature","geometry":{"type":"Point","coordinates":[4.7524,45.55275]},"properties":{"nom":"Chatanay","ag":["Agrégat des réseaux urbains et interurbains d'Auvergne-Rhône-Alpes","Réseau urbain L'va"],"lt":0,"dept":"69"}},{"type":"Feature","geometry":{"type":"Point","coordinates":[4.74653,45.55987]},"properties":{"nom":"Croix Rodière","ag":["Agrégat des réseaux urbains et interurbains d'Auvergne-Rhône-Alpes","Réseau urbain L'va"],"lt":0,"dept":"69"}},{"type":"Feature","geometry":{"type":"Point","coordinates":[4.74658,45.55999]},"properties":{"nom":"Croix Rodière","ag":["Agrégat des réseaux urbains et interurbains d'Auvergne-Rhône-Alpes","Réseau urbain L'va"],"lt":0,"dept":"69"}},{"type":"Feature","geometry":{"type":"Point","coordinates":[4.71529,45.55164]},"properties":{"nom":"Place de l'Eglise","ag":["Agrégat des réseaux urbains et interurbains d'Auvergne-Rhône-Alpes","Réseau urbain L'va"],"lt":0,"dept":"69"}},{"type":"Feature","geometry":{"type":"Point","coordinates":[4.7153,45.55175]},"properties":{"nom":"Place de l'Eglise","ag":["Agrégat des réseaux urbains et interurbains d'Auvergne-Rhône-Alpes","Réseau urbain L'va"],"lt":0,"dept":"69"}},{"type":"Feature","geometry":{"type":"Point","coordinates":[4.70836,45.54387]},"properties":{"nom":"Le Gonty","ag":["Agrégat des réseaux urbains et interurbains d'Auvergne-Rhône-Alpes","Réseau urbain L'va"],"lt":0,"dept":"69"}},{"type":"Feature","geometry":{"type":"Point","coordinates":[4.70813,45.54386]},"properties":{"nom":"Le Gonty","ag":["Agrégat des réseaux urbains et interurbains d'Auvergne-Rhône-Alpes","Réseau urbain L'va"],"lt":0,"dept":"69"}},{"type":"Feature","geometry":{"type":"Point","coordinates":[4.7379,45.54084]},"properties":{"nom":"La Groirie","ag":["Agrégat des réseaux urbains et interurbains d'Auvergne-Rhône-Alpes","Réseau urbain L'va"],"lt":0,"dept":"69"}},{"type":"Feature","geometry":{"type":"Point","coordinates":[4.73793,45.54075]},"properties":{"nom":"La Groirie","ag":["Agrégat des réseaux urbains et interurbains d'Auvergne-Rhône-Alpes","Réseau urbain L'va"],"lt":0,"dept":"69"}},{"type":"Feature","geometry":{"type":"Point","coordinates":[4.73773,45.55172]},"properties":{"nom":"Hautes Jayères","ag":["Agrégat des réseaux urbains et interurbains d'Auvergne-Rhône-Alpes","Réseau urbain L'va"],"lt":0,"dept":"69"}},{"type":"Feature","geometry":{"type":"Point","coordinates":[4.73785,45.55174]},"properties":{"nom":"Hautes Jayères","ag":["Agrégat des réseaux urbains et interurbains d'Auvergne-Rhône-Alpes","Réseau urbain L'va"],"lt":0,"dept":"69"}},{"type":"Feature","geometry":{"type":"Point","coordinates":[4.7122,45.53335]},"properties":{"nom":"Jannoray","ag":["Agrégat des réseaux urbains et interurbains d'Auvergne-Rhône-Alpes","Réseau urbain L'va"],"lt":0,"dept":"69"}},{"type":"Feature","geometry":{"type":"Point","coordinates":[4.73003,45.54229]},"properties":{"nom":"Le Lac","ag":["Agrégat des réseaux urbains et interurbains d'Auvergne-Rhône-Alpes","Réseau urbain L'va"],"lt":0,"dept":"69"}},{"type":"Feature","geometry":{"type":"Point","coordinates":[4.73013,45.54221]},"properties":{"nom":"Le Lac","ag":["Agrégat des réseaux urbains et interurbains d'Auvergne-Rhône-Alpes","Réseau urbain L'va"],"lt":0,"dept":"69"}},{"type":"Feature","geometry":{"type":"Point","coordinates":[4.71198,45.5544]},"properties":{"nom":"Le Luminaire","ag":["Agrégat des réseaux urbains et interurbains d'Auvergne-Rhône-Alpes","Réseau urbain L'va"],"lt":0,"dept":"69"}},{"type":"Feature","geometry":{"type":"Point","coordinates":[4.71187,45.55457]},"properties":{"nom":"Le Luminaire","ag":["Agrégat des réseaux urbains et interurbains d'Auvergne-Rhône-Alpes","Réseau urbain L'va"],"lt":0,"dept":"69"}},{"type":"Feature","geometry":{"type":"Point","coordinates":[4.71902,45.55183]},"properties":{"nom":"St Martin","ag":["Agrégat des réseaux urbains et interurbains d'Auvergne-Rhône-Alpes","Réseau urbain L'va"],"lt":0,"dept":"69"}},{"type":"Feature","geometry":{"type":"Point","coordinates":[4.71896,45.55193]},"properties":{"nom":"St Martin","ag":["Agrégat des réseaux urbains et interurbains d'Auvergne-Rhône-Alpes","Réseau urbain L'va"],"lt":0,"dept":"69"}},{"type":"Feature","geometry":{"type":"Point","coordinates":[4.73546,45.54082]},"properties":{"nom":"Les Moussières","ag":["Agrégat des réseaux urbains et interurbains d'Auvergne-Rhône-Alpes","Réseau urbain L'va"],"lt":0,"dept":"69"}},{"type":"Feature","geometry":{"type":"Point","coordinates":[4.73538,45.54073]},"properties":{"nom":"Les Moussières","ag":["Agrégat des réseaux urbains et interurbains d'Auvergne-Rhône-Alpes","Réseau urbain L'va"],"lt":0,"dept":"69"}},{"type":"Feature","geometry":{"type":"Point","coordinates":[4.75746,45.55963]},"properties":{"nom":"Montmain","ag":["Agrégat des réseaux urbains et interurbains d'Auvergne-Rhône-Alpes","Réseau urbain L'va"],"lt":0,"dept":"69"}},{"type":"Feature","geometry":{"type":"Point","coordinates":[4.75726,45.55962]},"properties":{"nom":"Montmain","ag":["Agrégat des réseaux urbains et interurbains d'Auvergne-Rhône-Alpes","Réseau urbain L'va"],"lt":0,"dept":"69"}},{"type":"Feature","geometry":{"type":"Point","coordinates":[4.73657,45.54776]},"properties":{"nom":"Poirieux","ag":["Agrégat des réseaux urbains et interurbains d'Auvergne-Rhône-Alpes","Réseau urbain L'va"],"lt":0,"dept":"69"}},{"type":"Feature","geometry":{"type":"Point","coordinates":[4.73674,45.54771]},"properties":{"nom":"Poirieux","ag":["Agrégat des réseaux urbains et interurbains d'Auvergne-Rhône-Alpes","Réseau urbain L'va"],"lt":0,"dept":"69"}},{"type":"Feature","geometry":{"type":"Point","coordinates":[4.74977,45.55881]},"properties":{"nom":"La Rodière","ag":["Agrégat des réseaux urbains et interurbains d'Auvergne-Rhône-Alpes","Réseau urbain L'va"],"lt":0,"dept":"69"}},{"type":"Feature","geometry":{"type":"Point","coordinates":[4.74993,45.5589]},"properties":{"nom":"La Rodière","ag":["Agrégat des réseaux urbains et interurbains d'Auvergne-Rhône-Alpes","Réseau urbain L'va"],"lt":0,"dept":"69"}},{"type":"Feature","geometry":{"type":"Point","coordinates":[4.74254,45.53436]},"properties":{"nom":"Les Tuillières","ag":["Agrégat des réseaux urbains et interurbains d'Auvergne-Rhône-Alpes","Réseau urbain L'va"],"lt":0,"dept":"69"}},{"type":"Feature","geometry":{"type":"Point","coordinates":[4.74244,45.53438]},"properties":{"nom":"Les Tuillières","ag":["Agrégat des réseaux urbains et interurbains d'Auvergne-Rhône-Alpes","Réseau urbain L'va"],"lt":0,"dept":"69"}},{"type":"Feature","geometry":{"type":"Point","coordinates":[4.75966,45.60439]},"properties":{"nom":"Lycée Aragon / Picasso","ag":["Agrégat des réseaux urbains et interurbains d'Auvergne-Rhône-Alpes","Réseau urbain L'va"],"lt":0,"dept":"69"}},{"type":"Feature","geometry":{"type":"Point","coordinates":[4.75956,45.6043]},"properties":{"nom":"Lycée Aragon / Picasson","ag":["Agrégat des réseaux urbains et interurbains d'Auvergne-Rhône-Alpes","Réseau urbain L'va"],"lt":0,"dept":"69"}},{"type":"Feature","geometry":{"type":"Point","coordinates":[4.78809,45.577]},"properties":{"nom":"Tour de Bans","ag":["Agrégat des réseaux urbains et interurbains d'Auvergne-Rhône-Alpes","Réseau urbain L'va"],"lt":0,"dept":"69"}},{"type":"Feature","geometry":{"type":"Point","coordinates":[4.7878,45.57748]},"properties":{"nom":"Tour de Bans","ag":["Agrégat des réseaux urbains et interurbains d'Auvergne-Rhône-Alpes","Réseau urbain L'va"],"lt":0,"dept":"69"}},{"type":"Feature","geometry":{"type":"Point","coordinates":[4.77961,45.58013]},"properties":{"nom":"Port de Bief","ag":["Agrégat des réseaux urbains et interurbains d'Auvergne-Rhône-Alpes","Réseau urbain L'va"],"lt":0,"dept":"69"}},{"type":"Feature","geometry":{"type":"Point","coordinates":[4.77958,45.58031]},"properties":{"nom":"Port de Bief","ag":["Agrégat des réseaux urbains et interurbains d'Auvergne-Rhône-Alpes","Réseau urbain L'va"],"lt":0,"dept":"69"}},{"type":"Feature","geometry":{"type":"Point","coordinates":[4.79633,45.5678]},"properties":{"nom":"Collège Paul Vallon","ag":["Agrégat des réseaux urbains et interurbains d'Auvergne-Rhône-Alpes","Réseau urbain L'va"],"lt":0,"dept":"69"}},{"type":"Feature","geometry":{"type":"Point","coordinates":[4.7709,45.58806]},"properties":{"nom":"Leclerc","ag":["Agrégat des réseaux urbains et interurbains d'Auvergne-Rhône-Alpes"],"lt":0,"dept":"69"}},{"type":"Feature","geometry":{"type":"Point","coordinates":[4.77111,45.58862]},"properties":{"nom":"Leclerc","ag":["Agrégat des réseaux urbains et interurbains d'Auvergne-Rhône-Alpes"],"lt":0,"dept":"69"}},{"type":"Feature","geometry":{"type":"Point","coordinates":[4.77542,45.58491]},"properties":{"nom":"Place de la Liberté","ag":["Agrégat des réseaux urbains et interurbains d'Auvergne-Rhône-Alpes","Réseau urbain L'va"],"lt":0,"dept":"69"}},{"type":"Feature","geometry":{"type":"Point","coordinates":[4.77443,45.58567]},"properties":{"nom":"Place de la Liberté","ag":["Agrégat des réseaux urbains et interurbains d'Auvergne-Rhône-Alpes","Réseau urbain L'va"],"lt":0,"dept":"69"}},{"type":"Feature","geometry":{"type":"Point","coordinates":[4.79055,45.57517]},"properties":{"nom":"La Lône","ag":["Agrégat des réseaux urbains et interurbains d'Auvergne-Rhône-Alpes","Réseau urbain L'va"],"lt":0,"dept":"69"}},{"type":"Feature","geometry":{"type":"Point","coordinates":[4.79084,45.57528]},"properties":{"nom":"La Lône","ag":["Agrégat des réseaux urbains et interurbains d'Auvergne-Rhône-Alpes","Réseau urbain L'va"],"lt":0,"dept":"69"}},{"type":"Feature","geometry":{"type":"Point","coordinates":[4.76725,45.59455]},"properties":{"nom":"Lycée Casanova","ag":["Agrégat des réseaux urbains et interurbains d'Auvergne-Rhône-Alpes","Réseau urbain L'va"],"lt":0,"dept":"69"}},{"type":"Feature","geometry":{"type":"Point","coordinates":[4.76732,45.59444]},"properties":{"nom":"Lycée Casanova","ag":["Agrégat des réseaux urbains et interurbains d'Auvergne-Rhône-Alpes","Réseau urbain L'va"],"lt":0,"dept":"69"}},{"type":"Feature","geometry":{"type":"Point","coordinates":[4.77164,45.59112]},"properties":{"nom":"Lycée Notre-Dame","ag":["Agrégat des réseaux urbains et interurbains d'Auvergne-Rhône-Alpes","Réseau urbain L'va"],"lt":0,"dept":"69"}},{"type":"Feature","geometry":{"type":"Point","coordinates":[4.77042,45.59233]},"properties":{"nom":"Place Picard","ag":["Agrégat des réseaux urbains et interurbains d'Auvergne-Rhône-Alpes","Réseau urbain L'va"],"lt":0,"dept":"69"}},{"type":"Feature","geometry":{"type":"Point","coordinates":[4.76629,45.5849]},"properties":{"nom":"Gare de Givors Ville","ag":["Agrégat des réseaux urbains et interurbains d'Auvergne-Rhône-Alpes","Réseau urbain L'va"],"lt":0,"dept":"69"}},{"type":"Feature","geometry":{"type":"Point","coordinates":[4.76645,45.5846]},"properties":{"nom":"Gare Ville","ag":["Agrégat des réseaux urbains et interurbains d'Auvergne-Rhône-Alpes"],"lt":0,"dept":"69"}},{"type":"Feature","geometry":{"type":"Point","coordinates":[4.76725,45.58515]},"properties":{"nom":"Gare de Givors - Quai 5","ag":["Agrégat des réseaux urbains et interurbains d'Auvergne-Rhône-Alpes","Réseau urbain L'va"],"lt":0,"dept":"69"}},{"type":"Feature","geometry":{"type":"Point","coordinates":[4.76903,45.51984]},"properties":{"nom":"Lansolat","ag":["Agrégat des réseaux urbains et interurbains d'Auvergne-Rhône-Alpes","Réseau urbain L'va"],"lt":0,"dept":"69"}},{"type":"Feature","geometry":{"type":"Point","coordinates":[4.76896,45.52011]},"properties":{"nom":"Lansolat","ag":["Agrégat des réseaux urbains et interurbains d'Auvergne-Rhône-Alpes","Réseau urbain L'va"],"lt":0,"dept":"69"}},{"type":"Feature","geometry":{"type":"Point","coordinates":[4.74339,45.51258]},"properties":{"nom":"Baronnière","ag":["Agrégat des réseaux urbains et interurbains d'Auvergne-Rhône-Alpes","Réseau urbain L'va"],"lt":0,"dept":"69"}},{"type":"Feature","geometry":{"type":"Point","coordinates":[4.74326,45.51258]},"properties":{"nom":"Baronnière","ag":["Agrégat des réseaux urbains et interurbains d'Auvergne-Rhône-Alpes","Réseau urbain L'va"],"lt":0,"dept":"69"}},{"type":"Feature","geometry":{"type":"Point","coordinates":[4.74794,45.50373]},"properties":{"nom":"Le Bourg","ag":["Agrégat des réseaux urbains et interurbains d'Auvergne-Rhône-Alpes","Réseau urbain L'va"],"lt":0,"dept":"69"}},{"type":"Feature","geometry":{"type":"Point","coordinates":[4.74784,45.50365]},"properties":{"nom":"Le Bourg","ag":["Agrégat des réseaux urbains et interurbains d'Auvergne-Rhône-Alpes","Réseau urbain L'va"],"lt":0,"dept":"69"}},{"type":"Feature","geometry":{"type":"Point","coordinates":[4.74924,45.4991]},"properties":{"nom":"La Casson","ag":["Agrégat des réseaux urbains et interurbains d'Auvergne-Rhône-Alpes","Réseau urbain L'va"],"lt":0,"dept":"69"}},{"type":"Feature","geometry":{"type":"Point","coordinates":[4.74912,45.49894]},"properties":{"nom":"La Casson","ag":["Agrégat des réseaux urbains et interurbains d'Auvergne-Rhône-Alpes","Réseau urbain L'va"],"lt":0,"dept":"69"}},{"type":"Feature","geometry":{"type":"Point","coordinates":[4.721,45.50026]},"properties":{"nom":"Champagneux","ag":["Agrégat des réseaux urbains et interurbains d'Auvergne-Rhône-Alpes","Réseau urbain L'va"],"lt":0,"dept":"69"}},{"type":"Feature","geometry":{"type":"Point","coordinates":[4.72096,45.50022]},"properties":{"nom":"Champagneux","ag":["Agrégat des réseaux urbains et interurbains d'Auvergne-Rhône-Alpes","Réseau urbain L'va"],"lt":0,"dept":"69"}},{"type":"Feature","geometry":{"type":"Point","coordinates":[4.74387,45.52228]},"properties":{"nom":"Croix Régis","ag":["Agrégat des réseaux urbains et interurbains d'Auvergne-Rhône-Alpes","Réseau urbain L'va"],"lt":0,"dept":"69"}},{"type":"Feature","geometry":{"type":"Point","coordinates":[4.74382,45.52242]},"properties":{"nom":"Croix Régis","ag":["Agrégat des réseaux urbains et interurbains d'Auvergne-Rhône-Alpes","Réseau urbain L'va"],"lt":0,"dept":"69"}},{"type":"Feature","geometry":{"type":"Point","coordinates":[4.7292,45.51026]},"properties":{"nom":"Godard","ag":["Agrégat des réseaux urbains et interurbains d'Auvergne-Rhône-Alpes","Réseau urbain L'va"],"lt":0,"dept":"69"}},{"type":"Feature","geometry":{"type":"Point","coordinates":[4.7294,45.51036]},"properties":{"nom":"Godard","ag":["Agrégat des réseaux urbains et interurbains d'Auvergne-Rhône-Alpes","Réseau urbain L'va"],"lt":0,"dept":"69"}},{"type":"Feature","geometry":{"type":"Point","coordinates":[4.7074,45.51638]},"properties":{"nom":"Le Grand Pré","ag":["Agrégat des réseaux urbains et interurbains d'Auvergne-Rhône-Alpes","Réseau urbain L'va"],"lt":0,"dept":"69"}},{"type":"Feature","geometry":{"type":"Point","coordinates":[4.7081,45.51622]},"properties":{"nom":"Le Grand Pré","ag":["Agrégat des réseaux urbains et interurbains d'Auvergne-Rhône-Alpes","Réseau urbain L'va"],"lt":0,"dept":"69"}},{"type":"Feature","geometry":{"type":"Point","coordinates":[4.76804,45.5238]},"properties":{"nom":"Route de Lansolat","ag":["Agrégat des réseaux urbains et interurbains d'Auvergne-Rhône-Alpes","Réseau urbain L'va"],"lt":0,"dept":"69"}},{"type":"Feature","geometry":{"type":"Point","coordinates":[4.72115,45.51568]},"properties":{"nom":"Le Pilon","ag":["Agrégat des réseaux urbains et interurbains d'Auvergne-Rhône-Alpes","Réseau urbain L'va"],"lt":0,"dept":"69"}},{"type":"Feature","geometry":{"type":"Point","coordinates":[4.7207,45.51582]},"properties":{"nom":"Le Pilon","ag":["Agrégat des réseaux urbains et interurbains d'Auvergne-Rhône-Alpes","Réseau urbain L'va"],"lt":0,"dept":"69"}},{"type":"Feature","geometry":{"type":"Point","coordinates":[4.74784,45.52454]},"properties":{"nom":"Le Rappart","ag":["Agrégat des réseaux urbains et interurbains d'Auvergne-Rhône-Alpes","Réseau urbain L'va"],"lt":0,"dept":"69"}},{"type":"Feature","geometry":{"type":"Point","coordinates":[4.7478,45.52464]},"properties":{"nom":"Le Rappart","ag":["Agrégat des réseaux urbains et interurbains d'Auvergne-Rhône-Alpes","Réseau urbain L'va"],"lt":0,"dept":"69"}},{"type":"Feature","geometry":{"type":"Point","coordinates":[4.75158,45.50173]},"properties":{"nom":"RD59 Les Acacias","ag":["Agrégat des réseaux urbains et interurbains d'Auvergne-Rhône-Alpes","Réseau urbain L'va"],"lt":0,"dept":"69"}},{"type":"Feature","geometry":{"type":"Point","coordinates":[4.75144,45.50168]},"properties":{"nom":"RD59 Les Acacias","ag":["Agrégat des réseaux urbains et interurbains d'Auvergne-Rhône-Alpes","Réseau urbain L'va"],"lt":0,"dept":"69"}},{"type":"Feature","geometry":{"type":"Point","coordinates":[4.73656,45.50402]},"properties":{"nom":"Rey","ag":["Agrégat des réseaux urbains et interurbains d'Auvergne-Rhône-Alpes","Réseau urbain L'va"],"lt":0,"dept":"69"}},{"type":"Feature","geometry":{"type":"Point","coordinates":[4.73635,45.50396]},"properties":{"nom":"Rey","ag":["Agrégat des réseaux urbains et interurbains d'Auvergne-Rhône-Alpes","Réseau urbain L'va"],"lt":0,"dept":"69"}},{"type":"Feature","geometry":{"type":"Point","coordinates":[4.74202,45.50101]},"properties":{"nom":"Remillat","ag":["Agrégat des réseaux urbains et interurbains d'Auvergne-Rhône-Alpes","Réseau urbain L'va"],"lt":0,"dept":"69"}},{"type":"Feature","geometry":{"type":"Point","coordinates":[4.74198,45.50088]},"properties":{"nom":"Remillat","ag":["Agrégat des réseaux urbains et interurbains d'Auvergne-Rhône-Alpes","Réseau urbain L'va"],"lt":0,"dept":"69"}},{"type":"Feature","geometry":{"type":"Point","coordinates":[4.72375,45.4954]},"properties":{"nom":"Timbout","ag":["Agrégat des réseaux urbains et interurbains d'Auvergne-Rhône-Alpes","Réseau urbain L'va"],"lt":0,"dept":"69"}},{"type":"Feature","geometry":{"type":"Point","coordinates":[4.70318,45.51398]},"properties":{"nom":"La Benardière","ag":["Agrégat des réseaux urbains et interurbains d'Auvergne-Rhône-Alpes","Réseau urbain L'va"],"lt":0,"dept":"69"}},{"type":"Feature","geometry":{"type":"Point","coordinates":[4.76812,45.52399]},"properties":{"nom":"Route de Lansolat","ag":["Agrégat des réseaux urbains et interurbains d'Auvergne-Rhône-Alpes","Réseau urbain L'va"],"lt":0,"dept":"69"}},{"type":"Feature","geometry":{"type":"Point","coordinates":[4.75604,45.53646]},"properties":{"nom":"Le Bourrin","ag":["Agrégat des réseaux urbains et interurbains d'Auvergne-Rhône-Alpes","Réseau urbain L'va"],"lt":0,"dept":"69"}},{"type":"Feature","geometry":{"type":"Point","coordinates":[4.76937,45.54346]},"properties":{"nom":"Chinfray","ag":["Agrégat des réseaux urbains et interurbains d'Auvergne-Rhône-Alpes","Réseau urbain L'va"],"lt":0,"dept":"69"}},{"type":"Feature","geometry":{"type":"Point","coordinates":[4.79589,45.54575]},"properties":{"nom":"Colombier","ag":["Agrégat des réseaux urbains et interurbains d'Auvergne-Rhône-Alpes","Réseau urbain L'va"],"lt":0,"dept":"69"}},{"type":"Feature","geometry":{"type":"Point","coordinates":[4.75926,45.52859]},"properties":{"nom":"Cuisinière","ag":["Agrégat des réseaux urbains et interurbains d'Auvergne-Rhône-Alpes","Réseau urbain L'va"],"lt":0,"dept":"69"}},{"type":"Feature","geometry":{"type":"Point","coordinates":[4.77922,45.54728]},"properties":{"nom":"Le Fatigue","ag":["Agrégat des réseaux urbains et interurbains d'Auvergne-Rhône-Alpes","Réseau urbain L'va"],"lt":0,"dept":"69"}},{"type":"Feature","geometry":{"type":"Point","coordinates":[4.78999,45.53874]},"properties":{"nom":"Frédure","ag":["Agrégat des réseaux urbains et interurbains d'Auvergne-Rhône-Alpes","Réseau urbain L'va"],"lt":0,"dept":"69"}},{"type":"Feature","geometry":{"type":"Point","coordinates":[4.79217,45.55577]},"properties":{"nom":"Le Moriat","ag":["Agrégat des réseaux urbains et interurbains d'Auvergne-Rhône-Alpes","Réseau urbain L'va"],"lt":0,"dept":"69"}},{"type":"Feature","geometry":{"type":"Point","coordinates":[4.79206,45.54126]},"properties":{"nom":"Le Pacalon","ag":["Agrégat des réseaux urbains et interurbains d'Auvergne-Rhône-Alpes","Réseau urbain L'va"],"lt":0,"dept":"69"}},{"type":"Feature","geometry":{"type":"Point","coordinates":[4.80089,45.56271]},"properties":{"nom":"Perouzes","ag":["Agrégat des réseaux urbains et interurbains d'Auvergne-Rhône-Alpes","Réseau urbain L'va"],"lt":0,"dept":"69"}},{"type":"Feature","geometry":{"type":"Point","coordinates":[4.77389,45.54743]},"properties":{"nom":"Polaine","ag":["Agrégat des réseaux urbains et interurbains d'Auvergne-Rhône-Alpes","Réseau urbain L'va"],"lt":0,"dept":"69"}},{"type":"Feature","geometry":{"type":"Point","coordinates":[4.77663,45.52434]},"properties":{"nom":"Le Recru","ag":["Agrégat des réseaux urbains et interurbains d'Auvergne-Rhône-Alpes","Réseau urbain L'va"],"lt":0,"dept":"69"}},{"type":"Feature","geometry":{"type":"Point","coordinates":[4.77682,45.52428]},"properties":{"nom":"Le Recru","ag":["Agrégat des réseaux urbains et interurbains d'Auvergne-Rhône-Alpes","Réseau urbain L'va"],"lt":0,"dept":"69"}},{"type":"Feature","geometry":{"type":"Point","coordinates":[4.80113,45.55519]},"properties":{"nom":"Rousset","ag":["Agrégat des réseaux urbains et interurbains d'Auvergne-Rhône-Alpes","Réseau urbain L'va"],"lt":0,"dept":"69"}},{"type":"Feature","geometry":{"type":"Point","coordinates":[4.79675,45.5607]},"properties":{"nom":"Le Savot","ag":["Agrégat des réseaux urbains et interurbains d'Auvergne-Rhône-Alpes","Réseau urbain L'va"],"lt":0,"dept":"69"}},{"type":"Feature","geometry":{"type":"Point","coordinates":[4.81019,45.55891]},"properties":{"nom":"Le Capat","ag":["Agrégat des réseaux urbains et interurbains d'Auvergne-Rhône-Alpes","Réseau urbain L'va"],"lt":0,"dept":"69"}},{"type":"Feature","geometry":{"type":"Point","coordinates":[4.8099,45.55937]},"properties":{"nom":"Le Capat","ag":["Agrégat des réseaux urbains et interurbains d'Auvergne-Rhône-Alpes","Réseau urbain L'va"],"lt":0,"dept":"69"}},{"type":"Feature","geometry":{"type":"Point","coordinates":[4.79962,45.56764]},"properties":{"nom":"Freyssinet RD386","ag":["Agrégat des réseaux urbains et interurbains d'Auvergne-Rhône-Alpes","Réseau urbain L'va"],"lt":0,"dept":"69"}},{"type":"Feature","geometry":{"type":"Point","coordinates":[4.79944,45.56816]},"properties":{"nom":"Freyssinet RD386","ag":["Agrégat des réseaux urbains et interurbains d'Auvergne-Rhône-Alpes","Réseau urbain L'va"],"lt":0,"dept":"69"}},{"type":"Feature","geometry":{"type":"Point","coordinates":[4.80758,45.56108]},"properties":{"nom":"Place de la Libération","ag":["Agrégat des réseaux urbains et interurbains d'Auvergne-Rhône-Alpes","Réseau urbain L'va"],"lt":0,"dept":"69"}},{"type":"Feature","geometry":{"type":"Point","coordinates":[4.80738,45.56147]},"properties":{"nom":"Place de la Libération","ag":["Agrégat des réseaux urbains et interurbains d'Auvergne-Rhône-Alpes","Réseau urbain L'va"],"lt":0,"dept":"69"}},{"type":"Feature","geometry":{"type":"Point","coordinates":[4.81309,45.55674]},"properties":{"nom":"La Roche Moussy","ag":["Agrégat des réseaux urbains et interurbains d'Auvergne-Rhône-Alpes","Réseau urbain L'va"],"lt":0,"dept":"69"}},{"type":"Feature","geometry":{"type":"Point","coordinates":[4.81312,45.55647]},"properties":{"nom":"La Roche Moussy","ag":["Agrégat des réseaux urbains et interurbains d'Auvergne-Rhône-Alpes","Réseau urbain L'va"],"lt":0,"dept":"69"}},{"type":"Feature","geometry":{"type":"Point","coordinates":[4.80423,45.56389]},"properties":{"nom":"Gare","ag":["Agrégat des réseaux urbains et interurbains d'Auvergne-Rhône-Alpes"],"lt":0,"dept":"69"}},{"type":"Feature","geometry":{"type":"Point","coordinates":[4.8044,45.56397]},"properties":{"nom":"Gare","ag":["Agrégat des réseaux urbains et interurbains d'Auvergne-Rhône-Alpes"],"lt":0,"dept":"69"}},{"type":"Feature","geometry":{"type":"Point","coordinates":[4.70319,45.51383]},"properties":{"nom":"La Benardière","ag":["Agrégat des réseaux urbains et interurbains d'Auvergne-Rhône-Alpes","Réseau urbain L'va"],"lt":0,"dept":"69"}},{"type":"Feature","geometry":{"type":"Point","coordinates":[4.68823,45.50444]},"properties":{"nom":"Le Bourg","ag":["Agrégat des réseaux urbains et interurbains d'Auvergne-Rhône-Alpes","Réseau urbain L'va"],"lt":0,"dept":"69"}},{"type":"Feature","geometry":{"type":"Point","coordinates":[4.68831,45.50446]},"properties":{"nom":"Le Bourg","ag":["Agrégat des réseaux urbains et interurbains d'Auvergne-Rhône-Alpes","Réseau urbain L'va"],"lt":0,"dept":"69"}},{"type":"Feature","geometry":{"type":"Point","coordinates":[4.67147,45.51402]},"properties":{"nom":"Charpiney","ag":["Agrégat des réseaux urbains et interurbains d'Auvergne-Rhône-Alpes","Réseau urbain L'va"],"lt":0,"dept":"69"}},{"type":"Feature","geometry":{"type":"Point","coordinates":[4.67131,45.51376]},"properties":{"nom":"Charpiney","ag":["Agrégat des réseaux urbains et interurbains d'Auvergne-Rhône-Alpes","Réseau urbain L'va"],"lt":0,"dept":"69"}},{"type":"Feature","geometry":{"type":"Point","coordinates":[4.70419,45.49444]},"properties":{"nom":"Chassenoud","ag":["Agrégat des réseaux urbains et interurbains d'Auvergne-Rhône-Alpes","Réseau urbain L'va"],"lt":0,"dept":"69"}},{"type":"Feature","geometry":{"type":"Point","coordinates":[4.70371,45.49435]},"properties":{"nom":"Chassenoud","ag":["Agrégat des réseaux urbains et interurbains d'Auvergne-Rhône-Alpes","Réseau urbain L'va"],"lt":0,"dept":"69"}},{"type":"Feature","geometry":{"type":"Point","coordinates":[4.67606,45.48483]},"properties":{"nom":"Combechèvre","ag":["Agrégat des réseaux urbains et interurbains d'Auvergne-Rhône-Alpes","Réseau urbain L'va"],"lt":0,"dept":"69"}},{"type":"Feature","geometry":{"type":"Point","coordinates":[4.67628,45.48476]},"properties":{"nom":"Combechèvre","ag":["Agrégat des réseaux urbains et interurbains d'Auvergne-Rhône-Alpes","Réseau urbain L'va"],"lt":0,"dept":"69"}},{"type":"Feature","geometry":{"type":"Point","coordinates":[4.65246,45.52208]},"properties":{"nom":"Le Croc","ag":["Agrégat des réseaux urbains et interurbains d'Auvergne-Rhône-Alpes","Réseau urbain L'va"],"lt":0,"dept":"69"}},{"type":"Feature","geometry":{"type":"Point","coordinates":[4.66409,45.49246]},"properties":{"nom":"La Croix de Trêve","ag":["Agrégat des réseaux urbains et interurbains d'Auvergne-Rhône-Alpes","Réseau urbain L'va"],"lt":0,"dept":"69"}},{"type":"Feature","geometry":{"type":"Point","coordinates":[4.66424,45.49247]},"properties":{"nom":"La Croix de Trêve","ag":["Agrégat des réseaux urbains et interurbains d'Auvergne-Rhône-Alpes","Réseau urbain L'va"],"lt":0,"dept":"69"}},{"type":"Feature","geometry":{"type":"Point","coordinates":[4.66104,45.52282]},"properties":{"nom":"Dizimieux","ag":["Agrégat des réseaux urbains et interurbains d'Auvergne-Rhône-Alpes","Réseau urbain L'va"],"lt":0,"dept":"69"}},{"type":"Feature","geometry":{"type":"Point","coordinates":[4.66057,45.52292]},"properties":{"nom":"Dizimieux","ag":["Agrégat des réseaux urbains et interurbains d'Auvergne-Rhône-Alpes","Réseau urbain L'va"],"lt":0,"dept":"69"}},{"type":"Feature","geometry":{"type":"Point","coordinates":[4.68705,45.50735]},"properties":{"nom":"Ecoles","ag":["Agrégat des réseaux urbains et interurbains d'Auvergne-Rhône-Alpes","Réseau urbain L'va"],"lt":0,"dept":"69"}},{"type":"Feature","geometry":{"type":"Point","coordinates":[4.68837,45.50792]},"properties":{"nom":"Ecoles","ag":["Agrégat des réseaux urbains et interurbains d'Auvergne-Rhône-Alpes","Réseau urbain L'va"],"lt":0,"dept":"69"}},{"type":"Feature","geometry":{"type":"Point","coordinates":[4.67034,45.51152]},"properties":{"nom":"Griffoney","ag":["Agrégat des réseaux urbains et interurbains d'Auvergne-Rhône-Alpes","Réseau urbain L'va"],"lt":0,"dept":"69"}},{"type":"Feature","geometry":{"type":"Point","coordinates":[4.66978,45.51143]},"properties":{"nom":"Griffoney","ag":["Agrégat des réseaux urbains et interurbains d'Auvergne-Rhône-Alpes","Réseau urbain L'va"],"lt":0,"dept":"69"}},{"type":"Feature","geometry":{"type":"Point","coordinates":[4.69588,45.50649]},"properties":{"nom":"La Jurarie","ag":["Agrégat des réseaux urbains et interurbains d'Auvergne-Rhône-Alpes","Réseau urbain L'va"],"lt":0,"dept":"69"}},{"type":"Feature","geometry":{"type":"Point","coordinates":[4.69618,45.5065]},"properties":{"nom":"La Jurarie","ag":["Agrégat des réseaux urbains et interurbains d'Auvergne-Rhône-Alpes","Réseau urbain L'va"],"lt":0,"dept":"69"}},{"type":"Feature","geometry":{"type":"Point","coordinates":[4.68659,45.50774]},"properties":{"nom":"Croix des Rameaux","ag":["Agrégat des réseaux urbains et interurbains d'Auvergne-Rhône-Alpes","Réseau urbain L'va"],"lt":0,"dept":"69"}},{"type":"Feature","geometry":{"type":"Point","coordinates":[4.68692,45.50726]},"properties":{"nom":"Croix des Rameaux","ag":["Agrégat des réseaux urbains et interurbains d'Auvergne-Rhône-Alpes","Réseau urbain L'va"],"lt":0,"dept":"69"}},{"type":"Feature","geometry":{"type":"Point","coordinates":[4.69285,45.48386]},"properties":{"nom":"Remillieux","ag":["Agrégat des réseaux urbains et interurbains d'Auvergne-Rhône-Alpes","Réseau urbain L'va"],"lt":0,"dept":"69"}},{"type":"Feature","geometry":{"type":"Point","coordinates":[4.69275,45.48396]},"properties":{"nom":"Remillieux","ag":["Agrégat des réseaux urbains et interurbains d'Auvergne-Rhône-Alpes","Réseau urbain L'va"],"lt":0,"dept":"69"}},{"type":"Feature","geometry":{"type":"Point","coordinates":[4.66714,45.61918]},"properties":{"nom":"Collège Ronsard","ag":["Agrégat des réseaux urbains et interurbains d'Auvergne-Rhône-Alpes","Réseau urbain L'va"],"lt":0,"dept":"69"}},{"type":"Feature","geometry":{"type":"Point","coordinates":[4.67812,45.61985]},"properties":{"nom":"Saint Thomas d'Aquin","ag":["Agrégat des réseaux urbains et interurbains d'Auvergne-Rhône-Alpes","Réseau urbain L'va"],"lt":0,"dept":"69"}},{"type":"Feature","geometry":{"type":"Point","coordinates":[4.83835,45.87797]},"properties":{"nom":"PONT DE NEUVILLE RG","ag":["Agrégat des réseaux urbains et interurbains d'Auvergne-Rhône-Alpes","Réseau urbain Saônibus"],"lt":0,"dept":"69"}},{"type":"Feature","geometry":{"type":"Point","coordinates":[4.8383,45.87738]},"properties":{"nom":"PONT DE NEUVILLE RG","ag":["Agrégat des réseaux urbains et interurbains d'Auvergne-Rhône-Alpes","Réseau urbain Saônibus"],"lt":0,"dept":"69"}},{"type":"Feature","geometry":{"type":"Point","coordinates":[4.86734,45.52497]},"properties":{"nom":"Mairie","ag":["Agrégat des réseaux urbains et interurbains d'Auvergne-Rhône-Alpes","Réseau interurbain - Loire (42)"],"lt":0,"dept":"69"}},{"type":"Feature","geometry":{"type":"Point","coordinates":[4.86625,45.52307]},"properties":{"nom":"Trenel","ag":["Agrégat des réseaux urbains et interurbains d'Auvergne-Rhône-Alpes","Réseau interurbain - Loire (42)"],"lt":0,"dept":"69"}},{"type":"Feature","geometry":{"type":"Point","coordinates":[4.86756,45.52497]},"properties":{"nom":"Mairie","ag":["Agrégat des réseaux urbains et interurbains d'Auvergne-Rhône-Alpes","Réseau interurbain - Loire (42)"],"lt":0,"dept":"69"}},{"type":"Feature","geometry":{"type":"Point","coordinates":[4.86608,45.52297]},"properties":{"nom":"Trenel","ag":["Agrégat des réseaux urbains et interurbains d'Auvergne-Rhône-Alpes","Réseau interurbain - Loire (42)"],"lt":0,"dept":"69"}},{"type":"Feature","geometry":{"type":"Point","coordinates":[4.85783,45.52882]},"properties":{"nom":"Les Jacquetières","ag":["Agrégat des réseaux urbains et interurbains d'Auvergne-Rhône-Alpes","Réseau urbain L'va"],"lt":0,"dept":"69"}},{"type":"Feature","geometry":{"type":"Point","coordinates":[4.85765,45.52884]},"properties":{"nom":"Les Jacquetières","ag":["Agrégat des réseaux urbains et interurbains d'Auvergne-Rhône-Alpes","Réseau urbain L'va"],"lt":0,"dept":"69"}},{"type":"Feature","geometry":{"type":"Point","coordinates":[4.86737,45.52492]},"properties":{"nom":"Mairie","ag":["Agrégat des réseaux urbains et interurbains d'Auvergne-Rhône-Alpes"],"lt":0,"dept":"69"}},{"type":"Feature","geometry":{"type":"Point","coordinates":[4.86752,45.52515]},"properties":{"nom":"Mairie","ag":["Agrégat des réseaux urbains et interurbains d'Auvergne-Rhône-Alpes"],"lt":0,"dept":"69"}},{"type":"Feature","geometry":{"type":"Point","coordinates":[4.86617,45.52305]},"properties":{"nom":"Trenel","ag":["Agrégat des réseaux urbains et interurbains d'Auvergne-Rhône-Alpes","Réseau urbain L'va"],"lt":0,"dept":"69"}},{"type":"Feature","geometry":{"type":"Point","coordinates":[4.8664,45.52303]},"properties":{"nom":"Trenel","ag":["Agrégat des réseaux urbains et interurbains d'Auvergne-Rhône-Alpes","Réseau urbain L'va"],"lt":0,"dept":"69"}},{"type":"Feature","geometry":{"type":"Point","coordinates":[4.85301,45.51282]},"properties":{"nom":"Maison Blanche","ag":["Agrégat des réseaux urbains et interurbains d'Auvergne-Rhône-Alpes","Réseau interurbain - Loire (42)"],"lt":0,"dept":"69"}},{"type":"Feature","geometry":{"type":"Point","coordinates":[4.85351,45.51302]},"properties":{"nom":"Maison Blanche","ag":["Agrégat des réseaux urbains et interurbains d'Auvergne-Rhône-Alpes","Réseau interurbain - Loire (42)"],"lt":0,"dept":"69"}},{"type":"Feature","geometry":{"type":"Point","coordinates":[4.81126,45.51787]},"properties":{"nom":"Mornas","ag":["Agrégat des réseaux urbains et interurbains d'Auvergne-Rhône-Alpes","Réseau urbain L'va"],"lt":0,"dept":"69"}},{"type":"Feature","geometry":{"type":"Point","coordinates":[4.81114,45.51791]},"properties":{"nom":"Mornas","ag":["Agrégat des réseaux urbains et interurbains d'Auvergne-Rhône-Alpes","Réseau urbain L'va"],"lt":0,"dept":"69"}},{"type":"Feature","geometry":{"type":"Point","coordinates":[4.82773,45.51606]},"properties":{"nom":"Le Bessey","ag":["Agrégat des réseaux urbains et interurbains d'Auvergne-Rhône-Alpes","Réseau urbain L'va"],"lt":0,"dept":"69"}},{"type":"Feature","geometry":{"type":"Point","coordinates":[4.82772,45.51617]},"properties":{"nom":"Le Bessey","ag":["Agrégat des réseaux urbains et interurbains d'Auvergne-Rhône-Alpes","Réseau urbain L'va"],"lt":0,"dept":"69"}},{"type":"Feature","geometry":{"type":"Point","coordinates":[4.85459,45.51551]},"properties":{"nom":"La Chapuise","ag":["Agrégat des réseaux urbains et interurbains d'Auvergne-Rhône-Alpes","Réseau urbain L'va"],"lt":0,"dept":"69"}},{"type":"Feature","geometry":{"type":"Point","coordinates":[4.84462,45.51387]},"properties":{"nom":"Les Chanavaries","ag":["Agrégat des réseaux urbains et interurbains d'Auvergne-Rhône-Alpes","Réseau urbain L'va"],"lt":0,"dept":"69"}},{"type":"Feature","geometry":{"type":"Point","coordinates":[4.84453,45.5139]},"properties":{"nom":"Les Chanavaries","ag":["Agrégat des réseaux urbains et interurbains d'Auvergne-Rhône-Alpes","Réseau urbain L'va"],"lt":0,"dept":"69"}},{"type":"Feature","geometry":{"type":"Point","coordinates":[4.81425,45.51885]},"properties":{"nom":"Granges","ag":["Agrégat des réseaux urbains et interurbains d'Auvergne-Rhône-Alpes","Réseau urbain L'va"],"lt":0,"dept":"69"}},{"type":"Feature","geometry":{"type":"Point","coordinates":[4.81435,45.51893]},"properties":{"nom":"Granges","ag":["Agrégat des réseaux urbains et interurbains d'Auvergne-Rhône-Alpes","Réseau urbain L'va"],"lt":0,"dept":"69"}},{"type":"Feature","geometry":{"type":"Point","coordinates":[4.85207,45.51751]},"properties":{"nom":"Mairie","ag":["Agrégat des réseaux urbains et interurbains d'Auvergne-Rhône-Alpes","Réseau urbain L'va"],"lt":0,"dept":"69"}},{"type":"Feature","geometry":{"type":"Point","coordinates":[4.85218,45.51745]},"properties":{"nom":"Mairie","ag":["Agrégat des réseaux urbains et interurbains d'Auvergne-Rhône-Alpes","Réseau urbain L'va"],"lt":0,"dept":"69"}},{"type":"Feature","geometry":{"type":"Point","coordinates":[4.82146,45.51576]},"properties":{"nom":"Le Lacat","ag":["Agrégat des réseaux urbains et interurbains d'Auvergne-Rhône-Alpes","Réseau urbain L'va"],"lt":0,"dept":"69"}},{"type":"Feature","geometry":{"type":"Point","coordinates":[4.82142,45.51593]},"properties":{"nom":"Le Lacat","ag":["Agrégat des réseaux urbains et interurbains d'Auvergne-Rhône-Alpes","Réseau urbain L'va"],"lt":0,"dept":"69"}},{"type":"Feature","geometry":{"type":"Point","coordinates":[4.8545,45.51568]},"properties":{"nom":"La Chapuise","ag":["Agrégat des réseaux urbains et interurbains d'Auvergne-Rhône-Alpes","Réseau urbain L'va"],"lt":0,"dept":"69"}},{"type":"Feature","geometry":{"type":"Point","coordinates":[4.80481,45.5232]},"properties":{"nom":"La Madinière","ag":["Agrégat des réseaux urbains et interurbains d'Auvergne-Rhône-Alpes","Réseau urbain L'va"],"lt":0,"dept":"69"}},{"type":"Feature","geometry":{"type":"Point","coordinates":[4.80488,45.52329]},"properties":{"nom":"La Madinière","ag":["Agrégat des réseaux urbains et interurbains d'Auvergne-Rhône-Alpes","Réseau urbain L'va"],"lt":0,"dept":"69"}},{"type":"Feature","geometry":{"type":"Point","coordinates":[4.84017,45.51771]},"properties":{"nom":"Le Mont","ag":["Agrégat des réseaux urbains et interurbains d'Auvergne-Rhône-Alpes","Réseau urbain L'va"],"lt":0,"dept":"69"}},{"type":"Feature","geometry":{"type":"Point","coordinates":[4.84012,45.51781]},"properties":{"nom":"Le Mont","ag":["Agrégat des réseaux urbains et interurbains d'Auvergne-Rhône-Alpes","Réseau urbain L'va"],"lt":0,"dept":"69"}},{"type":"Feature","geometry":{"type":"Point","coordinates":[4.85317,45.52017]},"properties":{"nom":"Planeze Cimetière","ag":["Agrégat des réseaux urbains et interurbains d'Auvergne-Rhône-Alpes","Réseau urbain L'va"],"lt":0,"dept":"69"}},{"type":"Feature","geometry":{"type":"Point","coordinates":[4.85325,45.5202]},"properties":{"nom":"Planeze Cimetière","ag":["Agrégat des réseaux urbains et interurbains d'Auvergne-Rhône-Alpes","Réseau urbain L'va"],"lt":0,"dept":"69"}},{"type":"Feature","geometry":{"type":"Point","coordinates":[4.8538,45.51317]},"properties":{"nom":"RD386 / RTE de ST CYR","ag":["Agrégat des réseaux urbains et interurbains d'Auvergne-Rhône-Alpes","Réseau urbain L'va"],"lt":0,"dept":"69"}},{"type":"Feature","geometry":{"type":"Point","coordinates":[4.85259,45.51298]},"properties":{"nom":"RD386 / RTE de ST CYR","ag":["Agrégat des réseaux urbains et interurbains d'Auvergne-Rhône-Alpes","Réseau urbain L'va"],"lt":0,"dept":"69"}},{"type":"Feature","geometry":{"type":"Point","coordinates":[4.84701,45.51874]},"properties":{"nom":"Le Remilly","ag":["Agrégat des réseaux urbains et interurbains d'Auvergne-Rhône-Alpes","Réseau urbain L'va"],"lt":0,"dept":"69"}},{"type":"Feature","geometry":{"type":"Point","coordinates":[4.84704,45.51885]},"properties":{"nom":"Le Remilly","ag":["Agrégat des réseaux urbains et interurbains d'Auvergne-Rhône-Alpes","Réseau urbain L'va"],"lt":0,"dept":"69"}},{"type":"Feature","geometry":{"type":"Point","coordinates":[4.81078,45.52046]},"properties":{"nom":"Rozier","ag":["Agrégat des réseaux urbains et interurbains d'Auvergne-Rhône-Alpes","Réseau urbain L'va"],"lt":0,"dept":"69"}},{"type":"Feature","geometry":{"type":"Point","coordinates":[4.8109,45.52053]},"properties":{"nom":"Rozier","ag":["Agrégat des réseaux urbains et interurbains d'Auvergne-Rhône-Alpes","Réseau urbain L'va"],"lt":0,"dept":"69"}},{"type":"Feature","geometry":{"type":"Point","coordinates":[4.83285,45.51603]},"properties":{"nom":"Servonnière","ag":["Agrégat des réseaux urbains et interurbains d'Auvergne-Rhône-Alpes","Réseau urbain L'va"],"lt":0,"dept":"69"}},{"type":"Feature","geometry":{"type":"Point","coordinates":[4.83282,45.51614]},"properties":{"nom":"Servonnière","ag":["Agrégat des réseaux urbains et interurbains d'Auvergne-Rhône-Alpes","Réseau urbain L'va"],"lt":0,"dept":"69"}},{"type":"Feature","geometry":{"type":"Point","coordinates":[4.86012,45.51749]},"properties":{"nom":"Vezerance","ag":["Agrégat des réseaux urbains et interurbains d'Auvergne-Rhône-Alpes","Réseau urbain L'va"],"lt":0,"dept":"69"}},{"type":"Feature","geometry":{"type":"Point","coordinates":[4.85243,45.51269]},"properties":{"nom":"Centre Nautique","ag":["Agrégat des réseaux urbains et interurbains d'Auvergne-Rhône-Alpes","Réseau urbain L'va"],"lt":0,"dept":"69"}},{"type":"Feature","geometry":{"type":"Point","coordinates":[4.85301,45.51275]},"properties":{"nom":"Centre Nautique","ag":["Agrégat des réseaux urbains et interurbains d'Auvergne-Rhône-Alpes","Réseau urbain L'va"],"lt":0,"dept":"69"}},{"type":"Feature","geometry":{"type":"Point","coordinates":[4.71889,46.06221]},"properties":{"nom":"Saint-Georges-de-Reneins","ag":["Agrégat des réseaux urbains et interurbains d'Auvergne-Rhône-Alpes","Trains régionaux ZOU !","Réseau interurbain Cars Région Express","Réseau SNCF TGV, Intercités et TER"],"lt":0,"dept":"69"}},{"type":"Feature","geometry":{"type":"Point","coordinates":[4.86578,45.52991]},"properties":{"nom":"Lycée","ag":["Agrégat des réseaux urbains et interurbains d'Auvergne-Rhône-Alpes","Réseau interurbain - Loire (42)"],"lt":0,"dept":"69"}},{"type":"Feature","geometry":{"type":"Point","coordinates":[4.86549,45.52961]},"properties":{"nom":"Lycée","ag":["Agrégat des réseaux urbains et interurbains d'Auvergne-Rhône-Alpes","Réseau interurbain - Loire (42)"],"lt":0,"dept":"69"}},{"type":"Feature","geometry":{"type":"Point","coordinates":[4.86566,45.53016]},"properties":{"nom":"Lycée E.Fitzgerald","ag":["Agrégat des réseaux urbains et interurbains d'Auvergne-Rhône-Alpes","Réseau interurbain - Isère (38)"],"lt":0,"dept":"69"}},{"type":"Feature","geometry":{"type":"Point","coordinates":[4.86563,45.5303]},"properties":{"nom":"Lycée E.Fitzgerald","ag":["Agrégat des réseaux urbains et interurbains d'Auvergne-Rhône-Alpes","Réseau interurbain - Isère (38)"],"lt":0,"dept":"69"}},{"type":"Feature","geometry":{"type":"Point","coordinates":[4.81214,45.53149]},"properties":{"nom":"Les Amaris","ag":["Agrégat des réseaux urbains et interurbains d'Auvergne-Rhône-Alpes","Réseau urbain L'va"],"lt":0,"dept":"69"}},{"type":"Feature","geometry":{"type":"Point","coordinates":[4.81212,45.53165]},"properties":{"nom":"Les Amaris","ag":["Agrégat des réseaux urbains et interurbains d'Auvergne-Rhône-Alpes","Réseau urbain L'va"],"lt":0,"dept":"69"}},{"type":"Feature","geometry":{"type":"Point","coordinates":[4.83581,45.52731]},"properties":{"nom":"La Boulonnière","ag":["Agrégat des réseaux urbains et interurbains d'Auvergne-Rhône-Alpes","Réseau urbain L'va"],"lt":0,"dept":"69"}},{"type":"Feature","geometry":{"type":"Point","coordinates":[4.8358,45.52747]},"properties":{"nom":"La Boulonnière","ag":["Agrégat des réseaux urbains et interurbains d'Auvergne-Rhône-Alpes","Réseau urbain L'va"],"lt":0,"dept":"69"}},{"type":"Feature","geometry":{"type":"Point","coordinates":[4.84555,45.53038]},"properties":{"nom":"Granges","ag":["Agrégat des réseaux urbains et interurbains d'Auvergne-Rhône-Alpes","Réseau urbain L'va"],"lt":0,"dept":"69"}},{"type":"Feature","geometry":{"type":"Point","coordinates":[4.84549,45.5305]},"properties":{"nom":"Granges","ag":["Agrégat des réseaux urbains et interurbains d'Auvergne-Rhône-Alpes","Réseau urbain L'va"],"lt":0,"dept":"69"}},{"type":"Feature","geometry":{"type":"Point","coordinates":[4.80021,45.52965]},"properties":{"nom":"Le Grisard","ag":["Agrégat des réseaux urbains et interurbains d'Auvergne-Rhône-Alpes","Réseau urbain L'va"],"lt":0,"dept":"69"}},{"type":"Feature","geometry":{"type":"Point","coordinates":[4.8002,45.52986]},"properties":{"nom":"Le Grisard","ag":["Agrégat des réseaux urbains et interurbains d'Auvergne-Rhône-Alpes","Réseau urbain L'va"],"lt":0,"dept":"69"}},{"type":"Feature","geometry":{"type":"Point","coordinates":[4.85829,45.53561]},"properties":{"nom":"Mairie","ag":["Agrégat des réseaux urbains et interurbains d'Auvergne-Rhône-Alpes","Réseau urbain L'va"],"lt":0,"dept":"69"}},{"type":"Feature","geometry":{"type":"Point","coordinates":[4.85833,45.53568]},"properties":{"nom":"Mairie","ag":["Agrégat des réseaux urbains et interurbains d'Auvergne-Rhône-Alpes","Réseau urbain L'va"],"lt":0,"dept":"69"}},{"type":"Feature","geometry":{"type":"Point","coordinates":[4.85341,45.53145]},"properties":{"nom":"Pommérieux","ag":["Agrégat des réseaux urbains et interurbains d'Auvergne-Rhône-Alpes","Réseau urbain L'va"],"lt":0,"dept":"69"}},{"type":"Feature","geometry":{"type":"Point","coordinates":[4.85352,45.53155]},"properties":{"nom":"Pommérieux","ag":["Agrégat des réseaux urbains et interurbains d'Auvergne-Rhône-Alpes","Réseau urbain L'va"],"lt":0,"dept":"69"}},{"type":"Feature","geometry":{"type":"Point","coordinates":[4.8211,45.53033]},"properties":{"nom":"Renardière","ag":["Agrégat des réseaux urbains et interurbains d'Auvergne-Rhône-Alpes","Réseau urbain L'va"],"lt":0,"dept":"69"}},{"type":"Feature","geometry":{"type":"Point","coordinates":[4.82119,45.53046]},"properties":{"nom":"Renardière","ag":["Agrégat des réseaux urbains et interurbains d'Auvergne-Rhône-Alpes","Réseau urbain L'va"],"lt":0,"dept":"69"}},{"type":"Feature","geometry":{"type":"Point","coordinates":[4.8297,45.52856]},"properties":{"nom":"Tabin","ag":["Agrégat des réseaux urbains et interurbains d'Auvergne-Rhône-Alpes","Réseau urbain L'va"],"lt":0,"dept":"69"}},{"type":"Feature","geometry":{"type":"Point","coordinates":[4.8297,45.52839]},"properties":{"nom":"Tabin","ag":["Agrégat des réseaux urbains et interurbains d'Auvergne-Rhône-Alpes","Réseau urbain L'va"],"lt":0,"dept":"69"}},{"type":"Feature","geometry":{"type":"Point","coordinates":[4.83648,45.54027]},"properties":{"nom":"Hameau de Barlet","ag":["Agrégat des réseaux urbains et interurbains d'Auvergne-Rhône-Alpes","Réseau urbain L'va"],"lt":0,"dept":"69"}},{"type":"Feature","geometry":{"type":"Point","coordinates":[4.83472,45.54082]},"properties":{"nom":"Hameau de Barlet","ag":["Agrégat des réseaux urbains et interurbains d'Auvergne-Rhône-Alpes","Réseau urbain L'va"],"lt":0,"dept":"69"}},{"type":"Feature","geometry":{"type":"Point","coordinates":[4.85535,45.53745]},"properties":{"nom":"Chemin de la Lone","ag":["Agrégat des réseaux urbains et interurbains d'Auvergne-Rhône-Alpes","Réseau urbain L'va"],"lt":0,"dept":"69"}},{"type":"Feature","geometry":{"type":"Point","coordinates":[4.85518,45.53766]},"properties":{"nom":"Chemin de la Lone","ag":["Agrégat des réseaux urbains et interurbains d'Auvergne-Rhône-Alpes","Réseau urbain L'va"],"lt":0,"dept":"69"}},{"type":"Feature","geometry":{"type":"Point","coordinates":[4.86574,45.5302]},"properties":{"nom":"Lycée E. Fitzgerald","ag":["Agrégat des réseaux urbains et interurbains d'Auvergne-Rhône-Alpes","Réseau urbain L'va"],"lt":0,"dept":"69"}},{"type":"Feature","geometry":{"type":"Point","coordinates":[4.8636,45.53127]},"properties":{"nom":"Lycée E.Fitzgerald","ag":["Agrégat des réseaux urbains et interurbains d'Auvergne-Rhône-Alpes","Réseau urbain L'va"],"lt":0,"dept":"69"}},{"type":"Feature","geometry":{"type":"Point","coordinates":[4.86366,45.53152]},"properties":{"nom":"Lycée E.Fitzgerald","ag":["Agrégat des réseaux urbains et interurbains d'Auvergne-Rhône-Alpes","Réseau urbain L'va"],"lt":0,"dept":"69"}},{"type":"Feature","geometry":{"type":"Point","coordinates":[4.86043,45.53476]},"properties":{"nom":"Village","ag":["Agrégat des réseaux urbains et interurbains d'Auvergne-Rhône-Alpes","Réseau urbain L'va"],"lt":0,"dept":"69"}},{"type":"Feature","geometry":{"type":"Point","coordinates":[4.86027,45.53516]},"properties":{"nom":"Village","ag":["Agrégat des réseaux urbains et interurbains d'Auvergne-Rhône-Alpes","Réseau urbain L'va"],"lt":0,"dept":"69"}},{"type":"Feature","geometry":{"type":"Point","coordinates":[4.86557,45.53005]},"properties":{"nom":"Lycée Ella Fitzgerald","ag":["Agrégat des réseaux urbains et interurbains d'Auvergne-Rhône-Alpes","Réseau urbain L'va"],"lt":0,"dept":"69"}},{"type":"Feature","geometry":{"type":"Point","coordinates":[4.70323,45.56601]},"properties":{"nom":"Ancien Canal","ag":["Agrégat des réseaux urbains et interurbains d'Auvergne-Rhône-Alpes","Réseau urbain L'va"],"lt":0,"dept":"69"}},{"type":"Feature","geometry":{"type":"Point","coordinates":[4.71356,45.57338]},"properties":{"nom":"Four à Chaux","ag":["Agrégat des réseaux urbains et interurbains d'Auvergne-Rhône-Alpes","Réseau urbain L'va"],"lt":0,"dept":"69"}},{"type":"Feature","geometry":{"type":"Point","coordinates":[4.71331,45.57337]},"properties":{"nom":"Four à Chaux","ag":["Agrégat des réseaux urbains et interurbains d'Auvergne-Rhône-Alpes","Réseau urbain L'va"],"lt":0,"dept":"69"}},{"type":"Feature","geometry":{"type":"Point","coordinates":[4.70736,45.56565]},"properties":{"nom":"Place de la Mairie","ag":["Agrégat des réseaux urbains et interurbains d'Auvergne-Rhône-Alpes","Réseau urbain L'va"],"lt":0,"dept":"69"}},{"type":"Feature","geometry":{"type":"Point","coordinates":[4.675,45.54025]},"properties":{"nom":"Le Bourg","ag":["Agrégat des réseaux urbains et interurbains d'Auvergne-Rhône-Alpes","Réseau urbain L'va"],"lt":0,"dept":"69"}},{"type":"Feature","geometry":{"type":"Point","coordinates":[4.67494,45.54013]},"properties":{"nom":"Le Bourg","ag":["Agrégat des réseaux urbains et interurbains d'Auvergne-Rhône-Alpes","Réseau urbain L'va"],"lt":0,"dept":"69"}},{"type":"Feature","geometry":{"type":"Point","coordinates":[4.70639,45.52229]},"properties":{"nom":"Champ Blanc","ag":["Agrégat des réseaux urbains et interurbains d'Auvergne-Rhône-Alpes","Réseau urbain L'va"],"lt":0,"dept":"69"}},{"type":"Feature","geometry":{"type":"Point","coordinates":[4.70632,45.52231]},"properties":{"nom":"Champ Blanc","ag":["Agrégat des réseaux urbains et interurbains d'Auvergne-Rhône-Alpes","Réseau urbain L'va"],"lt":0,"dept":"69"}},{"type":"Feature","geometry":{"type":"Point","coordinates":[4.71014,45.52625]},"properties":{"nom":"Le Colombet","ag":["Agrégat des réseaux urbains et interurbains d'Auvergne-Rhône-Alpes","Réseau urbain L'va"],"lt":0,"dept":"69"}},{"type":"Feature","geometry":{"type":"Point","coordinates":[4.71017,45.52621]},"properties":{"nom":"Le Colombet","ag":["Agrégat des réseaux urbains et interurbains d'Auvergne-Rhône-Alpes","Réseau urbain L'va"],"lt":0,"dept":"69"}},{"type":"Feature","geometry":{"type":"Point","coordinates":[4.69126,45.5319]},"properties":{"nom":"La Dhuire","ag":["Agrégat des réseaux urbains et interurbains d'Auvergne-Rhône-Alpes","Réseau urbain L'va"],"lt":0,"dept":"69"}},{"type":"Feature","geometry":{"type":"Point","coordinates":[4.6912,45.53185]},"properties":{"nom":"La Dhuire","ag":["Agrégat des réseaux urbains et interurbains d'Auvergne-Rhône-Alpes","Réseau urbain L'va"],"lt":0,"dept":"69"}},{"type":"Feature","geometry":{"type":"Point","coordinates":[4.69621,45.52368]},"properties":{"nom":"Le Fautre","ag":["Agrégat des réseaux urbains et interurbains d'Auvergne-Rhône-Alpes","Réseau urbain L'va"],"lt":0,"dept":"69"}},{"type":"Feature","geometry":{"type":"Point","coordinates":[4.69604,45.52362]},"properties":{"nom":"Le Fautre","ag":["Agrégat des réseaux urbains et interurbains d'Auvergne-Rhône-Alpes","Réseau urbain L'va"],"lt":0,"dept":"69"}},{"type":"Feature","geometry":{"type":"Point","coordinates":[4.6868,45.53611]},"properties":{"nom":"Le Garon","ag":["Agrégat des réseaux urbains et interurbains d'Auvergne-Rhône-Alpes","Réseau urbain L'va"],"lt":0,"dept":"69"}},{"type":"Feature","geometry":{"type":"Point","coordinates":[4.68676,45.53606]},"properties":{"nom":"Le Garon","ag":["Agrégat des réseaux urbains et interurbains d'Auvergne-Rhône-Alpes","Réseau urbain L'va"],"lt":0,"dept":"69"}},{"type":"Feature","geometry":{"type":"Point","coordinates":[4.78984,45.48384]},"properties":{"nom":"Tupin","ag":["Agrégat des réseaux urbains et interurbains d'Auvergne-Rhône-Alpes","Réseau interurbain - Loire (42)"],"lt":0,"dept":"69"}},{"type":"Feature","geometry":{"type":"Point","coordinates":[4.78956,45.48349]},"properties":{"nom":"Tupin","ag":["Agrégat des réseaux urbains et interurbains d'Auvergne-Rhône-Alpes","Réseau interurbain - Loire (42)"],"lt":0,"dept":"69"}},{"type":"Feature","geometry":{"type":"Point","coordinates":[4.77489,45.5004]},"properties":{"nom":"Le Gauthier","ag":["Agrégat des réseaux urbains et interurbains d'Auvergne-Rhône-Alpes","Réseau urbain L'va"],"lt":0,"dept":"69"}},{"type":"Feature","geometry":{"type":"Point","coordinates":[4.77495,45.5003]},"properties":{"nom":"Le Gauthier","ag":["Agrégat des réseaux urbains et interurbains d'Auvergne-Rhône-Alpes","Réseau urbain L'va"],"lt":0,"dept":"69"}},{"type":"Feature","geometry":{"type":"Point","coordinates":[4.76335,45.49407]},"properties":{"nom":"Grange Neuve","ag":["Agrégat des réseaux urbains et interurbains d'Auvergne-Rhône-Alpes","Réseau urbain L'va"],"lt":0,"dept":"69"}},{"type":"Feature","geometry":{"type":"Point","coordinates":[4.7635,45.49413]},"properties":{"nom":"Grange Neuve","ag":["Agrégat des réseaux urbains et interurbains d'Auvergne-Rhône-Alpes","Réseau urbain L'va"],"lt":0,"dept":"69"}},{"type":"Feature","geometry":{"type":"Point","coordinates":[4.768,45.50013]},"properties":{"nom":"Grange Berthière","ag":["Agrégat des réseaux urbains et interurbains d'Auvergne-Rhône-Alpes","Réseau urbain L'va"],"lt":0,"dept":"69"}},{"type":"Feature","geometry":{"type":"Point","coordinates":[4.76801,45.50003]},"properties":{"nom":"Grange Berthière","ag":["Agrégat des réseaux urbains et interurbains d'Auvergne-Rhône-Alpes","Réseau urbain L'va"],"lt":0,"dept":"69"}},{"type":"Feature","geometry":{"type":"Point","coordinates":[4.76986,45.48969]},"properties":{"nom":"Gravisse","ag":["Agrégat des réseaux urbains et interurbains d'Auvergne-Rhône-Alpes","Réseau urbain L'va"],"lt":0,"dept":"69"}},{"type":"Feature","geometry":{"type":"Point","coordinates":[4.76997,45.48974]},"properties":{"nom":"Gravisse","ag":["Agrégat des réseaux urbains et interurbains d'Auvergne-Rhône-Alpes","Réseau urbain L'va"],"lt":0,"dept":"69"}},{"type":"Feature","geometry":{"type":"Point","coordinates":[4.7772,45.47815]},"properties":{"nom":"Mairie","ag":["Agrégat des réseaux urbains et interurbains d'Auvergne-Rhône-Alpes","Réseau urbain L'va"],"lt":0,"dept":"69"}},{"type":"Feature","geometry":{"type":"Point","coordinates":[4.7773,45.47811]},"properties":{"nom":"Mairie","ag":["Agrégat des réseaux urbains et interurbains d'Auvergne-Rhône-Alpes","Réseau urbain L'va"],"lt":0,"dept":"69"}},{"type":"Feature","geometry":{"type":"Point","coordinates":[4.77763,45.48535]},"properties":{"nom":"Les Olivières","ag":["Agrégat des réseaux urbains et interurbains d'Auvergne-Rhône-Alpes","Réseau urbain L'va"],"lt":0,"dept":"69"}},{"type":"Feature","geometry":{"type":"Point","coordinates":[4.77771,45.48536]},"properties":{"nom":"Les Olivières","ag":["Agrégat des réseaux urbains et interurbains d'Auvergne-Rhône-Alpes","Réseau urbain L'va"],"lt":0,"dept":"69"}},{"type":"Feature","geometry":{"type":"Point","coordinates":[4.7767,45.48696]},"properties":{"nom":"Pimotin","ag":["Agrégat des réseaux urbains et interurbains d'Auvergne-Rhône-Alpes","Réseau urbain L'va"],"lt":0,"dept":"69"}},{"type":"Feature","geometry":{"type":"Point","coordinates":[4.77673,45.48702]},"properties":{"nom":"Pimotin","ag":["Agrégat des réseaux urbains et interurbains d'Auvergne-Rhône-Alpes","Réseau urbain L'va"],"lt":0,"dept":"69"}},{"type":"Feature","geometry":{"type":"Point","coordinates":[4.76049,45.49925]},"properties":{"nom":"Planeze","ag":["Agrégat des réseaux urbains et interurbains d'Auvergne-Rhône-Alpes","Réseau urbain L'va"],"lt":0,"dept":"69"}},{"type":"Feature","geometry":{"type":"Point","coordinates":[4.76058,45.49916]},"properties":{"nom":"Planeze","ag":["Agrégat des réseaux urbains et interurbains d'Auvergne-Rhône-Alpes","Réseau urbain L'va"],"lt":0,"dept":"69"}},{"type":"Feature","geometry":{"type":"Point","coordinates":[4.78986,45.48375]},"properties":{"nom":"Tupin","ag":["Agrégat des réseaux urbains et interurbains d'Auvergne-Rhône-Alpes","Réseau urbain L'va"],"lt":0,"dept":"69"}},{"type":"Feature","geometry":{"type":"Point","coordinates":[4.78897,45.48336]},"properties":{"nom":"Tupin","ag":["Agrégat des réseaux urbains et interurbains d'Auvergne-Rhône-Alpes","Réseau urbain L'va"],"lt":0,"dept":"69"}},{"type":"Feature","geometry":{"type":"Point","coordinates":[4.9412,45.798]},"properties":{"nom":"L'ATOL'","ag":["Agrégat des réseaux urbains et interurbains d'Auvergne-Rhône-Alpes","Réseau urbain Colibri"],"lt":0,"dept":"69"}},{"type":"Feature","geometry":{"type":"Point","coordinates":[4.936,45.8016]},"properties":{"nom":"LE MORLET","ag":["Agrégat des réseaux urbains et interurbains d'Auvergne-Rhône-Alpes","Réseau urbain Colibri"],"lt":0,"dept":"69"}},{"type":"Feature","geometry":{"type":"Point","coordinates":[4.9358,45.8016]},"properties":{"nom":"LE MORLET","ag":["Agrégat des réseaux urbains et interurbains d'Auvergne-Rhône-Alpes","Réseau urbain Colibri"],"lt":0,"dept":"69"}},{"type":"Feature","geometry":{"type":"Point","coordinates":[4.90139,45.71156]},"properties":{"nom":"Cité Berliet","ag":["Agrégat des réseaux urbains et interurbains d'Auvergne-Rhône-Alpes","Réseau interurbain - Isère (38)"],"lt":0,"dept":"69"}},{"type":"Feature","geometry":{"type":"Point","coordinates":[4.88782,45.72006]},"properties":{"nom":"Parilly","ag":["Agrégat des réseaux urbains et interurbains d'Auvergne-Rhône-Alpes","Réseau interurbain - Isère (38)"],"lt":0,"dept":"69"}},{"type":"Feature","geometry":{"type":"Point","coordinates":[4.88811,45.71932]},"properties":{"nom":"Parilly","ag":["Agrégat des réseaux urbains et interurbains d'Auvergne-Rhône-Alpes","Réseau interurbain - Isère (38)"],"lt":0,"dept":"69"}},{"type":"Feature","geometry":{"type":"Point","coordinates":[4.88801,45.70561]},"properties":{"nom":"Vénissieux","ag":["Agrégat des réseaux urbains et interurbains d'Auvergne-Rhône-Alpes","Réseau interurbain Cars Région Express","Réseau SNCF TGV, Intercités et TER"],"lt":0,"dept":"69"}},{"type":"Feature","geometry":{"type":"Point","coordinates":[4.72048,45.98378]},"properties":{"nom":"Gare R.","ag":["Agrégat des réseaux urbains et interurbains d'Auvergne-Rhône-Alpes","Réseau interurbain Cars Région Express"],"lt":0,"dept":"69"}},{"type":"Feature","geometry":{"type":"Point","coordinates":[4.71905,45.99674]},"properties":{"nom":"Burie","ag":["Agrégat des réseaux urbains et interurbains d'Auvergne-Rhône-Alpes","Réseau interurbain Cars Région Express"],"lt":0,"dept":"69"}},{"type":"Feature","geometry":{"type":"Point","coordinates":[5.01468,45.73631]},"properties":{"nom":"Institution Jeanne d'Arc Azieu","ag":["Agrégat des réseaux urbains et interurbains d'Auvergne-Rhône-Alpes","Réseau interurbain - Isère (38)"],"lt":0,"dept":"69"}},{"type":"Feature","geometry":{"type":"Point","coordinates":[5.01488,45.73599]},"properties":{"nom":"Institution Jeanne d'Arc Azieu","ag":["Agrégat des réseaux urbains et interurbains d'Auvergne-Rhône-Alpes","Réseau interurbain - Isère (38)"],"lt":0,"dept":"69"}},{"type":"Feature","geometry":{"type":"Point","coordinates":[5.03115,45.76803]},"properties":{"nom":"Z.I. Tram","ag":["Agrégat des réseaux urbains et interurbains d'Auvergne-Rhône-Alpes","Réseau interurbain - Isère (38)"],"lt":0,"dept":"69"}},{"type":"Feature","geometry":{"type":"Point","coordinates":[4.954,45.65244]},"properties":{"nom":"Croix-Rouge","ag":["Agrégat des réseaux urbains et interurbains d'Auvergne-Rhône-Alpes","Réseau interurbain - Isère (38)"],"lt":0,"dept":"69"}},{"type":"Feature","geometry":{"type":"Point","coordinates":[4.95387,45.65238]},"properties":{"nom":"Croix-Rouge","ag":["Agrégat des réseaux urbains et interurbains d'Auvergne-Rhône-Alpes","Réseau interurbain - Isère (38)"],"lt":0,"dept":"69"}},{"type":"Feature","geometry":{"type":"Point","coordinates":[4.95383,45.65867]},"properties":{"nom":"Libération","ag":["Agrégat des réseaux urbains et interurbains d'Auvergne-Rhône-Alpes","Réseau interurbain - Isère (38)"],"lt":0,"dept":"69"}},{"type":"Feature","geometry":{"type":"Point","coordinates":[4.95378,45.65902]},"properties":{"nom":"Libération","ag":["Agrégat des réseaux urbains et interurbains d'Auvergne-Rhône-Alpes","Réseau interurbain - Isère (38)"],"lt":0,"dept":"69"}},{"type":"Feature","geometry":{"type":"Point","coordinates":[4.95227,45.66411]},"properties":{"nom":"23 Août 1944","ag":["Agrégat des réseaux urbains et interurbains d'Auvergne-Rhône-Alpes","Réseau interurbain - Isère (38)"],"lt":0,"dept":"69"}},{"type":"Feature","geometry":{"type":"Point","coordinates":[4.95236,45.66408]},"properties":{"nom":"23 Août 1944","ag":["Agrégat des réseaux urbains et interurbains d'Auvergne-Rhône-Alpes","Réseau interurbain - Isère (38)"],"lt":0,"dept":"69"}},{"type":"Feature","geometry":{"type":"Point","coordinates":[4.94921,45.67947]},"properties":{"nom":"Les Meurières","ag":["Agrégat des réseaux urbains et interurbains d'Auvergne-Rhône-Alpes","Réseau interurbain - Isère (38)"],"lt":0,"dept":"69"}},{"type":"Feature","geometry":{"type":"Point","coordinates":[4.94913,45.67942]},"properties":{"nom":"Les Meurières","ag":["Agrégat des réseaux urbains et interurbains d'Auvergne-Rhône-Alpes","Réseau interurbain - Isère (38)"],"lt":0,"dept":"69"}},{"type":"Feature","geometry":{"type":"Point","coordinates":[4.95008,45.67019]},"properties":{"nom":"Parc Nelson Mandela","ag":["Agrégat des réseaux urbains et interurbains d'Auvergne-Rhône-Alpes","Réseau interurbain - Isère (38)"],"lt":0,"dept":"69"}},{"type":"Feature","geometry":{"type":"Point","coordinates":[4.95029,45.66994]},"properties":{"nom":"Parc Nelson Mandela","ag":["Agrégat des réseaux urbains et interurbains d'Auvergne-Rhône-Alpes","Réseau interurbain - Isère (38)"],"lt":0,"dept":"69"}},{"type":"Feature","geometry":{"type":"Point","coordinates":[5.06227,45.75963]},"properties":{"nom":"La Poste-Le Vallon","ag":["Agrégat des réseaux urbains et interurbains d'Auvergne-Rhône-Alpes","Réseau interurbain - Isère (38)"],"lt":0,"dept":"69"}},{"type":"Feature","geometry":{"type":"Point","coordinates":[5.06196,45.75964]},"properties":{"nom":"La Poste-Le Vallon","ag":["Agrégat des réseaux urbains et interurbains d'Auvergne-Rhône-Alpes","Réseau interurbain - Isère (38)"],"lt":0,"dept":"69"}},{"type":"Feature","geometry":{"type":"Point","coordinates":[5.0671,45.75805]},"properties":{"nom":"Place la Valla","ag":["Agrégat des réseaux urbains et interurbains d'Auvergne-Rhône-Alpes","Réseau interurbain - Isère (38)"],"lt":0,"dept":"69"}},{"type":"Feature","geometry":{"type":"Point","coordinates":[5.06743,45.75802]},"properties":{"nom":"Place la Valla","ag":["Agrégat des réseaux urbains et interurbains d'Auvergne-Rhône-Alpes","Réseau interurbain - Isère (38)"],"lt":0,"dept":"69"}},{"type":"Feature","geometry":{"type":"Point","coordinates":[4.9089,45.8194]},"properties":{"nom":"RILLIEUX SEMAILLES","ag":["Agrégat des réseaux urbains et interurbains d'Auvergne-Rhône-Alpes","Réseau urbain Colibri"],"lt":0,"dept":"69"}},{"type":"Feature","geometry":{"type":"Point","coordinates":[4.9085,45.8194]},"properties":{"nom":"RILLIEUX SEMAILLES","ag":["Agrégat des réseaux urbains et interurbains d'Auvergne-Rhône-Alpes","Réseau urbain Colibri"],"lt":0,"dept":"69"}},{"type":"Feature","geometry":{"type":"Point","coordinates":[4.91548,45.82218]},"properties":{"nom":"OSTERODE","ag":["Agrégat des réseaux urbains et interurbains d'Auvergne-Rhône-Alpes","Réseau urbain Colibri"],"lt":0,"dept":"69"}},{"type":"Feature","geometry":{"type":"Point","coordinates":[4.91318,45.82023]},"properties":{"nom":"ZI SERMENAZ","ag":["Agrégat des réseaux urbains et interurbains d'Auvergne-Rhône-Alpes","Réseau urbain Colibri"],"lt":0,"dept":"69"}},{"type":"Feature","geometry":{"type":"Point","coordinates":[4.91582,45.82288]},"properties":{"nom":"OSTERODE","ag":["Agrégat des réseaux urbains et interurbains d'Auvergne-Rhône-Alpes","Réseau urbain Colibri"],"lt":0,"dept":"69"}},{"type":"Feature","geometry":{"type":"Point","coordinates":[4.91411,45.82016]},"properties":{"nom":"ZI SERMENAZ","ag":["Agrégat des réseaux urbains et interurbains d'Auvergne-Rhône-Alpes","Réseau urbain Colibri"],"lt":0,"dept":"69"}},{"type":"Feature","geometry":{"type":"Point","coordinates":[5.06017,45.68427]},"properties":{"nom":"Zone Industrielle","ag":["Agrégat des réseaux urbains et interurbains d'Auvergne-Rhône-Alpes","Réseau interurbain - Isère (38)"],"lt":0,"dept":"69"}},{"type":"Feature","geometry":{"type":"Point","coordinates":[5.05997,45.68414]},"properties":{"nom":"Zone Industrielle","ag":["Agrégat des réseaux urbains et interurbains d'Auvergne-Rhône-Alpes","Réseau interurbain - Isère (38)"],"lt":0,"dept":"69"}},{"type":"Feature","geometry":{"type":"Point","coordinates":[5.02363,45.64589]},"properties":{"nom":"Le Frindeau","ag":["Agrégat des réseaux urbains et interurbains d'Auvergne-Rhône-Alpes","Réseau interurbain - Isère (38)"],"lt":0,"dept":"69"}},{"type":"Feature","geometry":{"type":"Point","coordinates":[5.0237,45.64579]},"properties":{"nom":"Le Frindeau","ag":["Agrégat des réseaux urbains et interurbains d'Auvergne-Rhône-Alpes","Réseau interurbain - Isère (38)"],"lt":0,"dept":"69"}},{"type":"Feature","geometry":{"type":"Point","coordinates":[5.01157,45.64761]},"properties":{"nom":"Amédée Ronin","ag":["Agrégat des réseaux urbains et interurbains d'Auvergne-Rhône-Alpes","Réseau interurbain - Isère (38)"],"lt":0,"dept":"69"}},{"type":"Feature","geometry":{"type":"Point","coordinates":[5.01171,45.64766]},"properties":{"nom":"Amédée Ronin","ag":["Agrégat des réseaux urbains et interurbains d'Auvergne-Rhône-Alpes","Réseau interurbain - Isère (38)"],"lt":0,"dept":"69"}},{"type":"Feature","geometry":{"type":"Point","coordinates":[5.03457,45.64111]},