{"type":"FeatureCollection","features":[{"type":"Feature","geometry":{"type":"Point","coordinates":[4.94598,46.90554]},"properties":{"nom":"BAIGNANT","ag":["Réseau urbain Zoom"],"lt":0,"dept":"71"}},{"type":"Feature","geometry":{"type":"Point","coordinates":[4.94599,46.90553]},"properties":{"nom":"BAIGNANT","ag":["Réseau urbain Zoom"],"lt":0,"dept":"71"}},{"type":"Feature","geometry":{"type":"Point","coordinates":[4.9936,46.90565]},"properties":{"nom":"CHAUVORT","ag":["Réseau urbain Zoom"],"lt":0,"dept":"71"}},{"type":"Feature","geometry":{"type":"Point","coordinates":[4.99327,46.90559]},"properties":{"nom":"CHAUVORT","ag":["Réseau urbain Zoom"],"lt":0,"dept":"71"}},{"type":"Feature","geometry":{"type":"Point","coordinates":[4.97272,46.90265]},"properties":{"nom":"GARE ALLEREY","ag":["Réseau urbain Zoom"],"lt":0,"dept":"71"}},{"type":"Feature","geometry":{"type":"Point","coordinates":[4.9729,46.90254]},"properties":{"nom":"GARE ALLEREY","ag":["Réseau urbain Zoom"],"lt":0,"dept":"71"}},{"type":"Feature","geometry":{"type":"Point","coordinates":[4.99315,46.9221]},"properties":{"nom":"GRAND PUSSEY","ag":["Réseau urbain Zoom"],"lt":0,"dept":"71"}},{"type":"Feature","geometry":{"type":"Point","coordinates":[4.98306,46.90551]},"properties":{"nom":"MAIRIE ALLEREY","ag":["Réseau urbain Zoom"],"lt":0,"dept":"71"}},{"type":"Feature","geometry":{"type":"Point","coordinates":[4.98318,46.90547]},"properties":{"nom":"MAIRIE ALLEREY","ag":["Réseau urbain Zoom"],"lt":0,"dept":"71"}},{"type":"Feature","geometry":{"type":"Point","coordinates":[4.99163,46.91853]},"properties":{"nom":"PETIT PUSSEY","ag":["Réseau urbain Zoom"],"lt":0,"dept":"71"}},{"type":"Feature","geometry":{"type":"Point","coordinates":[4.73123,46.82833]},"properties":{"nom":"BOURG BASSOT","ag":["Réseau urbain Zoom"],"lt":0,"dept":"71"}},{"type":"Feature","geometry":{"type":"Point","coordinates":[4.73119,46.82843]},"properties":{"nom":"BOURG BASSOT","ag":["Réseau urbain Zoom"],"lt":0,"dept":"71"}},{"type":"Feature","geometry":{"type":"Point","coordinates":[4.6783,46.7892]},"properties":{"nom":"ECOLE BARIZEY","ag":["Réseau urbain Zoom"],"lt":0,"dept":"71"}},{"type":"Feature","geometry":{"type":"Point","coordinates":[4.67025,46.79512]},"properties":{"nom":"THEUREY","ag":["Réseau urbain Zoom"],"lt":0,"dept":"71"}},{"type":"Feature","geometry":{"type":"Point","coordinates":[4.67013,46.79501]},"properties":{"nom":"THEUREY","ag":["Réseau urbain Zoom"],"lt":0,"dept":"71"}},{"type":"Feature","geometry":{"type":"Point","coordinates":[4.85579,46.80648]},"properties":{"nom":"SALVADOR ALLENDE","ag":["Réseau urbain Zoom"],"lt":0,"dept":"71"}},{"type":"Feature","geometry":{"type":"Point","coordinates":[4.85683,46.80581]},"properties":{"nom":"SALVADOR ALLENDE","ag":["Réseau urbain Zoom"],"lt":0,"dept":"71"}},{"type":"Feature","geometry":{"type":"Point","coordinates":[4.81172,46.80028]},"properties":{"nom":"AMALTIDES","ag":["Réseau urbain Zoom"],"lt":0,"dept":"71"}},{"type":"Feature","geometry":{"type":"Point","coordinates":[4.81165,46.79994]},"properties":{"nom":"AMALTIDES","ag":["Réseau urbain Zoom"],"lt":0,"dept":"71"}},{"type":"Feature","geometry":{"type":"Point","coordinates":[4.86213,46.77242]},"properties":{"nom":"CCial SUD","ag":["Réseau urbain Zoom"],"lt":0,"dept":"71"}},{"type":"Feature","geometry":{"type":"Point","coordinates":[4.86219,46.77231]},"properties":{"nom":"CCial SUD","ag":["Réseau urbain Zoom"],"lt":0,"dept":"71"}},{"type":"Feature","geometry":{"type":"Point","coordinates":[4.84935,46.77978]},"properties":{"nom":"AV NIEPCE-ESPACE DES ARTS","ag":["Réseau urbain Zoom"],"lt":0,"dept":"71"}},{"type":"Feature","geometry":{"type":"Point","coordinates":[4.84994,46.77969]},"properties":{"nom":"AV NIEPCE-ESPACE DES ARTS","ag":["Réseau urbain Zoom"],"lt":0,"dept":"71"}},{"type":"Feature","geometry":{"type":"Point","coordinates":[4.80402,46.79887]},"properties":{"nom":"BEARN","ag":["Réseau urbain Zoom"],"lt":0,"dept":"71"}},{"type":"Feature","geometry":{"type":"Point","coordinates":[4.80401,46.79899]},"properties":{"nom":"BEARN","ag":["Réseau urbain Zoom"],"lt":0,"dept":"71"}},{"type":"Feature","geometry":{"type":"Point","coordinates":[4.86359,46.79255]},"properties":{"nom":"BENES","ag":["Réseau urbain Zoom"],"lt":0,"dept":"71"}},{"type":"Feature","geometry":{"type":"Point","coordinates":[4.86334,46.79243]},"properties":{"nom":"BENES","ag":["Réseau urbain Zoom"],"lt":0,"dept":"71"}},{"type":"Feature","geometry":{"type":"Point","coordinates":[4.8453,46.80405]},"properties":{"nom":"BERNANOS","ag":["Réseau urbain Zoom"],"lt":0,"dept":"71"}},{"type":"Feature","geometry":{"type":"Point","coordinates":[4.84502,46.80419]},"properties":{"nom":"BERNANOS","ag":["Réseau urbain Zoom"],"lt":0,"dept":"71"}},{"type":"Feature","geometry":{"type":"Point","coordinates":[4.81603,46.7917]},"properties":{"nom":"BERLIOZ","ag":["Réseau urbain Zoom"],"lt":0,"dept":"71"}},{"type":"Feature","geometry":{"type":"Point","coordinates":[4.82203,46.77931]},"properties":{"nom":"BLANQUI","ag":["Réseau urbain Zoom"],"lt":0,"dept":"71"}},{"type":"Feature","geometry":{"type":"Point","coordinates":[4.8221,46.7794]},"properties":{"nom":"BLANQUI","ag":["Réseau urbain Zoom"],"lt":0,"dept":"71"}},{"type":"Feature","geometry":{"type":"Point","coordinates":[4.86451,46.78386]},"properties":{"nom":"PARC DES EXPOSITIONS","ag":["Réseau urbain Zoom"],"lt":0,"dept":"71"}},{"type":"Feature","geometry":{"type":"Point","coordinates":[4.86379,46.78425]},"properties":{"nom":"PARC DES EXPOSITIONS","ag":["Réseau urbain Zoom"],"lt":0,"dept":"71"}},{"type":"Feature","geometry":{"type":"Point","coordinates":[4.79227,46.71873]},"properties":{"nom":"BOURG LA CHARMEE","ag":["Réseau urbain Zoom"],"lt":0,"dept":"71"}},{"type":"Feature","geometry":{"type":"Point","coordinates":[4.79215,46.71871]},"properties":{"nom":"BOURG LA CHARMEE","ag":["Réseau urbain Zoom"],"lt":0,"dept":"71"}},{"type":"Feature","geometry":{"type":"Point","coordinates":[4.83803,46.78811]},"properties":{"nom":"BOUCICAUT-LIBERTE","ag":["Réseau urbain Zoom"],"lt":0,"dept":"71"}},{"type":"Feature","geometry":{"type":"Point","coordinates":[4.84035,46.8162]},"properties":{"nom":"CANAL","ag":["Réseau urbain Zoom"],"lt":0,"dept":"71"}},{"type":"Feature","geometry":{"type":"Point","coordinates":[4.84046,46.81585]},"properties":{"nom":"CANAL","ag":["Réseau urbain Zoom"],"lt":0,"dept":"71"}},{"type":"Feature","geometry":{"type":"Point","coordinates":[4.85779,46.78667]},"properties":{"nom":"CARLOUP","ag":["Réseau urbain Zoom"],"lt":0,"dept":"71"}},{"type":"Feature","geometry":{"type":"Point","coordinates":[4.85762,46.78669]},"properties":{"nom":"CARLOUP","ag":["Réseau urbain Zoom"],"lt":0,"dept":"71"}},{"type":"Feature","geometry":{"type":"Point","coordinates":[4.8382,46.7753]},"properties":{"nom":"CAPITAINE DRILLIEN","ag":["Réseau urbain Zoom"],"lt":0,"dept":"71"}},{"type":"Feature","geometry":{"type":"Point","coordinates":[4.83816,46.77544]},"properties":{"nom":"CAPITAINE DRILLIEN","ag":["Réseau urbain Zoom"],"lt":0,"dept":"71"}},{"type":"Feature","geometry":{"type":"Point","coordinates":[4.84757,46.79782]},"properties":{"nom":"CARREFOUR av de PARIS","ag":["Réseau urbain Zoom"],"lt":0,"dept":"71"}},{"type":"Feature","geometry":{"type":"Point","coordinates":[4.8474,46.79755]},"properties":{"nom":"CARREFOUR av de PARIS","ag":["Réseau urbain Zoom"],"lt":0,"dept":"71"}},{"type":"Feature","geometry":{"type":"Point","coordinates":[4.84936,46.7928]},"properties":{"nom":"CASERNE CARNOT","ag":["Réseau urbain Zoom"],"lt":0,"dept":"71"}},{"type":"Feature","geometry":{"type":"Point","coordinates":[4.84924,46.79245]},"properties":{"nom":"CASERNE CARNOT","ag":["Réseau urbain Zoom"],"lt":0,"dept":"71"}},{"type":"Feature","geometry":{"type":"Point","coordinates":[4.85583,46.81284]},"properties":{"nom":"CENTRE COMMERCIAL NORD","ag":["Réseau urbain Zoom"],"lt":0,"dept":"71"}},{"type":"Feature","geometry":{"type":"Point","coordinates":[4.85544,46.81261]},"properties":{"nom":"CENTRE COMMERCIAL NORD","ag":["Réseau urbain Zoom"],"lt":0,"dept":"71"}},{"type":"Feature","geometry":{"type":"Point","coordinates":[4.85843,46.77462]},"properties":{"nom":"DUMOREY","ag":["Réseau urbain Zoom"],"lt":0,"dept":"71"}},{"type":"Feature","geometry":{"type":"Point","coordinates":[4.83466,46.79758]},"properties":{"nom":"CENTRE COMMERCIAL THALIE","ag":["Réseau urbain Zoom"],"lt":0,"dept":"71"}},{"type":"Feature","geometry":{"type":"Point","coordinates":[4.86497,46.78509]},"properties":{"nom":"ESPACE NAUTIQUE","ag":["Réseau urbain Zoom"],"lt":0,"dept":"71"}},{"type":"Feature","geometry":{"type":"Point","coordinates":[4.86507,46.78517]},"properties":{"nom":"ESPACE NAUTIQUE","ag":["Réseau urbain Zoom"],"lt":0,"dept":"71"}},{"type":"Feature","geometry":{"type":"Point","coordinates":[4.78808,46.71412]},"properties":{"nom":"CHATEAU LA CHARMEE","ag":["Réseau urbain Zoom"],"lt":0,"dept":"71"}},{"type":"Feature","geometry":{"type":"Point","coordinates":[4.78793,46.71418]},"properties":{"nom":"CHATEAU LA CHARMEE","ag":["Réseau urbain Zoom"],"lt":0,"dept":"71"}},{"type":"Feature","geometry":{"type":"Point","coordinates":[4.91182,46.79175]},"properties":{"nom":"CHAMP CHASSY","ag":["Réseau urbain Zoom"],"lt":0,"dept":"71"}},{"type":"Feature","geometry":{"type":"Point","coordinates":[4.8332,46.78978]},"properties":{"nom":"CHAMP FLEURI","ag":["Réseau urbain Zoom"],"lt":0,"dept":"71"}},{"type":"Feature","geometry":{"type":"Point","coordinates":[4.83233,46.7903]},"properties":{"nom":"CHAMP FLEURI","ag":["Réseau urbain Zoom"],"lt":0,"dept":"71"}},{"type":"Feature","geometry":{"type":"Point","coordinates":[4.84153,46.78465]},"properties":{"nom":"CHAMP GAILLARD","ag":["Réseau urbain Zoom"],"lt":0,"dept":"71"}},{"type":"Feature","geometry":{"type":"Point","coordinates":[4.79956,46.726]},"properties":{"nom":"CHARMILLE","ag":["Réseau urbain Zoom"],"lt":0,"dept":"71"}},{"type":"Feature","geometry":{"type":"Point","coordinates":[4.79942,46.72593]},"properties":{"nom":"CHARMILLE","ag":["Réseau urbain Zoom"],"lt":0,"dept":"71"}},{"type":"Feature","geometry":{"type":"Point","coordinates":[4.85263,46.80687]},"properties":{"nom":"CHAMPS ROUSSOT","ag":["Réseau urbain Zoom"],"lt":0,"dept":"71"}},{"type":"Feature","geometry":{"type":"Point","coordinates":[4.8529,46.80655]},"properties":{"nom":"CHAMPS ROUSSOT","ag":["Réseau urbain Zoom"],"lt":0,"dept":"71"}},{"type":"Feature","geometry":{"type":"Point","coordinates":[4.83374,46.81536]},"properties":{"nom":"CHAMPFORGEUIL THALIE","ag":["Réseau urbain Zoom"],"lt":0,"dept":"71"}},{"type":"Feature","geometry":{"type":"Point","coordinates":[4.83373,46.81535]},"properties":{"nom":"CHAMPFORGEUIL THALIE","ag":["Réseau urbain Zoom"],"lt":0,"dept":"71"}},{"type":"Feature","geometry":{"type":"Point","coordinates":[4.8682,46.79603]},"properties":{"nom":"CHURCHILL","ag":["Réseau urbain Zoom"],"lt":0,"dept":"71"}},{"type":"Feature","geometry":{"type":"Point","coordinates":[4.86816,46.79588]},"properties":{"nom":"CHURCHILL","ag":["Réseau urbain Zoom"],"lt":0,"dept":"71"}},{"type":"Feature","geometry":{"type":"Point","coordinates":[4.7959,46.72071]},"properties":{"nom":"CITADELLE LA CHARMEE","ag":["Réseau urbain Zoom"],"lt":0,"dept":"71"}},{"type":"Feature","geometry":{"type":"Point","coordinates":[4.79591,46.7207]},"properties":{"nom":"CITADELLE LA CHARMEE","ag":["Réseau urbain Zoom"],"lt":0,"dept":"71"}},{"type":"Feature","geometry":{"type":"Point","coordinates":[4.84135,46.78581]},"properties":{"nom":"CIMETIERE DE L'OUEST","ag":["Réseau urbain Zoom"],"lt":0,"dept":"71"}},{"type":"Feature","geometry":{"type":"Point","coordinates":[4.84253,46.78535]},"properties":{"nom":"CIMETIERE DE L'OUEST","ag":["Réseau urbain Zoom"],"lt":0,"dept":"71"}},{"type":"Feature","geometry":{"type":"Point","coordinates":[4.8591,46.76972]},"properties":{"nom":"CITE DES VARENNES","ag":["Réseau urbain Zoom"],"lt":0,"dept":"71"}},{"type":"Feature","geometry":{"type":"Point","coordinates":[4.85921,46.77034]},"properties":{"nom":"CITE DES VARENNES","ag":["Réseau urbain Zoom"],"lt":0,"dept":"71"}},{"type":"Feature","geometry":{"type":"Point","coordinates":[4.84658,46.78346]},"properties":{"nom":"COLOMBIERE","ag":["Réseau urbain Zoom"],"lt":0,"dept":"71"}},{"type":"Feature","geometry":{"type":"Point","coordinates":[4.84587,46.78422]},"properties":{"nom":"COLOMBIERE","ag":["Réseau urbain Zoom"],"lt":0,"dept":"71"}},{"type":"Feature","geometry":{"type":"Point","coordinates":[4.86865,46.82268]},"properties":{"nom":"CONFRERIES","ag":["Réseau urbain Zoom"],"lt":0,"dept":"71"}},{"type":"Feature","geometry":{"type":"Point","coordinates":[4.86868,46.8226]},"properties":{"nom":"CONFRERIES","ag":["Réseau urbain Zoom"],"lt":0,"dept":"71"}},{"type":"Feature","geometry":{"type":"Point","coordinates":[4.81736,46.79903]},"properties":{"nom":"CORCELLES","ag":["Réseau urbain Zoom"],"lt":0,"dept":"71"}},{"type":"Feature","geometry":{"type":"Point","coordinates":[4.81724,46.7978]},"properties":{"nom":"CORCELLES","ag":["Réseau urbain Zoom"],"lt":0,"dept":"71"}},{"type":"Feature","geometry":{"type":"Point","coordinates":[4.811,46.80181]},"properties":{"nom":"LA CORVEE","ag":["Réseau urbain Zoom"],"lt":0,"dept":"71"}},{"type":"Feature","geometry":{"type":"Point","coordinates":[4.81029,46.80184]},"properties":{"nom":"LA CORVEE","ag":["Réseau urbain Zoom"],"lt":0,"dept":"71"}},{"type":"Feature","geometry":{"type":"Point","coordinates":[4.81118,46.79683]},"properties":{"nom":"CONDORCET","ag":["Réseau urbain Zoom"],"lt":0,"dept":"71"}},{"type":"Feature","geometry":{"type":"Point","coordinates":[4.8112,46.79715]},"properties":{"nom":"CONDORCET","ag":["Réseau urbain Zoom"],"lt":0,"dept":"71"}},{"type":"Feature","geometry":{"type":"Point","coordinates":[4.7856,46.76948]},"properties":{"nom":"CORCASSEY","ag":["Réseau urbain Zoom"],"lt":0,"dept":"71"}},{"type":"Feature","geometry":{"type":"Point","coordinates":[4.78563,46.76952]},"properties":{"nom":"CORCASSEY","ag":["Réseau urbain Zoom"],"lt":0,"dept":"71"}},{"type":"Feature","geometry":{"type":"Point","coordinates":[4.80543,46.80244]},"properties":{"nom":"LA CROIX","ag":["Réseau urbain Zoom"],"lt":0,"dept":"71"}},{"type":"Feature","geometry":{"type":"Point","coordinates":[4.8053,46.80247]},"properties":{"nom":"LA CROIX","ag":["Réseau urbain Zoom"],"lt":0,"dept":"71"}},{"type":"Feature","geometry":{"type":"Point","coordinates":[4.80457,46.80123]},"properties":{"nom":"CRUZILLE","ag":["Réseau urbain Zoom"],"lt":0,"dept":"71"}},{"type":"Feature","geometry":{"type":"Point","coordinates":[4.80447,46.80117]},"properties":{"nom":"CRUZILLE","ag":["Réseau urbain Zoom"],"lt":0,"dept":"71"}},{"type":"Feature","geometry":{"type":"Point","coordinates":[4.81882,46.79451]},"properties":{"nom":"DE GAULLE","ag":["Réseau urbain Zoom"],"lt":0,"dept":"71"}},{"type":"Feature","geometry":{"type":"Point","coordinates":[4.82107,46.79417]},"properties":{"nom":"DE GAULLE","ag":["Réseau urbain Zoom"],"lt":0,"dept":"71"}},{"type":"Feature","geometry":{"type":"Point","coordinates":[4.85328,46.79336]},"properties":{"nom":"DELIRY","ag":["Réseau urbain Zoom"],"lt":0,"dept":"71"}},{"type":"Feature","geometry":{"type":"Point","coordinates":[4.85307,46.79344]},"properties":{"nom":"DELIRY","ag":["Réseau urbain Zoom"],"lt":0,"dept":"71"}},{"type":"Feature","geometry":{"type":"Point","coordinates":[4.85015,46.79061]},"properties":{"nom":"DENFERT","ag":["Réseau urbain Zoom"],"lt":0,"dept":"71"}},{"type":"Feature","geometry":{"type":"Point","coordinates":[4.84991,46.79062]},"properties":{"nom":"DENFERT","ag":["Réseau urbain Zoom"],"lt":0,"dept":"71"}},{"type":"Feature","geometry":{"type":"Point","coordinates":[4.85097,46.78837]},"properties":{"nom":"SAINT DOMINIQUE","ag":["Réseau urbain Zoom"],"lt":0,"dept":"71"}},{"type":"Feature","geometry":{"type":"Point","coordinates":[4.85081,46.78815]},"properties":{"nom":"SAINT DOMINIQUE","ag":["Réseau urbain Zoom"],"lt":0,"dept":"71"}},{"type":"Feature","geometry":{"type":"Point","coordinates":[4.86501,46.80143]},"properties":{"nom":"HILAIRE DE CHARDONNET","ag":["Réseau urbain Zoom"],"lt":0,"dept":"71"}},{"type":"Feature","geometry":{"type":"Point","coordinates":[4.80986,46.79064]},"properties":{"nom":"EGLISE CHATENOY LE ROYAL","ag":["Réseau urbain Zoom"],"lt":0,"dept":"71"}},{"type":"Feature","geometry":{"type":"Point","coordinates":[4.80992,46.7904]},"properties":{"nom":"EGLISE CHATENOY LE ROYAL","ag":["Réseau urbain Zoom"],"lt":0,"dept":"71"}},{"type":"Feature","geometry":{"type":"Point","coordinates":[4.81694,46.80041]},"properties":{"nom":"LES ERRONGES","ag":["Réseau urbain Zoom"],"lt":0,"dept":"71"}},{"type":"Feature","geometry":{"type":"Point","coordinates":[4.81696,46.80047]},"properties":{"nom":"LES ERRONGES","ag":["Réseau urbain Zoom"],"lt":0,"dept":"71"}},{"type":"Feature","geometry":{"type":"Point","coordinates":[4.86669,46.79881]},"properties":{"nom":"ESPACE JEAN ZAY","ag":["Réseau urbain Zoom"],"lt":0,"dept":"71"}},{"type":"Feature","geometry":{"type":"Point","coordinates":[4.86661,46.79883]},"properties":{"nom":"ESPACE JEAN ZAY","ag":["Réseau urbain Zoom"],"lt":0,"dept":"71"}},{"type":"Feature","geometry":{"type":"Point","coordinates":[4.80448,46.77975]},"properties":{"nom":"LES ESSERTYS","ag":["Réseau urbain Zoom"],"lt":0,"dept":"71"}},{"type":"Feature","geometry":{"type":"Point","coordinates":[4.8043,46.77958]},"properties":{"nom":"LES ESSERTYS","ag":["Réseau urbain Zoom"],"lt":0,"dept":"71"}},{"type":"Feature","geometry":{"type":"Point","coordinates":[4.83587,46.79457]},"properties":{"nom":"EUROPE","ag":["Réseau urbain Zoom"],"lt":0,"dept":"71"}},{"type":"Feature","geometry":{"type":"Point","coordinates":[4.83519,46.79446]},"properties":{"nom":"EUROPE","ag":["Réseau urbain Zoom"],"lt":0,"dept":"71"}},{"type":"Feature","geometry":{"type":"Point","coordinates":[4.86453,46.80069]},"properties":{"nom":"JULES FERRY","ag":["Réseau urbain Zoom"],"lt":0,"dept":"71"}},{"type":"Feature","geometry":{"type":"Point","coordinates":[4.86577,46.80065]},"properties":{"nom":"JULES FERRY","ag":["Réseau urbain Zoom"],"lt":0,"dept":"71"}},{"type":"Feature","geometry":{"type":"Point","coordinates":[4.80833,46.78741]},"properties":{"nom":"LES FLEURS","ag":["Réseau urbain Zoom"],"lt":0,"dept":"71"}},{"type":"Feature","geometry":{"type":"Point","coordinates":[4.80817,46.78729]},"properties":{"nom":"LES FLEURS","ag":["Réseau urbain Zoom"],"lt":0,"dept":"71"}},{"type":"Feature","geometry":{"type":"Point","coordinates":[4.84364,46.77074]},"properties":{"nom":"PARC FREYSSINET","ag":["Réseau urbain Zoom"],"lt":0,"dept":"71"}},{"type":"Feature","geometry":{"type":"Point","coordinates":[4.84385,46.77081]},"properties":{"nom":"PARC FREYSSINET","ag":["Réseau urbain Zoom"],"lt":0,"dept":"71"}},{"type":"Feature","geometry":{"type":"Point","coordinates":[4.84406,46.78116]},"properties":{"nom":"GARE ROUTIERE","ag":["Réseau urbain Zoom"],"lt":0,"dept":"71"}},{"type":"Feature","geometry":{"type":"Point","coordinates":[4.84406,46.7816]},"properties":{"nom":"GARE","ag":["Réseau urbain Zoom"],"lt":0,"dept":"71"}},{"type":"Feature","geometry":{"type":"Point","coordinates":[4.84429,46.78207]},"properties":{"nom":"GARE","ag":["Réseau urbain Zoom"],"lt":0,"dept":"71"}},{"type":"Feature","geometry":{"type":"Point","coordinates":[4.8651,46.77899]},"properties":{"nom":"LA GENISE","ag":["Réseau urbain Zoom"],"lt":0,"dept":"71"}},{"type":"Feature","geometry":{"type":"Point","coordinates":[4.86425,46.77901]},"properties":{"nom":"LA GENISE","ag":["Réseau urbain Zoom"],"lt":0,"dept":"71"}},{"type":"Feature","geometry":{"type":"Point","coordinates":[4.85352,46.80444]},"properties":{"nom":"GERARD PHILIPPE","ag":["Réseau urbain Zoom"],"lt":0,"dept":"71"}},{"type":"Feature","geometry":{"type":"Point","coordinates":[4.85341,46.80429]},"properties":{"nom":"GERARD PHILIPPE","ag":["Réseau urbain Zoom"],"lt":0,"dept":"71"}},{"type":"Feature","geometry":{"type":"Point","coordinates":[4.84163,46.79463]},"properties":{"nom":"GIRAUDOUX","ag":["Réseau urbain Zoom"],"lt":0,"dept":"71"}},{"type":"Feature","geometry":{"type":"Point","coordinates":[4.84208,46.79438]},"properties":{"nom":"GIRAUDOUX","ag":["Réseau urbain Zoom"],"lt":0,"dept":"71"}},{"type":"Feature","geometry":{"type":"Point","coordinates":[4.85962,46.7766]},"properties":{"nom":"GRANGES FORESTIER","ag":["Réseau urbain Zoom"],"lt":0,"dept":"71"}},{"type":"Feature","geometry":{"type":"Point","coordinates":[4.85969,46.77643]},"properties":{"nom":"GRANGES FORESTIER","ag":["Réseau urbain Zoom"],"lt":0,"dept":"71"}},{"type":"Feature","geometry":{"type":"Point","coordinates":[4.82844,46.79743]},"properties":{"nom":"GUERLANDE","ag":["Réseau urbain Zoom"],"lt":0,"dept":"71"}},{"type":"Feature","geometry":{"type":"Point","coordinates":[4.82855,46.7972]},"properties":{"nom":"GUERLANDE","ag":["Réseau urbain Zoom"],"lt":0,"dept":"71"}},{"type":"Feature","geometry":{"type":"Point","coordinates":[4.86236,46.80289]},"properties":{"nom":"CORTOT","ag":["Réseau urbain Zoom"],"lt":0,"dept":"71"}},{"type":"Feature","geometry":{"type":"Point","coordinates":[4.86399,46.80246]},"properties":{"nom":"HILAIRE DE CHARDONNET","ag":["Réseau urbain Zoom"],"lt":0,"dept":"71"}},{"type":"Feature","geometry":{"type":"Point","coordinates":[4.8418,46.77606]},"properties":{"nom":"HOPITAL","ag":["Réseau urbain Zoom"],"lt":0,"dept":"71"}},{"type":"Feature","geometry":{"type":"Point","coordinates":[4.84106,46.77614]},"properties":{"nom":"HOPITAL","ag":["Réseau urbain Zoom"],"lt":0,"dept":"71"}},{"type":"Feature","geometry":{"type":"Point","coordinates":[4.85956,46.78017]},"properties":{"nom":"ILE ST LAURENT-QUAI MONNAIE","ag":["Réseau urbain Zoom"],"lt":0,"dept":"71"}},{"type":"Feature","geometry":{"type":"Point","coordinates":[4.85953,46.78011]},"properties":{"nom":"ILE ST LAURENT-QUAI MONNAIE","ag":["Réseau urbain Zoom"],"lt":0,"dept":"71"}},{"type":"Feature","geometry":{"type":"Point","coordinates":[4.85615,46.77663]},"properties":{"nom":"IUT","ag":["Réseau urbain Zoom"],"lt":0,"dept":"71"}},{"type":"Feature","geometry":{"type":"Point","coordinates":[4.85603,46.77675]},"properties":{"nom":"IUT","ag":["Réseau urbain Zoom"],"lt":0,"dept":"71"}},{"type":"Feature","geometry":{"type":"Point","coordinates":[4.85539,46.80107]},"properties":{"nom":"JEAN VILAR","ag":["Réseau urbain Zoom"],"lt":0,"dept":"71"}},{"type":"Feature","geometry":{"type":"Point","coordinates":[4.85494,46.80139]},"properties":{"nom":"JEAN VILAR","ag":["Réseau urbain Zoom"],"lt":0,"dept":"71"}},{"type":"Feature","geometry":{"type":"Point","coordinates":[4.82895,46.7947]},"properties":{"nom":"JONCHERE","ag":["Réseau urbain Zoom"],"lt":0,"dept":"71"}},{"type":"Feature","geometry":{"type":"Point","coordinates":[4.82901,46.7946]},"properties":{"nom":"JONCHERE","ag":["Réseau urbain Zoom"],"lt":0,"dept":"71"}},{"type":"Feature","geometry":{"type":"Point","coordinates":[4.84395,46.78612]},"properties":{"nom":"LIBERATION","ag":["Réseau urbain Zoom"],"lt":0,"dept":"71"}},{"type":"Feature","geometry":{"type":"Point","coordinates":[4.84392,46.78634]},"properties":{"nom":"LIBERATION","ag":["Réseau urbain Zoom"],"lt":0,"dept":"71"}},{"type":"Feature","geometry":{"type":"Point","coordinates":[4.84014,46.78116]},"properties":{"nom":"LIEUTENANT CHAUVEAU","ag":["Réseau urbain Zoom"],"lt":0,"dept":"71"}},{"type":"Feature","geometry":{"type":"Point","coordinates":[4.83992,46.78108]},"properties":{"nom":"LIEUTENANT CHAUVEAU","ag":["Réseau urbain Zoom"],"lt":0,"dept":"71"}},{"type":"Feature","geometry":{"type":"Point","coordinates":[4.84003,46.78314]},"properties":{"nom":"LIEUTENANT ROMPION","ag":["Réseau urbain Zoom"],"lt":0,"dept":"71"}},{"type":"Feature","geometry":{"type":"Point","coordinates":[4.83994,46.78305]},"properties":{"nom":"LIEUTENANT ROMPION","ag":["Réseau urbain Zoom"],"lt":0,"dept":"71"}},{"type":"Feature","geometry":{"type":"Point","coordinates":[4.83608,46.78879]},"properties":{"nom":"LTE NIEPCE-BALLEURE","ag":["Réseau urbain Zoom"],"lt":0,"dept":"71"}},{"type":"Feature","geometry":{"type":"Point","coordinates":[4.8353,46.78918]},"properties":{"nom":"LTE NIEPCE-BALLEURE","ag":["Réseau urbain Zoom"],"lt":0,"dept":"71"}},{"type":"Feature","geometry":{"type":"Point","coordinates":[4.83637,46.81978]},"properties":{"nom":"MAIRIE DE CHAMPFORGEUIL","ag":["Réseau urbain Zoom"],"lt":0,"dept":"71"}},{"type":"Feature","geometry":{"type":"Point","coordinates":[4.83706,46.82]},"properties":{"nom":"MAIRIE DE CHAMPFORGEUIL","ag":["Réseau urbain Zoom"],"lt":0,"dept":"71"}},{"type":"Feature","geometry":{"type":"Point","coordinates":[4.8107,46.79475]},"properties":{"nom":"MAIRIE DE CHATENOY","ag":["Réseau urbain Zoom"],"lt":0,"dept":"71"}},{"type":"Feature","geometry":{"type":"Point","coordinates":[4.81062,46.79453]},"properties":{"nom":"MAIRIE DE CHATENOY","ag":["Réseau urbain Zoom"],"lt":0,"dept":"71"}},{"type":"Feature","geometry":{"type":"Point","coordinates":[4.86154,46.8002]},"properties":{"nom":"MAL JUIN","ag":["Réseau urbain Zoom"],"lt":0,"dept":"71"}},{"type":"Feature","geometry":{"type":"Point","coordinates":[4.8614,46.80001]},"properties":{"nom":"MAL JUIN","ag":["Réseau urbain Zoom"],"lt":0,"dept":"71"}},{"type":"Feature","geometry":{"type":"Point","coordinates":[4.81401,46.80128]},"properties":{"nom":"LE MAUPAS","ag":["Réseau urbain Zoom"],"lt":0,"dept":"71"}},{"type":"Feature","geometry":{"type":"Point","coordinates":[4.81404,46.80131]},"properties":{"nom":"LE MAUPAS","ag":["Réseau urbain Zoom"],"lt":0,"dept":"71"}},{"type":"Feature","geometry":{"type":"Point","coordinates":[4.85259,46.80944]},"properties":{"nom":"MENUSE","ag":["Réseau urbain Zoom"],"lt":0,"dept":"71"}},{"type":"Feature","geometry":{"type":"Point","coordinates":[4.85225,46.80921]},"properties":{"nom":"MENUSE","ag":["Réseau urbain Zoom"],"lt":0,"dept":"71"}},{"type":"Feature","geometry":{"type":"Point","coordinates":[4.81257,46.78789]},"properties":{"nom":"MESSAGER","ag":["Réseau urbain Zoom"],"lt":0,"dept":"71"}},{"type":"Feature","geometry":{"type":"Point","coordinates":[4.81267,46.78783]},"properties":{"nom":"MESSAGER","ag":["Réseau urbain Zoom"],"lt":0,"dept":"71"}},{"type":"Feature","geometry":{"type":"Point","coordinates":[4.84199,46.7971]},"properties":{"nom":"MONGE","ag":["Réseau urbain Zoom"],"lt":0,"dept":"71"}},{"type":"Feature","geometry":{"type":"Point","coordinates":[4.84197,46.79726]},"properties":{"nom":"MONGE","ag":["Réseau urbain Zoom"],"lt":0,"dept":"71"}},{"type":"Feature","geometry":{"type":"Point","coordinates":[4.86158,46.78976]},"properties":{"nom":"MONNOT","ag":["Réseau urbain Zoom"],"lt":0,"dept":"71"}},{"type":"Feature","geometry":{"type":"Point","coordinates":[4.86131,46.78965]},"properties":{"nom":"MONNOT","ag":["Réseau urbain Zoom"],"lt":0,"dept":"71"}},{"type":"Feature","geometry":{"type":"Point","coordinates":[4.84289,46.81071]},"properties":{"nom":"MUSSET","ag":["Réseau urbain Zoom"],"lt":0,"dept":"71"}},{"type":"Feature","geometry":{"type":"Point","coordinates":[4.84246,46.81135]},"properties":{"nom":"MUSSET","ag":["Réseau urbain Zoom"],"lt":0,"dept":"71"}},{"type":"Feature","geometry":{"type":"Point","coordinates":[4.85955,46.80367]},"properties":{"nom":"PABLO NERUDA","ag":["Réseau urbain Zoom"],"lt":0,"dept":"71"}},{"type":"Feature","geometry":{"type":"Point","coordinates":[4.85957,46.80314]},"properties":{"nom":"PABLO NERUDA","ag":["Réseau urbain Zoom"],"lt":0,"dept":"71"}},{"type":"Feature","geometry":{"type":"Point","coordinates":[4.84634,46.80124]},"properties":{"nom":"NOTRE DAME","ag":["Réseau urbain Zoom"],"lt":0,"dept":"71"}},{"type":"Feature","geometry":{"type":"Point","coordinates":[4.8461,46.80121]},"properties":{"nom":"NOTRE DAME","ag":["Réseau urbain Zoom"],"lt":0,"dept":"71"}},{"type":"Feature","geometry":{"type":"Point","coordinates":[4.85851,46.76791]},"properties":{"nom":"PABS","ag":["Réseau urbain Zoom"],"lt":0,"dept":"71"}},{"type":"Feature","geometry":{"type":"Point","coordinates":[4.85281,46.78462]},"properties":{"nom":"PALAIS DE JUSTICE-CITADELLE","ag":["Réseau urbain Zoom"],"lt":0,"dept":"71"}},{"type":"Feature","geometry":{"type":"Point","coordinates":[4.84427,46.80705]},"properties":{"nom":"STADE LEO LAGRANGE","ag":["Réseau urbain Zoom"],"lt":0,"dept":"71"}},{"type":"Feature","geometry":{"type":"Point","coordinates":[4.8436,46.80817]},"properties":{"nom":"STADE LEO LAGRANGE","ag":["Réseau urbain Zoom"],"lt":0,"dept":"71"}},{"type":"Feature","geometry":{"type":"Point","coordinates":[4.85258,46.78443]},"properties":{"nom":"PALAIS DE JUSTICE","ag":["Réseau urbain Zoom"],"lt":0,"dept":"71"}},{"type":"Feature","geometry":{"type":"Point","coordinates":[4.85237,46.78417]},"properties":{"nom":"PALAIS DE JUSTICE","ag":["Réseau urbain Zoom"],"lt":0,"dept":"71"}},{"type":"Feature","geometry":{"type":"Point","coordinates":[4.84824,46.79589]},"properties":{"nom":"PARIS AUBEPINS","ag":["Réseau urbain Zoom"],"lt":0,"dept":"71"}},{"type":"Feature","geometry":{"type":"Point","coordinates":[4.84829,46.79514]},"properties":{"nom":"PARIS AUBEPINS","ag":["Réseau urbain Zoom"],"lt":0,"dept":"71"}},{"type":"Feature","geometry":{"type":"Point","coordinates":[4.91341,46.79096]},"properties":{"nom":"PLACE DU CENTRE","ag":["Réseau urbain Zoom"],"lt":0,"dept":"71"}},{"type":"Feature","geometry":{"type":"Point","coordinates":[4.91325,46.79096]},"properties":{"nom":"PLACE DU CENTRE","ag":["Réseau urbain Zoom"],"lt":0,"dept":"71"}},{"type":"Feature","geometry":{"type":"Point","coordinates":[4.82571,46.78021]},"properties":{"nom":"PLACE ARAGO","ag":["Réseau urbain Zoom"],"lt":0,"dept":"71"}},{"type":"Feature","geometry":{"type":"Point","coordinates":[4.8256,46.78026]},"properties":{"nom":"PLACE ARAGO","ag":["Réseau urbain Zoom"],"lt":0,"dept":"71"}},{"type":"Feature","geometry":{"type":"Point","coordinates":[4.85876,46.78521]},"properties":{"nom":"PLACE DU COLLEGE","ag":["Réseau urbain Zoom"],"lt":0,"dept":"71"}},{"type":"Feature","geometry":{"type":"Point","coordinates":[4.85884,46.78502]},"properties":{"nom":"PLACE DU COLLEGE","ag":["Réseau urbain Zoom"],"lt":0,"dept":"71"}},{"type":"Feature","geometry":{"type":"Point","coordinates":[4.85889,46.78627]},"properties":{"nom":"PLACE MATHIAS","ag":["Réseau urbain Zoom"],"lt":0,"dept":"71"}},{"type":"Feature","geometry":{"type":"Point","coordinates":[4.8588,46.78625]},"properties":{"nom":"PLACE MATHIAS","ag":["Réseau urbain Zoom"],"lt":0,"dept":"71"}},{"type":"Feature","geometry":{"type":"Point","coordinates":[4.82818,46.77839]},"properties":{"nom":"PLACE ALBERT THOMAS","ag":["Réseau urbain Zoom"],"lt":0,"dept":"71"}},{"type":"Feature","geometry":{"type":"Point","coordinates":[4.8289,46.77836]},"properties":{"nom":"PLACE ALBERT THOMAS","ag":["Réseau urbain Zoom"],"lt":0,"dept":"71"}},{"type":"Feature","geometry":{"type":"Point","coordinates":[4.86237,46.77971]},"properties":{"nom":"PLACE THEVENIN","ag":["Réseau urbain Zoom"],"lt":0,"dept":"71"}},{"type":"Feature","geometry":{"type":"Point","coordinates":[4.86211,46.77994]},"properties":{"nom":"PLACE THEVENIN","ag":["Réseau urbain Zoom"],"lt":0,"dept":"71"}},{"type":"Feature","geometry":{"type":"Point","coordinates":[4.84545,46.79482]},"properties":{"nom":"PONT DE FER","ag":["Réseau urbain Zoom"],"lt":0,"dept":"71"}},{"type":"Feature","geometry":{"type":"Point","coordinates":[4.84525,46.79484]},"properties":{"nom":"PONT DE FER","ag":["Réseau urbain Zoom"],"lt":0,"dept":"71"}},{"type":"Feature","geometry":{"type":"Point","coordinates":[4.85537,46.77981]},"properties":{"nom":"PORT VILLIERS","ag":["Réseau urbain Zoom"],"lt":0,"dept":"71"}},{"type":"Feature","geometry":{"type":"Point","coordinates":[4.85574,46.78005]},"properties":{"nom":"PORT VILLIERS","ag":["Réseau urbain Zoom"],"lt":0,"dept":"71"}},{"type":"Feature","geometry":{"type":"Point","coordinates":[4.83654,46.77851]},"properties":{"nom":"PRES DEVANT","ag":["Réseau urbain Zoom"],"lt":0,"dept":"71"}},{"type":"Feature","geometry":{"type":"Point","coordinates":[4.83671,46.77844]},"properties":{"nom":"PRES DEVANT","ag":["Réseau urbain Zoom"],"lt":0,"dept":"71"}},{"type":"Feature","geometry":{"type":"Point","coordinates":[4.83716,46.77682]},"properties":{"nom":"LES PRES DE VIGNY","ag":["Réseau urbain Zoom"],"lt":0,"dept":"71"}},{"type":"Feature","geometry":{"type":"Point","coordinates":[4.83685,46.77688]},"properties":{"nom":"LES PRES DE VIGNY","ag":["Réseau urbain Zoom"],"lt":0,"dept":"71"}},{"type":"Feature","geometry":{"type":"Point","coordinates":[4.83124,46.81568]},"properties":{"nom":"QUART VIRAT","ag":["Réseau urbain Zoom"],"lt":0,"dept":"71"}},{"type":"Feature","geometry":{"type":"Point","coordinates":[4.83104,46.81593]},"properties":{"nom":"QUART VIRAT","ag":["Réseau urbain Zoom"],"lt":0,"dept":"71"}},{"type":"Feature","geometry":{"type":"Point","coordinates":[4.85184,46.7785]},"properties":{"nom":"QUAI GAMBETTA","ag":["Réseau urbain Zoom"],"lt":0,"dept":"71"}},{"type":"Feature","geometry":{"type":"Point","coordinates":[4.85175,46.77864]},"properties":{"nom":"QUAI GAMBETTA","ag":["Réseau urbain Zoom"],"lt":0,"dept":"71"}},{"type":"Feature","geometry":{"type":"Point","coordinates":[4.86736,46.79272]},"properties":{"nom":"RENE COTY","ag":["Réseau urbain Zoom"],"lt":0,"dept":"71"}},{"type":"Feature","geometry":{"type":"Point","coordinates":[4.86728,46.7924]},"properties":{"nom":"RENE COTY","ag":["Réseau urbain Zoom"],"lt":0,"dept":"71"}},{"type":"Feature","geometry":{"type":"Point","coordinates":[4.8506,46.78622]},"properties":{"nom":"REMPART SAINT PIERRE","ag":["Réseau urbain Zoom"],"lt":0,"dept":"71"}},{"type":"Feature","geometry":{"type":"Point","coordinates":[4.84835,46.78336]},"properties":{"nom":"REPUBLIQUE-COLOMBIERE","ag":["Réseau urbain Zoom"],"lt":0,"dept":"71"}},{"type":"Feature","geometry":{"type":"Point","coordinates":[4.84774,46.78311]},"properties":{"nom":"REPUBLIQUE-COLOMBIERE","ag":["Réseau urbain Zoom"],"lt":0,"dept":"71"}},{"type":"Feature","geometry":{"type":"Point","coordinates":[4.84576,46.79153]},"properties":{"nom":"ROCADE","ag":["Réseau urbain Zoom"],"lt":0,"dept":"71"}},{"type":"Feature","geometry":{"type":"Point","coordinates":[4.84586,46.79162]},"properties":{"nom":"ROCADE","ag":["Réseau urbain Zoom"],"lt":0,"dept":"71"}},{"type":"Feature","geometry":{"type":"Point","coordinates":[4.82686,46.79293]},"properties":{"nom":"ROTONDES","ag":["Réseau urbain Zoom"],"lt":0,"dept":"71"}},{"type":"Feature","geometry":{"type":"Point","coordinates":[4.82628,46.79318]},"properties":{"nom":"ROTONDES","ag":["Réseau urbain Zoom"],"lt":0,"dept":"71"}},{"type":"Feature","geometry":{"type":"Point","coordinates":[4.82035,46.79703]},"properties":{"nom":"RUE DU PARC","ag":["Réseau urbain Zoom"],"lt":0,"dept":"71"}},{"type":"Feature","geometry":{"type":"Point","coordinates":[4.91509,46.79643]},"properties":{"nom":"RUE DES HUNS","ag":["Réseau urbain Zoom"],"lt":0,"dept":"71"}},{"type":"Feature","geometry":{"type":"Point","coordinates":[4.91505,46.79648]},"properties":{"nom":"RUE DES HUNS","ag":["Réseau urbain Zoom"],"lt":0,"dept":"71"}},{"type":"Feature","geometry":{"type":"Point","coordinates":[4.85855,46.81571]},"properties":{"nom":"SABATIER","ag":["Réseau urbain Zoom"],"lt":0,"dept":"71"}},{"type":"Feature","geometry":{"type":"Point","coordinates":[4.85813,46.81544]},"properties":{"nom":"SABATIER","ag":["Réseau urbain Zoom"],"lt":0,"dept":"71"}},{"type":"Feature","geometry":{"type":"Point","coordinates":[4.86008,46.81615]},"properties":{"nom":"SABATIER FERREE","ag":["Réseau urbain Zoom"],"lt":0,"dept":"71"}},{"type":"Feature","geometry":{"type":"Point","coordinates":[4.85969,46.81631]},"properties":{"nom":"SABATIER FERREE","ag":["Réseau urbain Zoom"],"lt":0,"dept":"71"}},{"type":"Feature","geometry":{"type":"Point","coordinates":[4.857,46.81703]},"properties":{"nom":"SAÔNEOR","ag":["Réseau urbain Zoom"],"lt":0,"dept":"71"}},{"type":"Feature","geometry":{"type":"Point","coordinates":[4.85702,46.81701]},"properties":{"nom":"SAÔNEOR","ag":["Réseau urbain Zoom"],"lt":0,"dept":"71"}},{"type":"Feature","geometry":{"type":"Point","coordinates":[4.79987,46.7297]},"properties":{"nom":"SIENNE LE BAS","ag":["Réseau urbain Zoom"],"lt":0,"dept":"71"}},{"type":"Feature","geometry":{"type":"Point","coordinates":[4.79991,46.72961]},"properties":{"nom":"SIENNE LE BAS","ag":["Réseau urbain Zoom"],"lt":0,"dept":"71"}},{"type":"Feature","geometry":{"type":"Point","coordinates":[4.84782,46.77867]},"properties":{"nom":"CONSERVATOIRE","ag":["Réseau urbain Zoom"],"lt":0,"dept":"71"}},{"type":"Feature","geometry":{"type":"Point","coordinates":[4.84576,46.77892]},"properties":{"nom":"CONSERVATOIRE","ag":["Réseau urbain Zoom"],"lt":0,"dept":"71"}},{"type":"Feature","geometry":{"type":"Point","coordinates":[4.86294,46.79615]},"properties":{"nom":"SAINT EXUPERY","ag":["Réseau urbain Zoom"],"lt":0,"dept":"71"}},{"type":"Feature","geometry":{"type":"Point","coordinates":[4.86281,46.79597]},"properties":{"nom":"SAINT EXUPERY","ag":["Réseau urbain Zoom"],"lt":0,"dept":"71"}},{"type":"Feature","geometry":{"type":"Point","coordinates":[4.8392,46.79831]},"properties":{"nom":"SAINT GOBAIN","ag":["Réseau urbain Zoom"],"lt":0,"dept":"71"}},{"type":"Feature","geometry":{"type":"Point","coordinates":[4.8391,46.79839]},"properties":{"nom":"SAINT GOBAIN","ag":["Réseau urbain Zoom"],"lt":0,"dept":"71"}},{"type":"Feature","geometry":{"type":"Point","coordinates":[4.85494,46.79722]},"properties":{"nom":"SAINT JEAN DES JARDINS","ag":["Réseau urbain Zoom"],"lt":0,"dept":"71"}},{"type":"Feature","geometry":{"type":"Point","coordinates":[4.85478,46.79707]},"properties":{"nom":"SAINT JEAN DES JARDINS","ag":["Réseau urbain Zoom"],"lt":0,"dept":"71"}},{"type":"Feature","geometry":{"type":"Point","coordinates":[4.85997,46.78147]},"properties":{"nom":"PONT SAINT LAURENT","ag":["Réseau urbain Zoom"],"lt":0,"dept":"71"}},{"type":"Feature","geometry":{"type":"Point","coordinates":[4.86105,46.78235]},"properties":{"nom":"SAINTE MARIE","ag":["Réseau urbain Zoom"],"lt":0,"dept":"71"}},{"type":"Feature","geometry":{"type":"Point","coordinates":[4.86105,46.7823]},"properties":{"nom":"SAINTE MARIE","ag":["Réseau urbain Zoom"],"lt":0,"dept":"71"}},{"type":"Feature","geometry":{"type":"Point","coordinates":[4.85757,46.79047]},"properties":{"nom":"SAINT JEAN DES VIGNES","ag":["Réseau urbain Zoom"],"lt":0,"dept":"71"}},{"type":"Feature","geometry":{"type":"Point","coordinates":[4.85743,46.79042]},"properties":{"nom":"SAINT JEAN DES VIGNES","ag":["Réseau urbain Zoom"],"lt":0,"dept":"71"}},{"type":"Feature","geometry":{"type":"Point","coordinates":[4.84749,46.77633]},"properties":{"nom":"USINERIE","ag":["Réseau urbain Zoom"],"lt":0,"dept":"71"}},{"type":"Feature","geometry":{"type":"Point","coordinates":[4.84705,46.77594]},"properties":{"nom":"USINERIE","ag":["Réseau urbain Zoom"],"lt":0,"dept":"71"}},{"type":"Feature","geometry":{"type":"Point","coordinates":[4.84227,46.78817]},"properties":{"nom":"DE LATTRE DE TASSIGNY","ag":["Réseau urbain Zoom"],"lt":0,"dept":"71"}},{"type":"Feature","geometry":{"type":"Point","coordinates":[4.84258,46.78803]},"properties":{"nom":"DE LATTRE DE TASSIGNY","ag":["Réseau urbain Zoom"],"lt":0,"dept":"71"}},{"type":"Feature","geometry":{"type":"Point","coordinates":[4.84775,46.81354]},"properties":{"nom":"THENARD","ag":["Réseau urbain Zoom"],"lt":0,"dept":"71"}},{"type":"Feature","geometry":{"type":"Point","coordinates":[4.84779,46.81358]},"properties":{"nom":"THENARD","ag":["Réseau urbain Zoom"],"lt":0,"dept":"71"}},{"type":"Feature","geometry":{"type":"Point","coordinates":[4.83348,46.81793]},"properties":{"nom":"TILLEUL","ag":["Réseau urbain Zoom"],"lt":0,"dept":"71"}},{"type":"Feature","geometry":{"type":"Point","coordinates":[4.83339,46.81771]},"properties":{"nom":"TILLEUL","ag":["Réseau urbain Zoom"],"lt":0,"dept":"71"}},{"type":"Feature","geometry":{"type":"Point","coordinates":[4.81083,46.7871]},"properties":{"nom":"LE TILLET","ag":["Réseau urbain Zoom"],"lt":0,"dept":"71"}},{"type":"Feature","geometry":{"type":"Point","coordinates":[4.81082,46.78704]},"properties":{"nom":"LE TILLET","ag":["Réseau urbain Zoom"],"lt":0,"dept":"71"}},{"type":"Feature","geometry":{"type":"Point","coordinates":[4.80493,46.77843]},"properties":{"nom":"VESSEY","ag":["Réseau urbain Zoom"],"lt":0,"dept":"71"}},{"type":"Feature","geometry":{"type":"Point","coordinates":[4.80488,46.77859]},"properties":{"nom":"VESSEY","ag":["Réseau urbain Zoom"],"lt":0,"dept":"71"}},{"type":"Feature","geometry":{"type":"Point","coordinates":[4.91843,46.78788]},"properties":{"nom":"VIGNES RENARD","ag":["Réseau urbain Zoom"],"lt":0,"dept":"71"}},{"type":"Feature","geometry":{"type":"Point","coordinates":[4.91837,46.78802]},"properties":{"nom":"VIGNES RENARD","ag":["Réseau urbain Zoom"],"lt":0,"dept":"71"}},{"type":"Feature","geometry":{"type":"Point","coordinates":[4.79763,46.78173]},"properties":{"nom":"ZI LA GARENNE","ag":["Réseau urbain Zoom"],"lt":0,"dept":"71"}},{"type":"Feature","geometry":{"type":"Point","coordinates":[4.82868,46.79603]},"properties":{"nom":"ZONE VERTE","ag":["Réseau urbain Zoom"],"lt":0,"dept":"71"}},{"type":"Feature","geometry":{"type":"Point","coordinates":[4.82877,46.79588]},"properties":{"nom":"ZONE VERTE","ag":["Réseau urbain Zoom"],"lt":0,"dept":"71"}},{"type":"Feature","geometry":{"type":"Point","coordinates":[4.8603,46.81754]},"properties":{"nom":"AMCOR-LOXAM","ag":["Réseau urbain Zoom"],"lt":0,"dept":"71"}},{"type":"Feature","geometry":{"type":"Point","coordinates":[4.88192,46.81699]},"properties":{"nom":"CENTRE BOURG CRISSEY","ag":["Réseau urbain Zoom"],"lt":0,"dept":"71"}},{"type":"Feature","geometry":{"type":"Point","coordinates":[4.88247,46.81704]},"properties":{"nom":"CENTRE BOURG CRISSEY","ag":["Réseau urbain Zoom"],"lt":0,"dept":"71"}},{"type":"Feature","geometry":{"type":"Point","coordinates":[4.87463,46.82062]},"properties":{"nom":"CHARDONNETS","ag":["Réseau urbain Zoom"],"lt":0,"dept":"71"}},{"type":"Feature","geometry":{"type":"Point","coordinates":[4.87442,46.82061]},"properties":{"nom":"CHARDONNETS","ag":["Réseau urbain Zoom"],"lt":0,"dept":"71"}},{"type":"Feature","geometry":{"type":"Point","coordinates":[4.8693,46.82641]},"properties":{"nom":"CITEC","ag":["Réseau urbain Zoom"],"lt":0,"dept":"71"}},{"type":"Feature","geometry":{"type":"Point","coordinates":[4.89763,46.82692]},"properties":{"nom":"CIMETIERE DE CRISSEY","ag":["Réseau urbain Zoom"],"lt":0,"dept":"71"}},{"type":"Feature","geometry":{"type":"Point","coordinates":[4.8975,46.82682]},"properties":{"nom":"CIMETIERE DE CRISSEY","ag":["Réseau urbain Zoom"],"lt":0,"dept":"71"}},{"type":"Feature","geometry":{"type":"Point","coordinates":[4.87183,46.81307]},"properties":{"nom":"ENSANGES","ag":["Réseau urbain Zoom"],"lt":0,"dept":"71"}},{"type":"Feature","geometry":{"type":"Point","coordinates":[4.87165,46.8131]},"properties":{"nom":"ENSANGES","ag":["Réseau urbain Zoom"],"lt":0,"dept":"71"}},{"type":"Feature","geometry":{"type":"Point","coordinates":[4.87165,46.83227]},"properties":{"nom":"ESAT DE CRISSEY","ag":["Réseau urbain Zoom"],"lt":0,"dept":"71"}},{"type":"Feature","geometry":{"type":"Point","coordinates":[4.87166,46.83227]},"properties":{"nom":"ESAT DE CRISSEY","ag":["Réseau urbain Zoom"],"lt":0,"dept":"71"}},{"type":"Feature","geometry":{"type":"Point","coordinates":[4.8667,46.81268]},"properties":{"nom":"FERREE","ag":["Réseau urbain Zoom"],"lt":0,"dept":"71"}},{"type":"Feature","geometry":{"type":"Point","coordinates":[4.86652,46.81283]},"properties":{"nom":"FERREE","ag":["Réseau urbain Zoom"],"lt":0,"dept":"71"}},{"type":"Feature","geometry":{"type":"Point","coordinates":[4.89208,46.82396]},"properties":{"nom":"LE PERREY","ag":["Réseau urbain Zoom"],"lt":0,"dept":"71"}},{"type":"Feature","geometry":{"type":"Point","coordinates":[4.89232,46.82394]},"properties":{"nom":"LE PERREY","ag":["Réseau urbain Zoom"],"lt":0,"dept":"71"}},{"type":"Feature","geometry":{"type":"Point","coordinates":[4.87479,46.81452]},"properties":{"nom":"LES PLATANES","ag":["Réseau urbain Zoom"],"lt":0,"dept":"71"}},{"type":"Feature","geometry":{"type":"Point","coordinates":[4.87494,46.81469]},"properties":{"nom":"LES PLATANES","ag":["Réseau urbain Zoom"],"lt":0,"dept":"71"}},{"type":"Feature","geometry":{"type":"Point","coordinates":[4.86387,46.82291]},"properties":{"nom":"SABATIER CONFRERIES","ag":["Réseau urbain Zoom"],"lt":0,"dept":"71"}},{"type":"Feature","geometry":{"type":"Point","coordinates":[4.8641,46.82341]},"properties":{"nom":"SABATIER CONFRERIES","ag":["Réseau urbain Zoom"],"lt":0,"dept":"71"}},{"type":"Feature","geometry":{"type":"Point","coordinates":[4.86576,46.82559]},"properties":{"nom":"SOBOTRAM","ag":["Réseau urbain Zoom"],"lt":0,"dept":"71"}},{"type":"Feature","geometry":{"type":"Point","coordinates":[4.86228,46.81988]},"properties":{"nom":"TELECOM","ag":["Réseau urbain Zoom"],"lt":0,"dept":"71"}},{"type":"Feature","geometry":{"type":"Point","coordinates":[4.86264,46.82047]},"properties":{"nom":"TELECOM","ag":["Réseau urbain Zoom"],"lt":0,"dept":"71"}},{"type":"Feature","geometry":{"type":"Point","coordinates":[4.87728,46.8194]},"properties":{"nom":"VIEUX MOULIN","ag":["Réseau urbain Zoom"],"lt":0,"dept":"71"}},{"type":"Feature","geometry":{"type":"Point","coordinates":[4.87853,46.81892]},"properties":{"nom":"VIEUX MOULIN","ag":["Réseau urbain Zoom"],"lt":0,"dept":"71"}},{"type":"Feature","geometry":{"type":"Point","coordinates":[4.8331,46.93014]},"properties":{"nom":"BREUIL","ag":["Réseau urbain Zoom"],"lt":0,"dept":"71"}},{"type":"Feature","geometry":{"type":"Point","coordinates":[4.83325,46.93022]},"properties":{"nom":"BREUIL","ag":["Réseau urbain Zoom"],"lt":0,"dept":"71"}},{"type":"Feature","geometry":{"type":"Point","coordinates":[4.83607,46.92813]},"properties":{"nom":"GALOUPE","ag":["Réseau urbain Zoom"],"lt":0,"dept":"71"}},{"type":"Feature","geometry":{"type":"Point","coordinates":[4.83618,46.92803]},"properties":{"nom":"GALOUPE","ag":["Réseau urbain Zoom"],"lt":0,"dept":"71"}},{"type":"Feature","geometry":{"type":"Point","coordinates":[4.84295,46.93202]},"properties":{"nom":"JASOUPE BAS","ag":["Réseau urbain Zoom"],"lt":0,"dept":"71"}},{"type":"Feature","geometry":{"type":"Point","coordinates":[4.84301,46.93176]},"properties":{"nom":"JASOUPE BAS","ag":["Réseau urbain Zoom"],"lt":0,"dept":"71"}},{"type":"Feature","geometry":{"type":"Point","coordinates":[4.84833,46.93262]},"properties":{"nom":"LOT GIRARDOT","ag":["Réseau urbain Zoom"],"lt":0,"dept":"71"}},{"type":"Feature","geometry":{"type":"Point","coordinates":[4.84826,46.93247]},"properties":{"nom":"LOT GIRARDOT","ag":["Réseau urbain Zoom"],"lt":0,"dept":"71"}},{"type":"Feature","geometry":{"type":"Point","coordinates":[4.83735,46.931]},"properties":{"nom":"PLACE DU 11 NOVEMBRE","ag":["Réseau urbain Zoom"],"lt":0,"dept":"71"}},{"type":"Feature","geometry":{"type":"Point","coordinates":[4.83748,46.93092]},"properties":{"nom":"PLACE DU 11 NOVEMBRE","ag":["Réseau urbain Zoom"],"lt":0,"dept":"71"}},{"type":"Feature","geometry":{"type":"Point","coordinates":[4.83442,46.92673]},"properties":{"nom":"PLACE CARNOT","ag":["Réseau urbain Zoom"],"lt":0,"dept":"71"}},{"type":"Feature","geometry":{"type":"Point","coordinates":[4.83434,46.92701]},"properties":{"nom":"PLACE CARNOT","ag":["Réseau urbain Zoom"],"lt":0,"dept":"71"}},{"type":"Feature","geometry":{"type":"Point","coordinates":[4.83684,46.9223]},"properties":{"nom":"RION","ag":["Réseau urbain Zoom"],"lt":0,"dept":"71"}},{"type":"Feature","geometry":{"type":"Point","coordinates":[4.83688,46.92249]},"properties":{"nom":"RION","ag":["Réseau urbain Zoom"],"lt":0,"dept":"71"}},{"type":"Feature","geometry":{"type":"Point","coordinates":[4.84101,46.93239]},"properties":{"nom":"RUE BASSE","ag":["Réseau urbain Zoom"],"lt":0,"dept":"71"}},{"type":"Feature","geometry":{"type":"Point","coordinates":[4.84113,46.93228]},"properties":{"nom":"RUE BASSE","ag":["Réseau urbain Zoom"],"lt":0,"dept":"71"}},{"type":"Feature","geometry":{"type":"Point","coordinates":[4.86026,46.93738]},"properties":{"nom":"TIRECHAT","ag":["Réseau urbain Zoom"],"lt":0,"dept":"71"}},{"type":"Feature","geometry":{"type":"Point","coordinates":[4.8606,46.93741]},"properties":{"nom":"TIRECHAT","ag":["Réseau urbain Zoom"],"lt":0,"dept":"71"}},{"type":"Feature","geometry":{"type":"Point","coordinates":[4.79261,46.79772]},"properties":{"nom":"ALLEE DU BOIS","ag":["Réseau urbain Zoom"],"lt":0,"dept":"71"}},{"type":"Feature","geometry":{"type":"Point","coordinates":[4.76568,46.79953]},"properties":{"nom":"LE CHATEAU DRACY","ag":["Réseau urbain Zoom"],"lt":0,"dept":"71"}},{"type":"Feature","geometry":{"type":"Point","coordinates":[4.76556,46.7996]},"properties":{"nom":"LE CHATEAU DRACY","ag":["Réseau urbain Zoom"],"lt":0,"dept":"71"}},{"type":"Feature","geometry":{"type":"Point","coordinates":[4.78265,46.80059]},"properties":{"nom":"CHAMPS PACAUD","ag":["Réseau urbain Zoom"],"lt":0,"dept":"71"}},{"type":"Feature","geometry":{"type":"Point","coordinates":[4.78258,46.80062]},"properties":{"nom":"CHAMPS PACAUD","ag":["Réseau urbain Zoom"],"lt":0,"dept":"71"}},{"type":"Feature","geometry":{"type":"Point","coordinates":[4.78319,46.79762]},"properties":{"nom":"DRACY CLINIQUE","ag":["Réseau urbain Zoom"],"lt":0,"dept":"71"}},{"type":"Feature","geometry":{"type":"Point","coordinates":[4.78315,46.79761]},"properties":{"nom":"DRACY CLINIQUE","ag":["Réseau urbain Zoom"],"lt":0,"dept":"71"}},{"type":"Feature","geometry":{"type":"Point","coordinates":[4.76105,46.79746]},"properties":{"nom":"DRACY MAIRIE","ag":["Réseau urbain Zoom"],"lt":0,"dept":"71"}},{"type":"Feature","geometry":{"type":"Point","coordinates":[4.76104,46.79758]},"properties":{"nom":"DRACY MAIRIE","ag":["Réseau urbain Zoom"],"lt":0,"dept":"71"}},{"type":"Feature","geometry":{"type":"Point","coordinates":[4.7759,46.80342]},"properties":{"nom":"LE VILLARD","ag":["Réseau urbain Zoom"],"lt":0,"dept":"71"}},{"type":"Feature","geometry":{"type":"Point","coordinates":[4.77422,46.80404]},"properties":{"nom":"LE VILLARD","ag":["Réseau urbain Zoom"],"lt":0,"dept":"71"}},{"type":"Feature","geometry":{"type":"Point","coordinates":[4.78799,46.7942]},"properties":{"nom":"ZA TUILERIE","ag":["Réseau urbain Zoom"],"lt":0,"dept":"71"}},{"type":"Feature","geometry":{"type":"Point","coordinates":[4.91371,46.74085]},"properties":{"nom":"LE GRAND CHENE","ag":["Réseau urbain Zoom"],"lt":0,"dept":"71"}},{"type":"Feature","geometry":{"type":"Point","coordinates":[4.9137,46.74085]},"properties":{"nom":"LE GRAND CHENE","ag":["Réseau urbain Zoom"],"lt":0,"dept":"71"}},{"type":"Feature","geometry":{"type":"Point","coordinates":[4.90141,46.7501]},"properties":{"nom":"MAIRIE EPERVANS","ag":["Réseau urbain Zoom"],"lt":0,"dept":"71"}},{"type":"Feature","geometry":{"type":"Point","coordinates":[4.90139,46.74999]},"properties":{"nom":"MAIRIE EPERVANS","ag":["Réseau urbain Zoom"],"lt":0,"dept":"71"}},{"type":"Feature","geometry":{"type":"Point","coordinates":[4.9101,46.74491]},"properties":{"nom":"LA RONGERE","ag":["Réseau urbain Zoom"],"lt":0,"dept":"71"}},{"type":"Feature","geometry":{"type":"Point","coordinates":[4.91022,46.74479]},"properties":{"nom":"LA RONGERE","ag":["Réseau urbain Zoom"],"lt":0,"dept":"71"}},{"type":"Feature","geometry":{"type":"Point","coordinates":[4.89844,46.75361]},"properties":{"nom":"RUE DU FOUR","ag":["Réseau urbain Zoom"],"lt":0,"dept":"71"}},{"type":"Feature","geometry":{"type":"Point","coordinates":[4.89838,46.75355]},"properties":{"nom":"RUE DU FOUR","ag":["Réseau urbain Zoom"],"lt":0,"dept":"71"}},{"type":"Feature","geometry":{"type":"Point","coordinates":[4.80626,46.83718]},"properties":{"nom":"LES BRENELLES","ag":["Réseau urbain Zoom"],"lt":0,"dept":"71"}},{"type":"Feature","geometry":{"type":"Point","coordinates":[4.8063,46.83719]},"properties":{"nom":"LES BRENELLES","ag":["Réseau urbain Zoom"],"lt":0,"dept":"71"}},{"type":"Feature","geometry":{"type":"Point","coordinates":[4.81193,46.84174]},"properties":{"nom":"LE GAUCHARD","ag":["Réseau urbain Zoom"],"lt":0,"dept":"71"}},{"type":"Feature","geometry":{"type":"Point","coordinates":[4.81171,46.84196]},"properties":{"nom":"LE GAUCHARD","ag":["Réseau urbain Zoom"],"lt":0,"dept":"71"}},{"type":"Feature","geometry":{"type":"Point","coordinates":[4.80646,46.83275]},"properties":{"nom":"MAIRIE DE FARGES","ag":["Réseau urbain Zoom"],"lt":0,"dept":"71"}},{"type":"Feature","geometry":{"type":"Point","coordinates":[4.80646,46.83274]},"properties":{"nom":"MAIRIE DE FARGES","ag":["Réseau urbain Zoom"],"lt":0,"dept":"71"}},{"type":"Feature","geometry":{"type":"Point","coordinates":[4.8094,46.84819]},"properties":{"nom":"MEMORIAL POUR L'AVENIR","ag":["Réseau urbain Zoom"],"lt":0,"dept":"71"}},{"type":"Feature","geometry":{"type":"Point","coordinates":[4.80931,46.84811]},"properties":{"nom":"MEMORIAL POUR L'AVENIR","ag":["Réseau urbain Zoom"],"lt":0,"dept":"71"}},{"type":"Feature","geometry":{"type":"Point","coordinates":[4.75968,46.85527]},"properties":{"nom":"BUTTE SOLEIL","ag":["Réseau urbain Zoom"],"lt":0,"dept":"71"}},{"type":"Feature","geometry":{"type":"Point","coordinates":[4.75957,46.85531]},"properties":{"nom":"BUTTE SOLEIL","ag":["Réseau urbain Zoom"],"lt":0,"dept":"71"}},{"type":"Feature","geometry":{"type":"Point","coordinates":[4.75933,46.86033]},"properties":{"nom":"LES FONTAINES","ag":["Réseau urbain Zoom"],"lt":0,"dept":"71"}},{"type":"Feature","geometry":{"type":"Point","coordinates":[4.7594,46.86027]},"properties":{"nom":"LES FONTAINES","ag":["Réseau urbain Zoom"],"lt":0,"dept":"71"}},{"type":"Feature","geometry":{"type":"Point","coordinates":[4.77483,46.85112]},"properties":{"nom":"GARE SNCF FONTAINES","ag":["Réseau urbain Zoom"],"lt":0,"dept":"71"}},{"type":"Feature","geometry":{"type":"Point","coordinates":[4.77482,46.85124]},"properties":{"nom":"GARE SNCF FONTAINES","ag":["Réseau urbain Zoom"],"lt":0,"dept":"71"}},{"type":"Feature","geometry":{"type":"Point","coordinates":[4.77232,46.86117]},"properties":{"nom":"LYCEE DE FONTAINES","ag":["Réseau urbain Zoom"],"lt":0,"dept":"71"}},{"type":"Feature","geometry":{"type":"Point","coordinates":[4.77233,46.86108]},"properties":{"nom":"LYCEE DE FONTAINES","ag":["Réseau urbain Zoom"],"lt":0,"dept":"71"}},{"type":"Feature","geometry":{"type":"Point","coordinates":[4.77164,46.84962]},"properties":{"nom":"MAIRIE FONTAINES","ag":["Réseau urbain Zoom"],"lt":0,"dept":"71"}},{"type":"Feature","geometry":{"type":"Point","coordinates":[4.77176,46.84961]},"properties":{"nom":"MAIRIE FONTAINES","ag":["Réseau urbain Zoom"],"lt":0,"dept":"71"}},{"type":"Feature","geometry":{"type":"Point","coordinates":[4.77667,46.84924]},"properties":{"nom":"PONT CHOCHOT","ag":["Réseau urbain Zoom"],"lt":0,"dept":"71"}},{"type":"Feature","geometry":{"type":"Point","coordinates":[4.77046,46.85644]},"properties":{"nom":"PRES JANIN","ag":["Réseau urbain Zoom"],"lt":0,"dept":"71"}},{"type":"Feature","geometry":{"type":"Point","coordinates":[4.77053,46.85632]},"properties":{"nom":"PRES JANIN","ag":["Réseau urbain Zoom"],"lt":0,"dept":"71"}},{"type":"Feature","geometry":{"type":"Point","coordinates":[4.76982,46.85173]},"properties":{"nom":"ROND POINT 11 NOVEMBRE","ag":["Réseau urbain Zoom"],"lt":0,"dept":"71"}},{"type":"Feature","geometry":{"type":"Point","coordinates":[4.771,46.85159]},"properties":{"nom":"ROND POINT 11 NOVEMBRE","ag":["Réseau urbain Zoom"],"lt":0,"dept":"71"}},{"type":"Feature","geometry":{"type":"Point","coordinates":[4.76577,46.85789]},"properties":{"nom":"RUE FOURCHETTE","ag":["Réseau urbain Zoom"],"lt":0,"dept":"71"}},{"type":"Feature","geometry":{"type":"Point","coordinates":[4.76548,46.85789]},"properties":{"nom":"RUE FOURCHETTE","ag":["Réseau urbain Zoom"],"lt":0,"dept":"71"}},{"type":"Feature","geometry":{"type":"Point","coordinates":[4.76107,46.84969]},"properties":{"nom":"SAINT NICOLAS","ag":["Réseau urbain Zoom"],"lt":0,"dept":"71"}},{"type":"Feature","geometry":{"type":"Point","coordinates":[4.76121,46.84964]},"properties":{"nom":"SAINT NICOLAS","ag":["Réseau urbain Zoom"],"lt":0,"dept":"71"}},{"type":"Feature","geometry":{"type":"Point","coordinates":[4.85116,46.82321]},"properties":{"nom":"LE BASSIN","ag":["Réseau urbain Zoom"],"lt":0,"dept":"71"}},{"type":"Feature","geometry":{"type":"Point","coordinates":[4.85105,46.82437]},"properties":{"nom":"LE BASSIN","ag":["Réseau urbain Zoom"],"lt":0,"dept":"71"}},{"type":"Feature","geometry":{"type":"Point","coordinates":[4.85169,46.81948]},"properties":{"nom":"ESPACE ENTREPRISES","ag":["Réseau urbain Zoom"],"lt":0,"dept":"71"}},{"type":"Feature","geometry":{"type":"Point","coordinates":[4.85057,46.8314]},"properties":{"nom":"HAMEAU DU CANAL","ag":["Réseau urbain Zoom"],"lt":0,"dept":"71"}},{"type":"Feature","geometry":{"type":"Point","coordinates":[4.85084,46.83129]},"properties":{"nom":"HAMEAU DU CANAL","ag":["Réseau urbain Zoom"],"lt":0,"dept":"71"}},{"type":"Feature","geometry":{"type":"Point","coordinates":[4.84643,46.83384]},"properties":{"nom":"LES LAURIERS","ag":["Réseau urbain Zoom"],"lt":0,"dept":"71"}},{"type":"Feature","geometry":{"type":"Point","coordinates":[4.84663,46.83383]},"properties":{"nom":"LES LAURIERS","ag":["Réseau urbain Zoom"],"lt":0,"dept":"71"}},{"type":"Feature","geometry":{"type":"Point","coordinates":[4.84174,46.8347]},"properties":{"nom":"MAIRIE FRAGNES","ag":["Réseau urbain Zoom"],"lt":0,"dept":"71"}},{"type":"Feature","geometry":{"type":"Point","coordinates":[4.84169,46.83473]},"properties":{"nom":"MAIRIE FRAGNES","ag":["Réseau urbain Zoom"],"lt":0,"dept":"71"}},{"type":"Feature","geometry":{"type":"Point","coordinates":[4.94999,46.84665]},"properties":{"nom":"BOUGEROT BOURG","ag":["Réseau urbain Zoom"],"lt":0,"dept":"71"}},{"type":"Feature","geometry":{"type":"Point","coordinates":[4.94996,46.84659]},"properties":{"nom":"BOUGEROT BOURG","ag":["Réseau urbain Zoom"],"lt":0,"dept":"71"}},{"type":"Feature","geometry":{"type":"Point","coordinates":[4.75321,46.81031]},"properties":{"nom":"BOURG GERMOLLES","ag":["Réseau urbain Zoom"],"lt":0,"dept":"71"}},{"type":"Feature","geometry":{"type":"Point","coordinates":[4.75323,46.81041]},"properties":{"nom":"BOURG GERMOLLES","ag":["Réseau urbain Zoom"],"lt":0,"dept":"71"}},{"type":"Feature","geometry":{"type":"Point","coordinates":[4.94557,46.84748]},"properties":{"nom":"BOUGEROT RD","ag":["Réseau urbain Zoom"],"lt":0,"dept":"71"}},{"type":"Feature","geometry":{"type":"Point","coordinates":[4.94562,46.84746]},"properties":{"nom":"BOUGEROT RD","ag":["Réseau urbain Zoom"],"lt":0,"dept":"71"}},{"type":"Feature","geometry":{"type":"Point","coordinates":[4.94708,46.8696]},"properties":{"nom":"CROIX BLANCHE","ag":["Réseau urbain Zoom"],"lt":0,"dept":"71"}},{"type":"Feature","geometry":{"type":"Point","coordinates":[4.94764,46.8696]},"properties":{"nom":"CROIX BLANCHE","ag":["Réseau urbain Zoom"],"lt":0,"dept":"71"}},{"type":"Feature","geometry":{"type":"Point","coordinates":[4.94644,46.87806]},"properties":{"nom":"EGLISE BOURG GERGY","ag":["Réseau urbain Zoom"],"lt":0,"dept":"71"}},{"type":"Feature","geometry":{"type":"Point","coordinates":[4.94665,46.87789]},"properties":{"nom":"EGLISE BOURG GERGY","ag":["Réseau urbain Zoom"],"lt":0,"dept":"71"}},{"type":"Feature","geometry":{"type":"Point","coordinates":[4.92545,46.86158]},"properties":{"nom":"LE GRAND VILLENEUVE","ag":["Réseau urbain Zoom"],"lt":0,"dept":"71"}},{"type":"Feature","geometry":{"type":"Point","coordinates":[4.9258,46.86162]},"properties":{"nom":"LE GRAND VILLENEUVE","ag":["Réseau urbain Zoom"],"lt":0,"dept":"71"}},{"type":"Feature","geometry":{"type":"Point","coordinates":[4.92662,46.87374]},"properties":{"nom":"LES PETITES TEPPES","ag":["Réseau urbain Zoom"],"lt":0,"dept":"71"}},{"type":"Feature","geometry":{"type":"Point","coordinates":[4.92667,46.87367]},"properties":{"nom":"LES PETITES TEPPES","ag":["Réseau urbain Zoom"],"lt":0,"dept":"71"}},{"type":"Feature","geometry":{"type":"Point","coordinates":[4.94692,46.8887]},"properties":{"nom":"RACONNAY","ag":["Réseau urbain Zoom"],"lt":0,"dept":"71"}},{"type":"Feature","geometry":{"type":"Point","coordinates":[4.94666,46.88768]},"properties":{"nom":"RACONNAY","ag":["Réseau urbain Zoom"],"lt":0,"dept":"71"}},{"type":"Feature","geometry":{"type":"Point","coordinates":[4.94165,46.87281]},"properties":{"nom":"RUE CHARDONNET","ag":["Réseau urbain Zoom"],"lt":0,"dept":"71"}},{"type":"Feature","geometry":{"type":"Point","coordinates":[4.94217,46.87276]},"properties":{"nom":"RUE CHARDONNET","ag":["Réseau urbain Zoom"],"lt":0,"dept":"71"}},{"type":"Feature","geometry":{"type":"Point","coordinates":[4.91744,46.86564]},"properties":{"nom":"VILLENEUVE ECOLE","ag":["Réseau urbain Zoom"],"lt":0,"dept":"71"}},{"type":"Feature","geometry":{"type":"Point","coordinates":[4.91743,46.86562]},"properties":{"nom":"VILLENEUVE ECOLE","ag":["Réseau urbain Zoom"],"lt":0,"dept":"71"}},{"type":"Feature","geometry":{"type":"Point","coordinates":[4.91527,46.86429]},"properties":{"nom":"VILLENEUVE MERVIN","ag":["Réseau urbain Zoom"],"lt":0,"dept":"71"}},{"type":"Feature","geometry":{"type":"Point","coordinates":[4.91543,46.86435]},"properties":{"nom":"VILLENEUVE MERVIN","ag":["Réseau urbain Zoom"],"lt":0,"dept":"71"}},{"type":"Feature","geometry":{"type":"Point","coordinates":[4.74722,46.78181]},"properties":{"nom":"GIVRY CENTRE","ag":["Réseau urbain Zoom"],"lt":0,"dept":"71"}},{"type":"Feature","geometry":{"type":"Point","coordinates":[4.74702,46.7819]},"properties":{"nom":"GIVRY CENTRE","ag":["Réseau urbain Zoom"],"lt":0,"dept":"71"}},{"type":"Feature","geometry":{"type":"Point","coordinates":[4.73825,46.77505]},"properties":{"nom":"MORTIERES","ag":["Réseau urbain Zoom"],"lt":0,"dept":"71"}},{"type":"Feature","geometry":{"type":"Point","coordinates":[4.73808,46.77466]},"properties":{"nom":"MORTIERES","ag":["Réseau urbain Zoom"],"lt":0,"dept":"71"}},{"type":"Feature","geometry":{"type":"Point","coordinates":[4.69611,46.77207]},"properties":{"nom":"MONUMENT JAMBLES","ag":["Réseau urbain Zoom"],"lt":0,"dept":"71"}},{"type":"Feature","geometry":{"type":"Point","coordinates":[4.69605,46.772]},"properties":{"nom":"MONUMENT JAMBLES","ag":["Réseau urbain Zoom"],"lt":0,"dept":"71"}},{"type":"Feature","geometry":{"type":"Point","coordinates":[4.69383,46.77291]},"properties":{"nom":"PLACE DU CREUX","ag":["Réseau urbain Zoom"],"lt":0,"dept":"71"}},{"type":"Feature","geometry":{"type":"Point","coordinates":[4.69365,46.77301]},"properties":{"nom":"PLACE DU CREUX","ag":["Réseau urbain Zoom"],"lt":0,"dept":"71"}},{"type":"Feature","geometry":{"type":"Point","coordinates":[4.70058,46.77083]},"properties":{"nom":"LA RIVIERE","ag":["Réseau urbain Zoom"],"lt":0,"dept":"71"}},{"type":"Feature","geometry":{"type":"Point","coordinates":[4.70074,46.77072]},"properties":{"nom":"LA RIVIERE","ag":["Réseau urbain Zoom"],"lt":0,"dept":"71"}},{"type":"Feature","geometry":{"type":"Point","coordinates":[4.91604,46.77075]},"properties":{"nom":"CAFE DE LANS","ag":["Réseau urbain Zoom"],"lt":0,"dept":"71"}},{"type":"Feature","geometry":{"type":"Point","coordinates":[4.91538,46.77056]},"properties":{"nom":"CAFE DE LANS","ag":["Réseau urbain Zoom"],"lt":0,"dept":"71"}},{"type":"Feature","geometry":{"type":"Point","coordinates":[4.92579,46.77246]},"properties":{"nom":"ETANG DU COIN","ag":["Réseau urbain Zoom"],"lt":0,"dept":"71"}},{"type":"Feature","geometry":{"type":"Point","coordinates":[4.92581,46.77238]},"properties":{"nom":"ETANG DU COIN","ag":["Réseau urbain Zoom"],"lt":0,"dept":"71"}},{"type":"Feature","geometry":{"type":"Point","coordinates":[4.91825,46.7702]},"properties":{"nom":"MAIRIE DE LANS","ag":["Réseau urbain Zoom"],"lt":0,"dept":"71"}},{"type":"Feature","geometry":{"type":"Point","coordinates":[4.91819,46.7702]},"properties":{"nom":"MAIRIE DE LANS","ag":["Réseau urbain Zoom"],"lt":0,"dept":"71"}},{"type":"Feature","geometry":{"type":"Point","coordinates":[4.9255,46.77054]},"properties":{"nom":"RUE DU MOULIN","ag":["Réseau urbain Zoom"],"lt":0,"dept":"71"}},{"type":"Feature","geometry":{"type":"Point","coordinates":[4.85202,46.85594]},"properties":{"nom":"CLOS BEL AIR","ag":["Réseau urbain Zoom"],"lt":0,"dept":"71"}},{"type":"Feature","geometry":{"type":"Point","coordinates":[4.85179,46.85626]},"properties":{"nom":"CLOS BEL AIR","ag":["Réseau urbain Zoom"],"lt":0,"dept":"71"}},{"type":"Feature","geometry":{"type":"Point","coordinates":[4.83989,46.86621]},"properties":{"nom":"LES HAMEAUX","ag":["Réseau urbain Zoom"],"lt":0,"dept":"71"}},{"type":"Feature","geometry":{"type":"Point","coordinates":[4.83994,46.86641]},"properties":{"nom":"LES HAMEAUX","ag":["Réseau urbain Zoom"],"lt":0,"dept":"71"}},{"type":"Feature","geometry":{"type":"Point","coordinates":[4.84692,46.86009]},"properties":{"nom":"PLACE 4 OEUFS","ag":["Réseau urbain Zoom"],"lt":0,"dept":"71"}},{"type":"Feature","geometry":{"type":"Point","coordinates":[4.84683,46.86017]},"properties":{"nom":"PLACE 4 OEUFS","ag":["Réseau urbain Zoom"],"lt":0,"dept":"71"}},{"type":"Feature","geometry":{"type":"Point","coordinates":[4.84228,46.86031]},"properties":{"nom":"RUE MAIRIE","ag":["Réseau urbain Zoom"],"lt":0,"dept":"71"}},{"type":"Feature","geometry":{"type":"Point","coordinates":[4.84249,46.86025]},"properties":{"nom":"RUE MAIRIE","ag":["Réseau urbain Zoom"],"lt":0,"dept":"71"}},{"type":"Feature","geometry":{"type":"Point","coordinates":[4.8286,46.84473]},"properties":{"nom":"BOURG LA LOYERE","ag":["Réseau urbain Zoom"],"lt":0,"dept":"71"}},{"type":"Feature","geometry":{"type":"Point","coordinates":[4.8286,46.84468]},"properties":{"nom":"BOURG LA LOYERE","ag":["Réseau urbain Zoom"],"lt":0,"dept":"71"}},{"type":"Feature","geometry":{"type":"Point","coordinates":[4.83771,46.83114]},"properties":{"nom":"CONDEMENE","ag":["Réseau urbain Zoom"],"lt":0,"dept":"71"}},{"type":"Feature","geometry":{"type":"Point","coordinates":[4.83766,46.83107]},"properties":{"nom":"CONDEMENE","ag":["Réseau urbain Zoom"],"lt":0,"dept":"71"}},{"type":"Feature","geometry":{"type":"Point","coordinates":[4.83427,46.83976]},"properties":{"nom":"BICENTENAIRE","ag":["Réseau urbain Zoom"],"lt":0,"dept":"71"}},{"type":"Feature","geometry":{"type":"Point","coordinates":[4.83433,46.83973]},"properties":{"nom":"BICENTENAIRE","ag":["Réseau urbain Zoom"],"lt":0,"dept":"71"}},{"type":"Feature","geometry":{"type":"Point","coordinates":[4.84973,46.74528]},"properties":{"nom":"ACTISUD","ag":["Réseau urbain Zoom"],"lt":0,"dept":"71"}},{"type":"Feature","geometry":{"type":"Point","coordinates":[4.84954,46.74527]},"properties":{"nom":"ACTISUD","ag":["Réseau urbain Zoom"],"lt":0,"dept":"71"}},{"type":"Feature","geometry":{"type":"Point","coordinates":[4.84815,46.75382]},"properties":{"nom":"CROIX BLANCHE","ag":["Réseau urbain Zoom"],"lt":0,"dept":"71"}},{"type":"Feature","geometry":{"type":"Point","coordinates":[4.84847,46.75375]},"properties":{"nom":"CROIX BLANCHE","ag":["Réseau urbain Zoom"],"lt":0,"dept":"71"}},{"type":"Feature","geometry":{"type":"Point","coordinates":[4.85303,46.75146]},"properties":{"nom":"JOLIOT CURIE","ag":["Réseau urbain Zoom"],"lt":0,"dept":"71"}},{"type":"Feature","geometry":{"type":"Point","coordinates":[4.85296,46.75139]},"properties":{"nom":"JOLIOT CURIE","ag":["Réseau urbain Zoom"],"lt":0,"dept":"71"}},{"type":"Feature","geometry":{"type":"Point","coordinates":[4.84614,46.7483]},"properties":{"nom":"PERROUZE","ag":["Réseau urbain Zoom"],"lt":0,"dept":"71"}},{"type":"Feature","geometry":{"type":"Point","coordinates":[4.84617,46.7483]},"properties":{"nom":"PERROUZE","ag":["Réseau urbain Zoom"],"lt":0,"dept":"71"}},{"type":"Feature","geometry":{"type":"Point","coordinates":[4.89001,46.76792]},"properties":{"nom":"8 MAI 45","ag":["Réseau urbain Zoom"],"lt":0,"dept":"71"}},{"type":"Feature","geometry":{"type":"Point","coordinates":[4.88994,46.76785]},"properties":{"nom":"8 MAI 45","ag":["Réseau urbain Zoom"],"lt":0,"dept":"71"}},{"type":"Feature","geometry":{"type":"Point","coordinates":[4.90058,46.77348]},"properties":{"nom":"ALFRED JARREAU","ag":["Réseau urbain Zoom"],"lt":0,"dept":"71"}},{"type":"Feature","geometry":{"type":"Point","coordinates":[4.9006,46.77339]},"properties":{"nom":"ALFRED JARREAU","ag":["Réseau urbain Zoom"],"lt":0,"dept":"71"}},{"type":"Feature","geometry":{"type":"Point","coordinates":[4.90673,46.69633]},"properties":{"nom":"LES ATTRAITS","ag":["Réseau urbain Zoom"],"lt":0,"dept":"71"}},{"type":"Feature","geometry":{"type":"Point","coordinates":[4.90676,46.69631]},"properties":{"nom":"LES ATTRAITS","ag":["Réseau urbain Zoom"],"lt":0,"dept":"71"}},{"type":"Feature","geometry":{"type":"Point","coordinates":[4.86507,46.77396]},"properties":{"nom":"MULTIPLEXE","ag":["Réseau urbain Zoom"],"lt":0,"dept":"71"}},{"type":"Feature","geometry":{"type":"Point","coordinates":[4.8648,46.77437]},"properties":{"nom":"MULTIPLEXE","ag":["Réseau urbain Zoom"],"lt":0,"dept":"71"}},{"type":"Feature","geometry":{"type":"Point","coordinates":[4.86706,46.77832]},"properties":{"nom":"CHAVANNES","ag":["Réseau urbain Zoom"],"lt":0,"dept":"71"}},{"type":"Feature","geometry":{"type":"Point","coordinates":[4.86702,46.77827]},"properties":{"nom":"CHAVANNES","ag":["Réseau urbain Zoom"],"lt":0,"dept":"71"}},{"type":"Feature","geometry":{"type":"Point","coordinates":[4.90721,46.77606]},"properties":{"nom":"CHEMIN DES RIOTTIS","ag":["Réseau urbain Zoom"],"lt":0,"dept":"71"}},{"type":"Feature","geometry":{"type":"Point","coordinates":[4.90723,46.77591]},"properties":{"nom":"CHEMIN DES RIOTTIS","ag":["Réseau urbain Zoom"],"lt":0,"dept":"71"}},{"type":"Feature","geometry":{"type":"Point","coordinates":[4.89413,46.77526]},"properties":{"nom":"CIMETIERE ST MARCEL","ag":["Réseau urbain Zoom"],"lt":0,"dept":"71"}},{"type":"Feature","geometry":{"type":"Point","coordinates":[4.89345,46.775]},"properties":{"nom":"CIMETIERE ST MARCEL","ag":["Réseau urbain Zoom"],"lt":0,"dept":"71"}},{"type":"Feature","geometry":{"type":"Point","coordinates":[4.91251,46.78067]},"properties":{"nom":"CIMETIERE PAYSAGER","ag":["Réseau urbain Zoom"],"lt":0,"dept":"71"}},{"type":"Feature","geometry":{"type":"Point","coordinates":[4.91222,46.78027]},"properties":{"nom":"CIMETIERE PAYSAGER","ag":["Réseau urbain Zoom"],"lt":0,"dept":"71"}},{"type":"Feature","geometry":{"type":"Point","coordinates":[4.92734,46.69839]},"properties":{"nom":"CROIX DU PLATRE","ag":["Réseau urbain Zoom"],"lt":0,"dept":"71"}},{"type":"Feature","geometry":{"type":"Point","coordinates":[4.92732,46.69841]},"properties":{"nom":"CROIX DU PLATRE","ag":["Réseau urbain Zoom"],"lt":0,"dept":"71"}},{"type":"Feature","geometry":{"type":"Point","coordinates":[4.92639,46.70141]},"properties":{"nom":"CROIX DU TILLEUL","ag":["Réseau urbain Zoom"],"lt":0,"dept":"71"}},{"type":"Feature","geometry":{"type":"Point","coordinates":[4.92642,46.70131]},"properties":{"nom":"CROIX DU TILLEUL","ag":["Réseau urbain Zoom"],"lt":0,"dept":"71"}},{"type":"Feature","geometry":{"type":"Point","coordinates":[4.91615,46.69982]},"properties":{"nom":"CROIX DE PIERRE","ag":["Réseau urbain Zoom"],"lt":0,"dept":"71"}},{"type":"Feature","geometry":{"type":"Point","coordinates":[4.91591,46.69965]},"properties":{"nom":"CROIX DE PIERRE","ag":["Réseau urbain Zoom"],"lt":0,"dept":"71"}},{"type":"Feature","geometry":{"type":"Point","coordinates":[4.8669,46.76408]},"properties":{"nom":"CUGNOT","ag":["Réseau urbain Zoom"],"lt":0,"dept":"71"}},{"type":"Feature","geometry":{"type":"Point","coordinates":[4.89645,46.77771]},"properties":{"nom":"CURTIL CANOT","ag":["Réseau urbain Zoom"],"lt":0,"dept":"71"}},{"type":"Feature","geometry":{"type":"Point","coordinates":[4.89664,46.77756]},"properties":{"nom":"CURTIL CANOT","ag":["Réseau urbain Zoom"],"lt":0,"dept":"71"}},{"type":"Feature","geometry":{"type":"Point","coordinates":[4.8743,46.76833]},"properties":{"nom":"FRAMATOME ENTREPRISE","ag":["Réseau urbain Zoom"],"lt":0,"dept":"71"}},{"type":"Feature","geometry":{"type":"Point","coordinates":[4.89007,46.77564]},"properties":{"nom":"GRANDE RUE","ag":["Réseau urbain Zoom"],"lt":0,"dept":"71"}},{"type":"Feature","geometry":{"type":"Point","coordinates":[4.88988,46.77563]},"properties":{"nom":"GRANDE RUE","ag":["Réseau urbain Zoom"],"lt":0,"dept":"71"}},{"type":"Feature","geometry":{"type":"Point","coordinates":[4.89826,46.77794]},"properties":{"nom":"GUIDE D'OSLON","ag":["Réseau urbain Zoom"],"lt":0,"dept":"71"}},{"type":"Feature","geometry":{"type":"Point","coordinates":[4.89857,46.77799]},"properties":{"nom":"GUIDE D'OSLON","ag":["Réseau urbain Zoom"],"lt":0,"dept":"71"}},{"type":"Feature","geometry":{"type":"Point","coordinates":[4.89623,46.7862]},"properties":{"nom":"LA NOUE","ag":["Réseau urbain Zoom"],"lt":0,"dept":"71"}},{"type":"Feature","geometry":{"type":"Point","coordinates":[4.88545,46.77641]},"properties":{"nom":"LES ORLANS","ag":["Réseau urbain Zoom"],"lt":0,"dept":"71"}},{"type":"Feature","geometry":{"type":"Point","coordinates":[4.88636,46.7762]},"properties":{"nom":"LES ORLANS","ag":["Réseau urbain Zoom"],"lt":0,"dept":"71"}},{"type":"Feature","geometry":{"type":"Point","coordinates":[4.89202,46.7772]},"properties":{"nom":"PHILIPPE FLATTOT","ag":["Réseau urbain Zoom"],"lt":0,"dept":"71"}},{"type":"Feature","geometry":{"type":"Point","coordinates":[4.89227,46.7773]},"properties":{"nom":"PHILIPPE FLATTOT","ag":["Réseau urbain Zoom"],"lt":0,"dept":"71"}},{"type":"Feature","geometry":{"type":"Point","coordinates":[4.89357,46.76807]},"properties":{"nom":"LE ROBIN","ag":["Réseau urbain Zoom"],"lt":0,"dept":"71"}},{"type":"Feature","geometry":{"type":"Point","coordinates":[4.89347,46.76831]},"properties":{"nom":"LE ROBIN","ag":["Réseau urbain Zoom"],"lt":0,"dept":"71"}},{"type":"Feature","geometry":{"type":"Point","coordinates":[4.9036,46.7812]},"properties":{"nom":"ROUTE D'OSLON","ag":["Réseau urbain Zoom"],"lt":0,"dept":"71"}},{"type":"Feature","geometry":{"type":"Point","coordinates":[4.9019,46.78003]},"properties":{"nom":"ROUTE D'OSLON","ag":["Réseau urbain Zoom"],"lt":0,"dept":"71"}},{"type":"Feature","geometry":{"type":"Point","coordinates":[4.89515,46.77475]},"properties":{"nom":"RUE CENTAINE","ag":["Réseau urbain Zoom"],"lt":0,"dept":"71"}},{"type":"Feature","geometry":{"type":"Point","coordinates":[4.8953,46.77459]},"properties":{"nom":"RUE CENTAINE","ag":["Réseau urbain Zoom"],"lt":0,"dept":"71"}},{"type":"Feature","geometry":{"type":"Point","coordinates":[4.91791,46.70301]},"properties":{"nom":"RUE DE L'EGLISE","ag":["Réseau urbain Zoom"],"lt":0,"dept":"71"}},{"type":"Feature","geometry":{"type":"Point","coordinates":[4.91789,46.70293]},"properties":{"nom":"RUE DE L'EGLISE","ag":["Réseau urbain Zoom"],"lt":0,"dept":"71"}},{"type":"Feature","geometry":{"type":"Point","coordinates":[4.90201,46.7765]},"properties":{"nom":"RUE DU ROSOY - CFA","ag":["Réseau urbain Zoom"],"lt":0,"dept":"71"}},{"type":"Feature","geometry":{"type":"Point","coordinates":[4.90173,46.7766]},"properties":{"nom":"RUE DU ROSOY - CFA","ag":["Réseau urbain Zoom"],"lt":0,"dept":"71"}},{"type":"Feature","geometry":{"type":"Point","coordinates":[4.89649,46.77959]},"properties":{"nom":"LOTISSEMENT VARENNES","ag":["Réseau urbain Zoom"],"lt":0,"dept":"71"}},{"type":"Feature","geometry":{"type":"Point","coordinates":[4.89654,46.7798]},"properties":{"nom":"LOTISSEMENT VARENNES","ag":["Réseau urbain Zoom"],"lt":0,"dept":"71"}},{"type":"Feature","geometry":{"type":"Point","coordinates":[4.89349,46.77084]},"properties":{"nom":"LA VILLENEUVE","ag":["Réseau urbain Zoom"],"lt":0,"dept":"71"}},{"type":"Feature","geometry":{"type":"Point","coordinates":[4.89346,46.77053]},"properties":{"nom":"LA VILLENEUVE","ag":["Réseau urbain Zoom"],"lt":0,"dept":"71"}},{"type":"Feature","geometry":{"type":"Point","coordinates":[4.70798,46.83671]},"properties":{"nom":"LES CEDRES","ag":["Réseau urbain Zoom"],"lt":0,"dept":"71"}},{"type":"Feature","geometry":{"type":"Point","coordinates":[4.708,46.83674]},"properties":{"nom":"LES CEDRES","ag":["Réseau urbain Zoom"],"lt":0,"dept":"71"}},{"type":"Feature","geometry":{"type":"Point","coordinates":[4.75351,46.81545]},"properties":{"nom":"CHAPELLE MARLOUX","ag":["Réseau urbain Zoom"],"lt":0,"dept":"71"}},{"type":"Feature","geometry":{"type":"Point","coordinates":[4.75324,46.81574]},"properties":{"nom":"CHAPELLE MARLOUX","ag":["Réseau urbain Zoom"],"lt":0,"dept":"71"}},{"type":"Feature","geometry":{"type":"Point","coordinates":[4.72384,46.83253]},"properties":{"nom":"MAIRIE MERCUREY","ag":["Réseau urbain Zoom"],"lt":0,"dept":"71"}},{"type":"Feature","geometry":{"type":"Point","coordinates":[4.72348,46.83279]},"properties":{"nom":"MAIRIE MERCUREY","ag":["Réseau urbain Zoom"],"lt":0,"dept":"71"}},{"type":"Feature","geometry":{"type":"Point","coordinates":[4.72801,46.81097]},"properties":{"nom":"MAIRIE MELLECEY","ag":["Réseau urbain Zoom"],"lt":0,"dept":"71"}},{"type":"Feature","geometry":{"type":"Point","coordinates":[4.72783,46.81097]},"properties":{"nom":"MAIRIE MELLECEY","ag":["Réseau urbain Zoom"],"lt":0,"dept":"71"}},{"type":"Feature","geometry":{"type":"Point","coordinates":[4.71696,46.83654]},"properties":{"nom":"PLACE GENAPPE","ag":["Réseau urbain Zoom"],"lt":0,"dept":"71"}},{"type":"Feature","geometry":{"type":"Point","coordinates":[4.717,46.83655]},"properties":{"nom":"PLACE GENAPPE","ag":["Réseau urbain Zoom"],"lt":0,"dept":"71"}},{"type":"Feature","geometry":{"type":"Point","coordinates":[4.74108,46.80999]},"properties":{"nom":"LES PRES DE CLIPOT","ag":["Réseau urbain Zoom"],"lt":0,"dept":"71"}},{"type":"Feature","geometry":{"type":"Point","coordinates":[4.74108,46.81002]},"properties":{"nom":"LES PRES DE CLIPOT","ag":["Réseau urbain Zoom"],"lt":0,"dept":"71"}},{"type":"Feature","geometry":{"type":"Point","coordinates":[4.93328,46.78255]},"properties":{"nom":"LES CERISIERS","ag":["Réseau urbain Zoom"],"lt":0,"dept":"71"}},{"type":"Feature","geometry":{"type":"Point","coordinates":[4.93348,46.78257]},"properties":{"nom":"LES CERISIERS","ag":["Réseau urbain Zoom"],"lt":0,"dept":"71"}},{"type":"Feature","geometry":{"type":"Point","coordinates":[4.92389,46.77984]},"properties":{"nom":"CHATEAU COULON","ag":["Réseau urbain Zoom"],"lt":0,"dept":"71"}},{"type":"Feature","geometry":{"type":"Point","coordinates":[4.92343,46.77975]},"properties":{"nom":"CHATEAU COULON","ag":["Réseau urbain Zoom"],"lt":0,"dept":"71"}},{"type":"Feature","geometry":{"type":"Point","coordinates":[4.92415,46.78414]},"properties":{"nom":"LES LILAS","ag":["Réseau urbain Zoom"],"lt":0,"dept":"71"}},{"type":"Feature","geometry":{"type":"Point","coordinates":[4.92421,46.78419]},"properties":{"nom":"LES LILAS","ag":["Réseau urbain Zoom"],"lt":0,"dept":"71"}},{"type":"Feature","geometry":{"type":"Point","coordinates":[4.91951,46.78343]},"properties":{"nom":"MAIRIE OSLON","ag":["Réseau urbain Zoom"],"lt":0,"dept":"71"}},{"type":"Feature","geometry":{"type":"Point","coordinates":[4.91974,46.78334]},"properties":{"nom":"MAIRIE OSLON","ag":["Réseau urbain Zoom"],"lt":0,"dept":"71"}},{"type":"Feature","geometry":{"type":"Point","coordinates":[4.9266,46.78134]},"properties":{"nom":"PIECE AU ROUX","ag":["Réseau urbain Zoom"],"lt":0,"dept":"71"}},{"type":"Feature","geometry":{"type":"Point","coordinates":[4.92672,46.78127]},"properties":{"nom":"PIECE AU ROUX","ag":["Réseau urbain Zoom"],"lt":0,"dept":"71"}},{"type":"Feature","geometry":{"type":"Point","coordinates":[4.8277,46.7638]},"properties":{"nom":"ARCADIE","ag":["Réseau urbain Zoom"],"lt":0,"dept":"71"}},{"type":"Feature","geometry":{"type":"Point","coordinates":[4.82704,46.76372]},"properties":{"nom":"ARCADIE","ag":["Réseau urbain Zoom"],"lt":0,"dept":"71"}},{"type":"Feature","geometry":{"type":"Point","coordinates":[4.82488,46.76912]},"properties":{"nom":"AVENUE DE L'EUROPE","ag":["Réseau urbain Zoom"],"lt":0,"dept":"71"}},{"type":"Feature","geometry":{"type":"Point","coordinates":[4.82482,46.76906]},"properties":{"nom":"AVENUE DE L'EUROPE","ag":["Réseau urbain Zoom"],"lt":0,"dept":"71"}},{"type":"Feature","geometry":{"type":"Point","coordinates":[4.82901,46.76453]},"properties":{"nom":"BRIET","ag":["Réseau urbain Zoom"],"lt":0,"dept":"71"}},{"type":"Feature","geometry":{"type":"Point","coordinates":[4.8429,46.76445]},"properties":{"nom":"CALIFORNIE","ag":["Réseau urbain Zoom"],"lt":0,"dept":"71"}},{"type":"Feature","geometry":{"type":"Point","coordinates":[4.8284,46.7727]},"properties":{"nom":"CHAMP ROSEY","ag":["Réseau urbain Zoom"],"lt":0,"dept":"71"}},{"type":"Feature","geometry":{"type":"Point","coordinates":[4.82827,46.7725]},"properties":{"nom":"CHAMP ROSEY","ag":["Réseau urbain Zoom"],"lt":0,"dept":"71"}},{"type":"Feature","geometry":{"type":"Point","coordinates":[4.84022,46.76238]},"properties":{"nom":"CLINIQUE","ag":["Réseau urbain Zoom"],"lt":0,"dept":"71"}},{"type":"Feature","geometry":{"type":"Point","coordinates":[4.84029,46.76175]},"properties":{"nom":"CLINIQUE","ag":["Réseau urbain Zoom"],"lt":0,"dept":"71"}},{"type":"Feature","geometry":{"type":"Point","coordinates":[4.83141,46.76739]},"properties":{"nom":"COLLEGE PASTEUR","ag":["Réseau urbain Zoom"],"lt":0,"dept":"71"}},{"type":"Feature","geometry":{"type":"Point","coordinates":[4.83188,46.76694]},"properties":{"nom":"COLLEGE PASTEUR","ag":["Réseau urbain Zoom"],"lt":0,"dept":"71"}},{"type":"Feature","geometry":{"type":"Point","coordinates":[4.81747,46.75483]},"properties":{"nom":"CORTELIN","ag":["Réseau urbain Zoom"],"lt":0,"dept":"71"}},{"type":"Feature","geometry":{"type":"Point","coordinates":[4.81209,46.74375]},"properties":{"nom":"FAUGOURET","ag":["Réseau urbain Zoom"],"lt":0,"dept":"71"}},{"type":"Feature","geometry":{"type":"Point","coordinates":[4.82551,46.77398]},"properties":{"nom":"GAITE","ag":["Réseau urbain Zoom"],"lt":0,"dept":"71"}},{"type":"Feature","geometry":{"type":"Point","coordinates":[4.82475,46.77402]},"properties":{"nom":"GAITE","ag":["Réseau urbain Zoom"],"lt":0,"dept":"71"}},{"type":"Feature","geometry":{"type":"Point","coordinates":[4.82145,46.77716]},"properties":{"nom":"LES GERANIUMS","ag":["Réseau urbain Zoom"],"lt":0,"dept":"71"}},{"type":"Feature","geometry":{"type":"Point","coordinates":[4.82144,46.777]},"properties":{"nom":"LES GERANIUMS","ag":["Réseau urbain Zoom"],"lt":0,"dept":"71"}},{"type":"Feature","geometry":{"type":"Point","coordinates":[4.81458,46.77134]},"properties":{"nom":"LES HAUTS DE MAROBIN","ag":["Réseau urbain Zoom"],"lt":0,"dept":"71"}},{"type":"Feature","geometry":{"type":"Point","coordinates":[4.81455,46.77138]},"properties":{"nom":"LES HAUTS DE MAROBIN","ag":["Réseau urbain Zoom"],"lt":0,"dept":"71"}},{"type":"Feature","geometry":{"type":"Point","coordinates":[4.83274,46.76486]},"properties":{"nom":"LAURAIN - EHPAD","ag":["Réseau urbain Zoom"],"lt":0,"dept":"71"}},{"type":"Feature","geometry":{"type":"Point","coordinates":[4.8327,46.7648]},"properties":{"nom":"LAURAIN - EHPAD","ag":["Réseau urbain Zoom"],"lt":0,"dept":"71"}},{"type":"Feature","geometry":{"type":"Point","coordinates":[4.82909,46.76944]},"properties":{"nom":"MAIRIE SAINT REMY","ag":["Réseau urbain Zoom"],"lt":0,"dept":"71"}},{"type":"Feature","geometry":{"type":"Point","coordinates":[4.82871,46.76951]},"properties":{"nom":"MAIRIE SAINT REMY","ag":["Réseau urbain Zoom"],"lt":0,"dept":"71"}},{"type":"Feature","geometry":{"type":"Point","coordinates":[4.82089,46.77446]},"properties":{"nom":"PETIT CHARROT","ag":["Réseau urbain Zoom"],"lt":0,"dept":"71"}},{"type":"Feature","geometry":{"type":"Point","coordinates":[4.82083,46.77432]},"properties":{"nom":"PETIT CHARROT","ag":["Réseau urbain Zoom"],"lt":0,"dept":"71"}},{"type":"Feature","geometry":{"type":"Point","coordinates":[4.83435,46.77378]},"properties":{"nom":"PONT PARON","ag":["Réseau urbain Zoom"],"lt":0,"dept":"71"}},{"type":"Feature","geometry":{"type":"Point","coordinates":[4.8345,46.774]},"properties":{"nom":"PONT PARON","ag":["Réseau urbain Zoom"],"lt":0,"dept":"71"}},{"type":"Feature","geometry":{"type":"Point","coordinates":[4.81517,46.77289]},"properties":{"nom":"ALOUETTES","ag":["Réseau urbain Zoom"],"lt":0,"dept":"71"}},{"type":"Feature","geometry":{"type":"Point","coordinates":[4.81518,46.77299]},"properties":{"nom":"ALOUETTES","ag":["Réseau urbain Zoom"],"lt":0,"dept":"71"}},{"type":"Feature","geometry":{"type":"Point","coordinates":[4.81474,46.77423]},"properties":{"nom":"ROUTE DE GIVRY","ag":["Réseau urbain Zoom"],"lt":0,"dept":"71"}},{"type":"Feature","geometry":{"type":"Point","coordinates":[4.81721,46.77388]},"properties":{"nom":"ROUTE DE GIVRY","ag":["Réseau urbain Zoom"],"lt":0,"dept":"71"}},{"type":"Feature","geometry":{"type":"Point","coordinates":[4.81809,46.76622]},"properties":{"nom":"TAISEY","ag":["Réseau urbain Zoom"],"lt":0,"dept":"71"}},{"type":"Feature","geometry":{"type":"Point","coordinates":[4.81805,46.76611]},"properties":{"nom":"TAISEY","ag":["Réseau urbain Zoom"],"lt":0,"dept":"71"}},{"type":"Feature","geometry":{"type":"Point","coordinates":[4.81214,46.75936]},"properties":{"nom":"TEPPES JACOB","ag":["Réseau urbain Zoom"],"lt":0,"dept":"71"}},{"type":"Feature","geometry":{"type":"Point","coordinates":[4.81194,46.75938]},"properties":{"nom":"TEPPES JACOB","ag":["Réseau urbain Zoom"],"lt":0,"dept":"71"}},{"type":"Feature","geometry":{"type":"Point","coordinates":[4.73954,46.87377]},"properties":{"nom":"LA CHAPELLE","ag":["Réseau urbain Zoom"],"lt":0,"dept":"71"}},{"type":"Feature","geometry":{"type":"Point","coordinates":[4.73955,46.87381]},"properties":{"nom":"LA CHAPELLE","ag":["Réseau urbain Zoom"],"lt":0,"dept":"71"}},{"type":"Feature","geometry":{"type":"Point","coordinates":[4.75195,46.87883]},"properties":{"nom":"LES CHAMPS ROUGES","ag":["Réseau urbain Zoom"],"lt":0,"dept":"71"}},{"type":"Feature","geometry":{"type":"Point","coordinates":[4.75192,46.8789]},"properties":{"nom":"LES CHAMPS ROUGES","ag":["Réseau urbain Zoom"],"lt":0,"dept":"71"}},{"type":"Feature","geometry":{"type":"Point","coordinates":[4.75828,46.87993]},"properties":{"nom":"GARE DE RULLY","ag":["Réseau urbain Zoom"],"lt":0,"dept":"71"}},{"type":"Feature","geometry":{"type":"Point","coordinates":[4.75813,46.87995]},"properties":{"nom":"GARE DE RULLY","ag":["Réseau urbain Zoom"],"lt":0,"dept":"71"}},{"type":"Feature","geometry":{"type":"Point","coordinates":[4.85062,46.78022]},"properties":{"nom":"RUE GLORIETTE","ag":["Réseau urbain Zoom"],"lt":0,"dept":"71"}},{"type":"Feature","geometry":{"type":"Point","coordinates":[4.73555,46.86879]},"properties":{"nom":"HAMEAU DU CHATEAU","ag":["Réseau urbain Zoom"],"lt":0,"dept":"71"}},{"type":"Feature","geometry":{"type":"Point","coordinates":[4.73651,46.87078]},"properties":{"nom":"HAMEAU DU CHATEAU","ag":["Réseau urbain Zoom"],"lt":0,"dept":"71"}},{"type":"Feature","geometry":{"type":"Point","coordinates":[4.74078,46.87477]},"properties":{"nom":"MAIRIE RULLY","ag":["Réseau urbain Zoom"],"lt":0,"dept":"71"}},{"type":"Feature","geometry":{"type":"Point","coordinates":[4.74089,46.87464]},"properties":{"nom":"MAIRIE RULLY","ag":["Réseau urbain Zoom"],"lt":0,"dept":"71"}},{"type":"Feature","geometry":{"type":"Point","coordinates":[4.76849,46.88111]},"properties":{"nom":"LA PLAINE","ag":["Réseau urbain Zoom"],"lt":0,"dept":"71"}},{"type":"Feature","geometry":{"type":"Point","coordinates":[4.76845,46.88106]},"properties":{"nom":"LA PLAINE","ag":["Réseau urbain Zoom"],"lt":0,"dept":"71"}},{"type":"Feature","geometry":{"type":"Point","coordinates":[4.74118,46.87225]},"properties":{"nom":"PLACE DU CHAMPS DE FOIRE","ag":["Réseau urbain Zoom"],"lt":0,"dept":"71"}},{"type":"Feature","geometry":{"type":"Point","coordinates":[4.7412,46.8722]},"properties":{"nom":"PLACE DU CHAMPS DE FOIRE","ag":["Réseau urbain Zoom"],"lt":0,"dept":"71"}},{"type":"Feature","geometry":{"type":"Point","coordinates":[4.74461,46.8769]},"properties":{"nom":"PLACE DU CREUX DES MAZOIRES","ag":["Réseau urbain Zoom"],"lt":0,"dept":"71"}},{"type":"Feature","geometry":{"type":"Point","coordinates":[4.91202,46.83535]},"properties":{"nom":"BRONDEAULT","ag":["Réseau urbain Zoom"],"lt":0,"dept":"71"}},{"type":"Feature","geometry":{"type":"Point","coordinates":[4.91792,46.82714]},"properties":{"nom":"BRONDEAULT","ag":["Réseau urbain Zoom"],"lt":0,"dept":"71"}},{"type":"Feature","geometry":{"type":"Point","coordinates":[4.9301,46.83405]},"properties":{"nom":"LES CANNETIERES","ag":["Réseau urbain Zoom"],"lt":0,"dept":"71"}},{"type":"Feature","geometry":{"type":"Point","coordinates":[4.93027,46.83404]},"properties":{"nom":"LES CANNETIERES","ag":["Réseau urbain Zoom"],"lt":0,"dept":"71"}},{"type":"Feature","geometry":{"type":"Point","coordinates":[4.92122,46.83033]},"properties":{"nom":"POSTE SASSENAY","ag":["Réseau urbain Zoom"],"lt":0,"dept":"71"}},{"type":"Feature","geometry":{"type":"Point","coordinates":[4.92079,46.83022]},"properties":{"nom":"POSTE SASSENAY","ag":["Réseau urbain Zoom"],"lt":0,"dept":"71"}},{"type":"Feature","geometry":{"type":"Point","coordinates":[4.9206,46.82868]},"properties":{"nom":"RUE DU MOULIN SASSENAY","ag":["Réseau urbain Zoom"],"lt":0,"dept":"71"}},{"type":"Feature","geometry":{"type":"Point","coordinates":[4.83988,46.73722]},"properties":{"nom":"BOURG DE SEVREY","ag":["Réseau urbain Zoom"],"lt":0,"dept":"71"}},{"type":"Feature","geometry":{"type":"Point","coordinates":[4.83977,46.73726]},"properties":{"nom":"BOURG DE SEVREY","ag":["Réseau urbain Zoom"],"lt":0,"dept":"71"}},{"type":"Feature","geometry":{"type":"Point","coordinates":[4.84171,46.739]},"properties":{"nom":"CHAGNOTS","ag":["Réseau urbain Zoom"],"lt":0,"dept":"71"}},{"type":"Feature","geometry":{"type":"Point","coordinates":[4.84165,46.7391]},"properties":{"nom":"CHAGNOTS","ag":["Réseau urbain Zoom"],"lt":0,"dept":"71"}},{"type":"Feature","geometry":{"type":"Point","coordinates":[4.85353,46.74042]},"properties":{"nom":"DISTRIPOLE","ag":["Réseau urbain Zoom"],"lt":0,"dept":"71"}},{"type":"Feature","geometry":{"type":"Point","coordinates":[4.83354,46.73233]},"properties":{"nom":"FOSSES BLANCHES","ag":["Réseau urbain Zoom"],"lt":0,"dept":"71"}},{"type":"Feature","geometry":{"type":"Point","coordinates":[4.83339,46.73272]},"properties":{"nom":"FOSSES BLANCHES","ag":["Réseau urbain Zoom"],"lt":0,"dept":"71"}},{"type":"Feature","geometry":{"type":"Point","coordinates":[4.83077,46.72642]},"properties":{"nom":"HOPITAL DE SEVREY","ag":["Réseau urbain Zoom"],"lt":0,"dept":"71"}},{"type":"Feature","geometry":{"type":"Point","coordinates":[4.83074,46.72653]},"properties":{"nom":"HOPITAL DE SEVREY","ag":["Réseau urbain Zoom"],"lt":0,"dept":"71"}},{"type":"Feature","geometry":{"type":"Point","coordinates":[4.83795,46.73536]},"properties":{"nom":"LOUIS VERCHERE","ag":["Réseau urbain Zoom"],"lt":0,"dept":"71"}},{"type":"Feature","geometry":{"type":"Point","coordinates":[4.83788,46.73542]},"properties":{"nom":"LOUIS VERCHERE","ag":["Réseau urbain Zoom"],"lt":0,"dept":"71"}},{"type":"Feature","geometry":{"type":"Point","coordinates":[4.8334,46.72927]},"properties":{"nom":"MHPP","ag":["Réseau urbain Zoom"],"lt":0,"dept":"71"}},{"type":"Feature","geometry":{"type":"Point","coordinates":[4.83295,46.72877]},"properties":{"nom":"MHPP","ag":["Réseau urbain Zoom"],"lt":0,"dept":"71"}},{"type":"Feature","geometry":{"type":"Point","coordinates":[4.90335,46.94618]},"properties":{"nom":"AVENUE DES VOYAGEURS","ag":["Réseau urbain Zoom"],"lt":0,"dept":"71"}},{"type":"Feature","geometry":{"type":"Point","coordinates":[4.90336,46.94612]},"properties":{"nom":"AVENUE DES VOYAGEURS","ag":["Réseau urbain Zoom"],"lt":0,"dept":"71"}},{"type":"Feature","geometry":{"type":"Point","coordinates":[4.71153,46.75384]},"properties":{"nom":"BOURG SAINT DESERT","ag":["Réseau urbain Zoom"],"lt":0,"dept":"71"}},{"type":"Feature","geometry":{"type":"Point","coordinates":[4.71164,46.75385]},"properties":{"nom":"BOURG SAINT DESERT","ag":["Réseau urbain Zoom"],"lt":0,"dept":"71"}},{"type":"Feature","geometry":{"type":"Point","coordinates":[4.9083,46.94762]},"properties":{"nom":"EGLISE ST LOUP-GEANGES","ag":["Réseau urbain Zoom"],"lt":0,"dept":"71"}},{"type":"Feature","geometry":{"type":"Point","coordinates":[4.90869,46.94765]},"properties":{"nom":"EGLISE ST LOUP-GEANGES","ag":["Réseau urbain Zoom"],"lt":0,"dept":"71"}},{"type":"Feature","geometry":{"type":"Point","coordinates":[4.71862,46.75498]},"properties":{"nom":"CIMETIERE SAINT DESERT","ag":["Réseau urbain Zoom"],"lt":0,"dept":"71"}},{"type":"Feature","geometry":{"type":"Point","coordinates":[4.71861,46.75498]},"properties":{"nom":"CIMETIERE SAINT DESERT","ag":["Réseau urbain Zoom"],"lt":0,"dept":"71"}},{"type":"Feature","geometry":{"type":"Point","coordinates":[4.71544,46.81726]},"properties":{"nom":"ECOLE ST MARTIN S/MONTAIGU","ag":["Réseau urbain Zoom"],"lt":0,"dept":"71"}},{"type":"Feature","geometry":{"type":"Point","coordinates":[4.71546,46.81738]},"properties":{"nom":"ECOLE ST MARTIN S/MONTAIGU","ag":["Réseau urbain Zoom"],"lt":0,"dept":"71"}},{"type":"Feature","geometry":{"type":"Point","coordinates":[4.68455,46.81251]},"properties":{"nom":"EGLISE ST MARD DE VAUX","ag":["Réseau urbain Zoom"],"lt":0,"dept":"71"}},{"type":"Feature","geometry":{"type":"Point","coordinates":[4.68449,46.81262]},"properties":{"nom":"EGLISE ST MARD DE VAUX","ag":["Réseau urbain Zoom"],"lt":0,"dept":"71"}},{"type":"Feature","geometry":{"type":"Point","coordinates":[4.87503,46.94333]},"properties":{"nom":"LA FORGE","ag":["Réseau urbain Zoom"],"lt":0,"dept":"71"}},{"type":"Feature","geometry":{"type":"Point","coordinates":[4.87541,46.94324]},"properties":{"nom":"LA FORGE","ag":["Réseau urbain Zoom"],"lt":0,"dept":"71"}},{"type":"Feature","geometry":{"type":"Point","coordinates":[4.70882,46.80899]},"properties":{"nom":"LOT LA MALADIERE","ag":["Réseau urbain Zoom"],"lt":0,"dept":"71"}},{"type":"Feature","geometry":{"type":"Point","coordinates":[4.70875,46.80912]},"properties":{"nom":"LOT LA MALADIERE","ag":["Réseau urbain Zoom"],"lt":0,"dept":"71"}},{"type":"Feature","geometry":{"type":"Point","coordinates":[4.67851,46.80535]},"properties":{"nom":"LOT LE FRACHET","ag":["Réseau urbain Zoom"],"lt":0,"dept":"71"}},{"type":"Feature","geometry":{"type":"Point","coordinates":[4.67837,46.80539]},"properties":{"nom":"LOT LE FRACHET","ag":["Réseau urbain Zoom"],"lt":0,"dept":"71"}},{"type":"Feature","geometry":{"type":"Point","coordinates":[4.90791,46.95574]},"properties":{"nom":"BIBLIOTHEQUE ST LOUP-GEANGES","ag":["Réseau urbain Zoom"],"lt":0,"dept":"71"}},{"type":"Feature","geometry":{"type":"Point","coordinates":[4.90811,46.95572]},"properties":{"nom":"BIBLIOTHEQUE ST LOUP-GEANGES","ag":["Réseau urbain Zoom"],"lt":0,"dept":"71"}},{"type":"Feature","geometry":{"type":"Point","coordinates":[4.70502,46.75618]},"properties":{"nom":"MAISON DE SANTE","ag":["Réseau urbain Zoom"],"lt":0,"dept":"71"}},{"type":"Feature","geometry":{"type":"Point","coordinates":[4.78123,46.78411]},"properties":{"nom":"MOULIN MADAME","ag":["Réseau urbain Zoom"],"lt":0,"dept":"71"}},{"type":"Feature","geometry":{"type":"Point","coordinates":[4.69754,46.79522]},"properties":{"nom":"MONUMENT ST DENIS DE VAUX","ag":["Réseau urbain Zoom"],"lt":0,"dept":"71"}},{"type":"Feature","geometry":{"type":"Point","coordinates":[4.69755,46.79521]},"properties":{"nom":"MONUMENT ST DENIS DE VAUX","ag":["Réseau urbain Zoom"],"lt":0,"dept":"71"}},{"type":"Feature","geometry":{"type":"Point","coordinates":[4.84329,46.69822]},"properties":{"nom":"LES MOUILLES","ag":["Réseau urbain Zoom"],"lt":0,"dept":"71"}},{"type":"Feature","geometry":{"type":"Point","coordinates":[4.84323,46.69839]},"properties":{"nom":"LES MOUILLES","ag":["Réseau urbain Zoom"],"lt":0,"dept":"71"}},{"type":"Feature","geometry":{"type":"Point","coordinates":[4.85914,46.73003]},"properties":{"nom":"NICEPHORE NIEPCE","ag":["Réseau urbain Zoom"],"lt":0,"dept":"71"}},{"type":"Feature","geometry":{"type":"Point","coordinates":[4.85911,46.72998]},"properties":{"nom":"NICEPHORE NIEPCE","ag":["Réseau urbain Zoom"],"lt":0,"dept":"71"}},{"type":"Feature","geometry":{"type":"Point","coordinates":[4.69916,46.80904]},"properties":{"nom":"PLACE ST JEAN DE VAUX","ag":["Réseau urbain Zoom"],"lt":0,"dept":"71"}},{"type":"Feature","geometry":{"type":"Point","coordinates":[4.86273,46.72608]},"properties":{"nom":"RUE VARENNES","ag":["Réseau urbain Zoom"],"lt":0,"dept":"71"}},{"type":"Feature","geometry":{"type":"Point","coordinates":[4.86201,46.72556]},"properties":{"nom":"RUE VARENNES","ag":["Réseau urbain Zoom"],"lt":0,"dept":"71"}},{"type":"Feature","geometry":{"type":"Point","coordinates":[4.6824,46.81001]},"properties":{"nom":"RUE DE LA FOUGERE","ag":["Réseau urbain Zoom"],"lt":0,"dept":"71"}},{"type":"Feature","geometry":{"type":"Point","coordinates":[4.68241,46.81018]},"properties":{"nom":"RUE DE LA FOUGERE","ag":["Réseau urbain Zoom"],"lt":0,"dept":"71"}},{"type":"Feature","geometry":{"type":"Point","coordinates":[4.86246,46.73536]},"properties":{"nom":"RUE GRENIER","ag":["Réseau urbain Zoom"],"lt":0,"dept":"71"}},{"type":"Feature","geometry":{"type":"Point","coordinates":[4.86223,46.7354]},"properties":{"nom":"RUE GRENIER","ag":["Réseau urbain Zoom"],"lt":0,"dept":"71"}},{"type":"Feature","geometry":{"type":"Point","coordinates":[4.86306,46.73138]},"properties":{"nom":"RUE D'HERNE","ag":["Réseau urbain Zoom"],"lt":0,"dept":"71"}},{"type":"Feature","geometry":{"type":"Point","coordinates":[4.86292,46.73159]},"properties":{"nom":"RUE D'HERNE","ag":["Réseau urbain Zoom"],"lt":0,"dept":"71"}},{"type":"Feature","geometry":{"type":"Point","coordinates":[4.71605,46.81237]},"properties":{"nom":"SUZEAU","ag":["Réseau urbain Zoom"],"lt":0,"dept":"71"}},{"type":"Feature","geometry":{"type":"Point","coordinates":[4.87981,46.70724]},"properties":{"nom":"AMORANDS","ag":["Réseau urbain Zoom"],"lt":0,"dept":"71"}},{"type":"Feature","geometry":{"type":"Point","coordinates":[4.87996,46.70691]},"properties":{"nom":"AMORANDS","ag":["Réseau urbain Zoom"],"lt":0,"dept":"71"}},{"type":"Feature","geometry":{"type":"Point","coordinates":[4.83868,46.69824]},"properties":{"nom":"CENTRE PENITENTIAIRE","ag":["Réseau urbain Zoom"],"lt":0,"dept":"71"}},{"type":"Feature","geometry":{"type":"Point","coordinates":[4.8757,46.71153]},"properties":{"nom":"FOYER","ag":["Réseau urbain Zoom"],"lt":0,"dept":"71"}},{"type":"Feature","geometry":{"type":"Point","coordinates":[4.87581,46.71129]},"properties":{"nom":"FOYER","ag":["Réseau urbain Zoom"],"lt":0,"dept":"71"}},{"type":"Feature","geometry":{"type":"Point","coordinates":[4.86917,46.71816]},"properties":{"nom":"LOISY","ag":["Réseau urbain Zoom"],"lt":0,"dept":"71"}},{"type":"Feature","geometry":{"type":"Point","coordinates":[4.8689,46.71831]},"properties":{"nom":"LOISY","ag":["Réseau urbain Zoom"],"lt":0,"dept":"71"}},{"type":"Feature","geometry":{"type":"Point","coordinates":[4.88221,46.70465]},"properties":{"nom":"MIRANDES","ag":["Réseau urbain Zoom"],"lt":0,"dept":"71"}},{"type":"Feature","geometry":{"type":"Point","coordinates":[4.88236,46.70435]},"properties":{"nom":"MIRANDES","ag":["Réseau urbain Zoom"],"lt":0,"dept":"71"}},{"type":"Feature","geometry":{"type":"Point","coordinates":[4.86579,46.72169]},"properties":{"nom":"RUE MARTIN","ag":["Réseau urbain Zoom"],"lt":0,"dept":"71"}},{"type":"Feature","geometry":{"type":"Point","coordinates":[4.86535,46.72209]},"properties":{"nom":"RUE MARTIN","ag":["Réseau urbain Zoom"],"lt":0,"dept":"71"}},{"type":"Feature","geometry":{"type":"Point","coordinates":[4.85421,46.72371]},"properties":{"nom":"VINCELLES","ag":["Réseau urbain Zoom"],"lt":0,"dept":"71"}},{"type":"Feature","geometry":{"type":"Point","coordinates":[4.8542,46.72369]},"properties":{"nom":"VINCELLES","ag":["Réseau urbain Zoom"],"lt":0,"dept":"71"}},{"type":"Feature","geometry":{"type":"Point","coordinates":[4.85738,46.83595]},"properties":{"nom":"LES DEFENDS","ag":["Réseau urbain Zoom"],"lt":0,"dept":"71"}},{"type":"Feature","geometry":{"type":"Point","coordinates":[4.85706,46.83554]},"properties":{"nom":"LES DEFENDS","ag":["Réseau urbain Zoom"],"lt":0,"dept":"71"}},{"type":"Feature","geometry":{"type":"Point","coordinates":[4.86599,46.84146]},"properties":{"nom":"ESAT DE VIREY","ag":["Réseau urbain Zoom"],"lt":0,"dept":"71"}},{"type":"Feature","geometry":{"type":"Point","coordinates":[4.86613,46.84149]},"properties":{"nom":"ESAT DE VIREY","ag":["Réseau urbain Zoom"],"lt":0,"dept":"71"}},{"type":"Feature","geometry":{"type":"Point","coordinates":[4.87042,46.84642]},"properties":{"nom":"HAUTS DE VIREY","ag":["Réseau urbain Zoom"],"lt":0,"dept":"71"}},{"type":"Feature","geometry":{"type":"Point","coordinates":[4.87041,46.84635]},