{"type":"FeatureCollection","features":[{"type":"Feature","geometry":{"type":"Point","coordinates":[1.26835,45.8359]},"properties":{"nom":"Limoges (central bus station)","ag":["Réseau européen FlixBus et FlixTrain"],"lt":0,"dept":"87"}},{"type":"Feature","geometry":{"type":"Point","coordinates":[1.26849,45.83615]},"properties":{"nom":"Limoges","ag":["Réseau européen BlaBlaCar Bus"],"lt":0,"dept":"87"}},{"type":"Feature","geometry":{"type":"Point","coordinates":[1.26742,45.83621]},"properties":{"nom":"Limoges Bénédictins","ag":["Réseau SNCF TGV, Intercités et TER"],"lt":1,"dept":"87"}},{"type":"Feature","geometry":{"type":"Point","coordinates":[1.25178,45.83833]},"properties":{"nom":"Limoges Montjovis","ag":["Réseau SNCF TGV, Intercités et TER"],"lt":1,"dept":"87"}},{"type":"Feature","geometry":{"type":"Point","coordinates":[1.37743,45.90473]},"properties":{"nom":"Les Bardys","ag":["Réseau SNCF TGV, Intercités et TER"],"lt":1,"dept":"87"}},{"type":"Feature","geometry":{"type":"Point","coordinates":[1.40043,45.88715]},"properties":{"nom":"Saint-Priest-Taurion","ag":["Réseau SNCF TGV, Intercités et TER"],"lt":1,"dept":"87"}},{"type":"Feature","geometry":{"type":"Point","coordinates":[1.44035,45.86391]},"properties":{"nom":"Brignac","ag":["Réseau SNCF TGV, Intercités et TER"],"lt":1,"dept":"87"}},{"type":"Feature","geometry":{"type":"Point","coordinates":[1.48188,45.83208]},"properties":{"nom":"Saint-Léonard-de-Noblat","ag":["Réseau SNCF TGV, Intercités et TER"],"lt":1,"dept":"87"}},{"type":"Feature","geometry":{"type":"Point","coordinates":[1.55139,45.78898]},"properties":{"nom":"Saint-Denis-des-Murs","ag":["Réseau SNCF TGV, Intercités et TER"],"lt":1,"dept":"87"}},{"type":"Feature","geometry":{"type":"Point","coordinates":[1.64524,45.75936]},"properties":{"nom":"Châteauneuf - Bujaleuf","ag":["Réseau SNCF TGV, Intercités et TER"],"lt":1,"dept":"87"}},{"type":"Feature","geometry":{"type":"Point","coordinates":[1.74125,45.73982]},"properties":{"nom":"Eymoutiers Vassivière","ag":["Réseau SNCF TGV, Intercités et TER"],"lt":1,"dept":"87"}},{"type":"Feature","geometry":{"type":"Point","coordinates":[1.28559,45.75614]},"properties":{"nom":"Solignac - Le Vigen","ag":["Réseau SNCF TGV, Intercités et TER"],"lt":1,"dept":"87"}},{"type":"Feature","geometry":{"type":"Point","coordinates":[1.34724,45.6995]},"properties":{"nom":"Pierre-Buffière","ag":["Réseau SNCF TGV, Intercités et TER"],"lt":1,"dept":"87"}},{"type":"Feature","geometry":{"type":"Point","coordinates":[1.4438,45.62885]},"properties":{"nom":"Magnac - Vicq","ag":["Réseau SNCF TGV, Intercités et TER"],"lt":1,"dept":"87"}},{"type":"Feature","geometry":{"type":"Point","coordinates":[1.47997,45.60988]},"properties":{"nom":"Saint-Germain-les-Belles","ag":["Réseau SNCF TGV, Intercités et TER"],"lt":1,"dept":"87"}},{"type":"Feature","geometry":{"type":"Point","coordinates":[1.53833,45.57408]},"properties":{"nom":"La Porcherie","ag":["Réseau SNCF TGV, Intercités et TER"],"lt":1,"dept":"87"}},{"type":"Feature","geometry":{"type":"Point","coordinates":[1.40658,45.9529]},"properties":{"nom":"Ambazac","ag":["Réseau SNCF TGV, Intercités et TER"],"lt":1,"dept":"87"}},{"type":"Feature","geometry":{"type":"Point","coordinates":[1.48039,45.99446]},"properties":{"nom":"La Jonchère","ag":["Réseau SNCF TGV, Intercités et TER"],"lt":1,"dept":"87"}},{"type":"Feature","geometry":{"type":"Point","coordinates":[1.47626,46.0469]},"properties":{"nom":"Saint-Sulpice-Laurière","ag":["Réseau SNCF TGV, Intercités et TER"],"lt":1,"dept":"87"}},{"type":"Feature","geometry":{"type":"Point","coordinates":[1.43213,46.08381]},"properties":{"nom":"Bersac","ag":["Réseau SNCF TGV, Intercités et TER"],"lt":1,"dept":"87"}},{"type":"Feature","geometry":{"type":"Point","coordinates":[1.43243,46.17157]},"properties":{"nom":"Fromental","ag":["Réseau SNCF TGV, Intercités et TER"],"lt":1,"dept":"87"}},{"type":"Feature","geometry":{"type":"Point","coordinates":[1.17238,45.92749]},"properties":{"nom":"Nieul","ag":["Réseau SNCF TGV, Intercités et TER"],"lt":1,"dept":"87"}},{"type":"Feature","geometry":{"type":"Point","coordinates":[1.17023,45.95986]},"properties":{"nom":"Peyrilhac - Saint-Jouvent","ag":["Réseau SNCF TGV, Intercités et TER"],"lt":1,"dept":"87"}},{"type":"Feature","geometry":{"type":"Point","coordinates":[1.15642,46.00571]},"properties":{"nom":"Nantiat","ag":["Réseau SNCF TGV, Intercités et TER"],"lt":1,"dept":"87"}},{"type":"Feature","geometry":{"type":"Point","coordinates":[1.0461,46.12526]},"properties":{"nom":"Bellac","ag":["Réseau SNCF TGV, Intercités et TER"],"lt":1,"dept":"87"}},{"type":"Feature","geometry":{"type":"Point","coordinates":[1.07927,46.21114]},"properties":{"nom":"Le Dorat","ag":["Réseau SNCF TGV, Intercités et TER"],"lt":1,"dept":"87"}},{"type":"Feature","geometry":{"type":"Point","coordinates":[1.20504,45.77837]},"properties":{"nom":"L'Aiguille","ag":["Réseau SNCF TGV, Intercités et TER"],"lt":1,"dept":"87"}},{"type":"Feature","geometry":{"type":"Point","coordinates":[1.14572,45.79657]},"properties":{"nom":"Aixe-sur-Vienne","ag":["Réseau SNCF TGV, Intercités et TER"],"lt":1,"dept":"87"}},{"type":"Feature","geometry":{"type":"Point","coordinates":[1.00957,45.87659]},"properties":{"nom":"Saint-Victurnien","ag":["Réseau SNCF TGV, Intercités et TER"],"lt":1,"dept":"87"}},{"type":"Feature","geometry":{"type":"Point","coordinates":[0.9524,45.87828]},"properties":{"nom":"Saint-Brice-sur-Vienne","ag":["Réseau SNCF TGV, Intercités et TER"],"lt":1,"dept":"87"}},{"type":"Feature","geometry":{"type":"Point","coordinates":[0.90053,45.88153]},"properties":{"nom":"Saint-Junien","ag":["Réseau SNCF TGV, Intercités et TER"],"lt":1,"dept":"87"}},{"type":"Feature","geometry":{"type":"Point","coordinates":[1.17843,45.69157]},"properties":{"nom":"Nexon","ag":["Réseau SNCF TGV, Intercités et TER"],"lt":1,"dept":"87"}},{"type":"Feature","geometry":{"type":"Point","coordinates":[1.13091,45.63388]},"properties":{"nom":"Lafarge","ag":["Réseau SNCF TGV, Intercités et TER"],"lt":1,"dept":"87"}},{"type":"Feature","geometry":{"type":"Point","coordinates":[1.21216,45.62144]},"properties":{"nom":"La Meyze","ag":["Réseau SNCF TGV, Intercités et TER"],"lt":1,"dept":"87"}},{"type":"Feature","geometry":{"type":"Point","coordinates":[1.20545,45.51926]},"properties":{"nom":"Saint-Yrieix","ag":["Réseau SNCF TGV, Intercités et TER"],"lt":1,"dept":"87"}},{"type":"Feature","geometry":{"type":"Point","coordinates":[1.19004,45.67664]},"properties":{"nom":"NEXON - BASCULE","ag":["Réseau interurbain - Haute-Vienne (87)"],"lt":1,"dept":"87"}},{"type":"Feature","geometry":{"type":"Point","coordinates":[1.18035,45.6839]},"properties":{"nom":"Avenue Garibaldi","ag":["Réseau interurbain - Haute-Vienne (87)"],"lt":1,"dept":"87"}},{"type":"Feature","geometry":{"type":"Point","coordinates":[1.1855,45.66147]},"properties":{"nom":"Les Landes","ag":["Réseau interurbain - Haute-Vienne (87)"],"lt":1,"dept":"87"}},{"type":"Feature","geometry":{"type":"Point","coordinates":[0.79937,45.80231]},"properties":{"nom":"Les Chataignons","ag":["Réseau interurbain - Haute-Vienne (87)"],"lt":1,"dept":"87"}},{"type":"Feature","geometry":{"type":"Point","coordinates":[0.89528,45.89435]},"properties":{"nom":"Cité scolaire","ag":["Réseau interurbain - Haute-Vienne (87)"],"lt":1,"dept":"87"}},{"type":"Feature","geometry":{"type":"Point","coordinates":[0.8376,45.83869]},"properties":{"nom":"Le Château d'eau","ag":["Réseau interurbain - Haute-Vienne (87)"],"lt":1,"dept":"87"}},{"type":"Feature","geometry":{"type":"Point","coordinates":[1.02658,45.6076]},"properties":{"nom":"Gare","ag":["Réseau interurbain - Haute-Vienne (87)"],"lt":1,"dept":"87"}},{"type":"Feature","geometry":{"type":"Point","coordinates":[1.06176,45.84988]},"properties":{"nom":"La Garenne","ag":["Réseau interurbain - Haute-Vienne (87)"],"lt":1,"dept":"87"}},{"type":"Feature","geometry":{"type":"Point","coordinates":[1.20727,45.55644]},"properties":{"nom":"Maison Neuve","ag":["Réseau interurbain - Haute-Vienne (87)"],"lt":1,"dept":"87"}},{"type":"Feature","geometry":{"type":"Point","coordinates":[1.17073,45.95959]},"properties":{"nom":"Maison Neuve","ag":["Réseau interurbain - Haute-Vienne (87)"],"lt":1,"dept":"87"}},{"type":"Feature","geometry":{"type":"Point","coordinates":[1.35138,45.93551]},"properties":{"nom":"Puy Roudier","ag":["Réseau interurbain - Haute-Vienne (87)"],"lt":1,"dept":"87"}},{"type":"Feature","geometry":{"type":"Point","coordinates":[1.36288,45.93974]},"properties":{"nom":"Les Quatre Vents","ag":["Réseau interurbain - Haute-Vienne (87)"],"lt":1,"dept":"87"}},{"type":"Feature","geometry":{"type":"Point","coordinates":[1.39435,45.95128]},"properties":{"nom":"Muret","ag":["Réseau interurbain - Haute-Vienne (87)"],"lt":1,"dept":"87"}},{"type":"Feature","geometry":{"type":"Point","coordinates":[1.17472,45.81603]},"properties":{"nom":"Le Mas des Landes","ag":["Réseau interurbain - Haute-Vienne (87)"],"lt":1,"dept":"87"}},{"type":"Feature","geometry":{"type":"Point","coordinates":[0.95941,45.80002]},"properties":{"nom":"Bourg","ag":["Réseau interurbain - Haute-Vienne (87)"],"lt":1,"dept":"87"}},{"type":"Feature","geometry":{"type":"Point","coordinates":[1.23877,45.82703]},"properties":{"nom":"C. Ranson","ag":["Réseau interurbain - Haute-Vienne (87)"],"lt":1,"dept":"87"}},{"type":"Feature","geometry":{"type":"Point","coordinates":[1.32731,45.98925]},"properties":{"nom":"La Crouzille quai","ag":["Réseau interurbain - Haute-Vienne (87)"],"lt":1,"dept":"87"}},{"type":"Feature","geometry":{"type":"Point","coordinates":[1.25329,45.83122]},"properties":{"nom":"Place W. Churchill F","ag":["Réseau interurbain - Haute-Vienne (87)"],"lt":1,"dept":"87"}},{"type":"Feature","geometry":{"type":"Point","coordinates":[1.39957,45.95646]},"properties":{"nom":"AMBAZAC - PL.DE LA RÉPUBLIQUE","ag":["Réseau interurbain - Haute-Vienne (87)"],"lt":1,"dept":"87"}},{"type":"Feature","geometry":{"type":"Point","coordinates":[1.14851,45.79908]},"properties":{"nom":"Av. Jean Rebier","ag":["Réseau interurbain - Haute-Vienne (87)"],"lt":1,"dept":"87"}},{"type":"Feature","geometry":{"type":"Point","coordinates":[0.84157,45.75746]},"properties":{"nom":"La Chaise","ag":["Réseau interurbain - Haute-Vienne (87)"],"lt":1,"dept":"87"}},{"type":"Feature","geometry":{"type":"Point","coordinates":[1.37022,46.10969]},"properties":{"nom":"Bourg","ag":["Réseau interurbain - Haute-Vienne (87)"],"lt":1,"dept":"87"}},{"type":"Feature","geometry":{"type":"Point","coordinates":[1.00811,45.83179]},"properties":{"nom":"Bourg","ag":["Réseau interurbain - Haute-Vienne (87)"],"lt":1,"dept":"87"}},{"type":"Feature","geometry":{"type":"Point","coordinates":[1.14524,46.16766]},"properties":{"nom":"La Brousse","ag":["Réseau interurbain - Haute-Vienne (87)"],"lt":1,"dept":"87"}},{"type":"Feature","geometry":{"type":"Point","coordinates":[1.21478,45.91478]},"properties":{"nom":"Frégefond","ag":["Réseau interurbain - Haute-Vienne (87)"],"lt":1,"dept":"87"}},{"type":"Feature","geometry":{"type":"Point","coordinates":[1.18593,45.93659]},"properties":{"nom":"La Poitevine","ag":["Réseau interurbain - Haute-Vienne (87)"],"lt":1,"dept":"87"}},{"type":"Feature","geometry":{"type":"Point","coordinates":[1.20161,46.03529]},"properties":{"nom":"Bourg","ag":["Réseau interurbain - Haute-Vienne (87)"],"lt":1,"dept":"87"}},{"type":"Feature","geometry":{"type":"Point","coordinates":[0.97821,45.81654]},"properties":{"nom":"Le petit vedeix","ag":["Réseau interurbain - Haute-Vienne (87)"],"lt":1,"dept":"87"}},{"type":"Feature","geometry":{"type":"Point","coordinates":[1.40411,45.96343]},"properties":{"nom":"AMBAZAC - LA MAZAURIE","ag":["Réseau interurbain - Haute-Vienne (87)"],"lt":1,"dept":"87"}},{"type":"Feature","geometry":{"type":"Point","coordinates":[1.48206,45.83204]},"properties":{"nom":"St Léonard Gare","ag":["Réseau interurbain - Haute-Vienne (87)"],"lt":1,"dept":"87"}},{"type":"Feature","geometry":{"type":"Point","coordinates":[1.60405,45.90752]},"properties":{"nom":"Sauviat Centre","ag":["Réseau interurbain - Haute-Vienne (87)"],"lt":1,"dept":"87"}},{"type":"Feature","geometry":{"type":"Point","coordinates":[1.1625,45.8088]},"properties":{"nom":"Les Querrades","ag":["Réseau interurbain - Haute-Vienne (87)"],"lt":1,"dept":"87"}},{"type":"Feature","geometry":{"type":"Point","coordinates":[1.0923,45.84787]},"properties":{"nom":"Gué de la Roche","ag":["Réseau interurbain - Haute-Vienne (87)"],"lt":1,"dept":"87"}},{"type":"Feature","geometry":{"type":"Point","coordinates":[1.24927,45.82872]},"properties":{"nom":"Lycée Turgot","ag":["Réseau interurbain - Haute-Vienne (87)"],"lt":1,"dept":"87"}},{"type":"Feature","geometry":{"type":"Point","coordinates":[1.0971,45.83958]},"properties":{"nom":"Pont de la gabie","ag":["Réseau interurbain - Haute-Vienne (87)"],"lt":1,"dept":"87"}},{"type":"Feature","geometry":{"type":"Point","coordinates":[1.08957,45.85167]},"properties":{"nom":"La Roche","ag":["Réseau interurbain - Haute-Vienne (87)"],"lt":1,"dept":"87"}},{"type":"Feature","geometry":{"type":"Point","coordinates":[1.01106,45.83305]},"properties":{"nom":"COGNAC-LA-FORÊT - CHAMP DE FOIRE","ag":["Réseau interurbain - Haute-Vienne (87)"],"lt":1,"dept":"87"}},{"type":"Feature","geometry":{"type":"Point","coordinates":[1.11594,45.80847]},"properties":{"nom":"Moulin de la Mie","ag":["Réseau interurbain - Haute-Vienne (87)"],"lt":1,"dept":"87"}},{"type":"Feature","geometry":{"type":"Point","coordinates":[1.18489,46.20976]},"properties":{"nom":"LP Agricole","ag":["Réseau interurbain - Haute-Vienne (87)"],"lt":1,"dept":"87"}},{"type":"Feature","geometry":{"type":"Point","coordinates":[1.29246,46.02805]},"properties":{"nom":"Chabannes / Santrop","ag":["Réseau interurbain - Haute-Vienne (87)"],"lt":1,"dept":"87"}},{"type":"Feature","geometry":{"type":"Point","coordinates":[1.0943,45.81223]},"properties":{"nom":"Stade","ag":["Réseau interurbain - Haute-Vienne (87)"],"lt":1,"dept":"87"}},{"type":"Feature","geometry":{"type":"Point","coordinates":[1.30174,45.81818]},"properties":{"nom":"Carr. de l'Industrie","ag":["Réseau interurbain - Haute-Vienne (87)"],"lt":1,"dept":"87"}},{"type":"Feature","geometry":{"type":"Point","coordinates":[1.11223,45.80799]},"properties":{"nom":"Tarnaud","ag":["Réseau interurbain - Haute-Vienne (87)"],"lt":1,"dept":"87"}},{"type":"Feature","geometry":{"type":"Point","coordinates":[1.07308,45.81192]},"properties":{"nom":"Scierie","ag":["Réseau interurbain - Haute-Vienne (87)"],"lt":1,"dept":"87"}},{"type":"Feature","geometry":{"type":"Point","coordinates":[1.24612,45.82949]},"properties":{"nom":"Sacré Coeur","ag":["Réseau interurbain - Haute-Vienne (87)"],"lt":1,"dept":"87"}},{"type":"Feature","geometry":{"type":"Point","coordinates":[1.17508,46.00946]},"properties":{"nom":"Place de l'Eglise","ag":["Réseau interurbain - Haute-Vienne (87)"],"lt":1,"dept":"87"}},{"type":"Feature","geometry":{"type":"Point","coordinates":[0.98578,45.6591]},"properties":{"nom":"Rue des Cars","ag":["Réseau interurbain - Haute-Vienne (87)"],"lt":1,"dept":"87"}},{"type":"Feature","geometry":{"type":"Point","coordinates":[1.16646,46.21514]},"properties":{"nom":"MAGNAC-LAVAL - MAIRIE","ag":["Réseau interurbain - Haute-Vienne (87)"],"lt":1,"dept":"87"}},{"type":"Feature","geometry":{"type":"Point","coordinates":[0.95722,46.0419]},"properties":{"nom":"Bourg","ag":["Réseau interurbain - Haute-Vienne (87)"],"lt":1,"dept":"87"}},{"type":"Feature","geometry":{"type":"Point","coordinates":[1.04977,45.98734]},"properties":{"nom":"Etang de Cieux","ag":["Réseau interurbain - Haute-Vienne (87)"],"lt":1,"dept":"87"}},{"type":"Feature","geometry":{"type":"Point","coordinates":[1.19779,45.82129]},"properties":{"nom":"Teytejaud","ag":["Réseau interurbain - Haute-Vienne (87)"],"lt":1,"dept":"87"}},{"type":"Feature","geometry":{"type":"Point","coordinates":[0.80984,45.75899]},"properties":{"nom":"Bourg","ag":["Réseau interurbain - Haute-Vienne (87)"],"lt":1,"dept":"87"}},{"type":"Feature","geometry":{"type":"Point","coordinates":[1.15351,46.15852]},"properties":{"nom":"Bourg","ag":["Réseau interurbain - Haute-Vienne (87)"],"lt":1,"dept":"87"}},{"type":"Feature","geometry":{"type":"Point","coordinates":[1.08766,45.89911]},"properties":{"nom":"Veyrac Les 5 Routes","ag":["Réseau interurbain - Haute-Vienne (87)"],"lt":1,"dept":"87"}},{"type":"Feature","geometry":{"type":"Point","coordinates":[1.06148,46.12557]},"properties":{"nom":"Lycée Jean Giraudoux","ag":["Réseau interurbain - Haute-Vienne (87)"],"lt":1,"dept":"87"}},{"type":"Feature","geometry":{"type":"Point","coordinates":[1.37534,45.71743]},"properties":{"nom":"Bourg","ag":["Réseau interurbain - Haute-Vienne (87)"],"lt":1,"dept":"87"}},{"type":"Feature","geometry":{"type":"Point","coordinates":[1.05321,45.77]},"properties":{"nom":"Le Mas Vergnez","ag":["Réseau interurbain - Haute-Vienne (87)"],"lt":1,"dept":"87"}},{"type":"Feature","geometry":{"type":"Point","coordinates":[1.07877,46.21495]},"properties":{"nom":"Av. des Pyrénées","ag":["Réseau interurbain - Haute-Vienne (87)"],"lt":1,"dept":"87"}},{"type":"Feature","geometry":{"type":"Point","coordinates":[1.37674,45.71812]},"properties":{"nom":"Bourg Mairie","ag":["Réseau interurbain - Haute-Vienne (87)"],"lt":1,"dept":"87"}},{"type":"Feature","geometry":{"type":"Point","coordinates":[0.86666,45.72857]},"properties":{"nom":"Rue G.Guingouin","ag":["Réseau interurbain - Haute-Vienne (87)"],"lt":1,"dept":"87"}},{"type":"Feature","geometry":{"type":"Point","coordinates":[1.06107,46.12228]},"properties":{"nom":"LP Martin Nadaud","ag":["Réseau interurbain - Haute-Vienne (87)"],"lt":1,"dept":"87"}},{"type":"Feature","geometry":{"type":"Point","coordinates":[1.00034,45.77293]},"properties":{"nom":"La Grange","ag":["Réseau interurbain - Haute-Vienne (87)"],"lt":1,"dept":"87"}},{"type":"Feature","geometry":{"type":"Point","coordinates":[1.13069,45.79343]},"properties":{"nom":"Collège Parking","ag":["Réseau interurbain - Haute-Vienne (87)"],"lt":1,"dept":"87"}},{"type":"Feature","geometry":{"type":"Point","coordinates":[1.59893,45.71026]},"properties":{"nom":"Pont la Prairie","ag":["Réseau interurbain - Haute-Vienne (87)"],"lt":1,"dept":"87"}},{"type":"Feature","geometry":{"type":"Point","coordinates":[1.09217,45.70394]},"properties":{"nom":"Bourg","ag":["Réseau interurbain - Haute-Vienne (87)"],"lt":1,"dept":"87"}},{"type":"Feature","geometry":{"type":"Point","coordinates":[0.87707,45.76102]},"properties":{"nom":"Les Ollières","ag":["Réseau interurbain - Haute-Vienne (87)"],"lt":1,"dept":"87"}},{"type":"Feature","geometry":{"type":"Point","coordinates":[0.90914,45.78462]},"properties":{"nom":"La Nouzille","ag":["Réseau interurbain - Haute-Vienne (87)"],"lt":1,"dept":"87"}},{"type":"Feature","geometry":{"type":"Point","coordinates":[1.17736,45.84363]},"properties":{"nom":"Le Breuil","ag":["Réseau interurbain - Haute-Vienne (87)"],"lt":1,"dept":"87"}},{"type":"Feature","geometry":{"type":"Point","coordinates":[1.0701,45.67937]},"properties":{"nom":"Bourg","ag":["Réseau interurbain - Haute-Vienne (87)"],"lt":1,"dept":"87"}},{"type":"Feature","geometry":{"type":"Point","coordinates":[1.04643,45.82538]},"properties":{"nom":"Le Queyroix","ag":["Réseau interurbain - Haute-Vienne (87)"],"lt":1,"dept":"87"}},{"type":"Feature","geometry":{"type":"Point","coordinates":[0.93415,45.80315]},"properties":{"nom":"Bourg","ag":["Réseau interurbain - Haute-Vienne (87)"],"lt":1,"dept":"87"}},{"type":"Feature","geometry":{"type":"Point","coordinates":[1.1293,46.0327]},"properties":{"nom":"Le Châtain","ag":["Réseau interurbain - Haute-Vienne (87)"],"lt":1,"dept":"87"}},{"type":"Feature","geometry":{"type":"Point","coordinates":[1.28267,46.05024]},"properties":{"nom":"St Pard.- Fré/Camp","ag":["Réseau interurbain - Haute-Vienne (87)"],"lt":1,"dept":"87"}},{"type":"Feature","geometry":{"type":"Point","coordinates":[1.26836,46.01833]},"properties":{"nom":"Népoux","ag":["Réseau interurbain - Haute-Vienne (87)"],"lt":1,"dept":"87"}},{"type":"Feature","geometry":{"type":"Point","coordinates":[1.36095,45.69376]},"properties":{"nom":"Bourg C.Foire","ag":["Réseau interurbain - Haute-Vienne (87)"],"lt":1,"dept":"87"}},{"type":"Feature","geometry":{"type":"Point","coordinates":[1.36167,45.69256]},"properties":{"nom":"PIERRE-BUFFIÈRE - BOURG COLLÈGE*","ag":["Réseau interurbain - Haute-Vienne (87)"],"lt":1,"dept":"87"}},{"type":"Feature","geometry":{"type":"Point","coordinates":[1.05147,46.12043]},"properties":{"nom":"Avenue Foch","ag":["Réseau interurbain - Haute-Vienne (87)"],"lt":1,"dept":"87"}},{"type":"Feature","geometry":{"type":"Point","coordinates":[1.34017,46.01907]},"properties":{"nom":"Silord","ag":["Réseau interurbain - Haute-Vienne (87)"],"lt":1,"dept":"87"}},{"type":"Feature","geometry":{"type":"Point","coordinates":[1.19992,46.07964]},"properties":{"nom":"Roussac - Bourg","ag":["Réseau interurbain - Haute-Vienne (87)"],"lt":1,"dept":"87"}},{"type":"Feature","geometry":{"type":"Point","coordinates":[0.91913,45.71754]},"properties":{"nom":"Le Poteau","ag":["Réseau interurbain - Haute-Vienne (87)"],"lt":1,"dept":"87"}},{"type":"Feature","geometry":{"type":"Point","coordinates":[1.27635,46.1339]},"properties":{"nom":"Gare routière","ag":["Réseau interurbain - Haute-Vienne (87)"],"lt":1,"dept":"87"}},{"type":"Feature","geometry":{"type":"Point","coordinates":[1.31803,45.77799]},"properties":{"nom":"Les 4 Vents","ag":["Réseau interurbain - Haute-Vienne (87)"],"lt":1,"dept":"87"}},{"type":"Feature","geometry":{"type":"Point","coordinates":[1.86237,45.79264]},"properties":{"nom":"Ile Vassivière - Parking","ag":["Réseau interurbain - Haute-Vienne (87)"],"lt":1,"dept":"87"}},{"type":"Feature","geometry":{"type":"Point","coordinates":[1.58882,45.70549]},"properties":{"nom":"Julika","ag":["Réseau interurbain - Haute-Vienne (87)"],"lt":1,"dept":"87"}},{"type":"Feature","geometry":{"type":"Point","coordinates":[1.32268,46.13506]},"properties":{"nom":"Puymailhac","ag":["Réseau interurbain - Haute-Vienne (87)"],"lt":1,"dept":"87"}},{"type":"Feature","geometry":{"type":"Point","coordinates":[1.11438,45.76315]},"properties":{"nom":"Le Poueix","ag":["Réseau interurbain - Haute-Vienne (87)"],"lt":1,"dept":"87"}},{"type":"Feature","geometry":{"type":"Point","coordinates":[0.91841,45.8983]},"properties":{"nom":"carrefour d l'Europe","ag":["Réseau interurbain - Haute-Vienne (87)"],"lt":1,"dept":"87"}},{"type":"Feature","geometry":{"type":"Point","coordinates":[1.31352,45.81557]},"properties":{"nom":"Crézin","ag":["Réseau interurbain - Haute-Vienne (87)"],"lt":1,"dept":"87"}},{"type":"Feature","geometry":{"type":"Point","coordinates":[1.46842,45.73514]},"properties":{"nom":"Leycuras","ag":["Réseau interurbain - Haute-Vienne (87)"],"lt":1,"dept":"87"}},{"type":"Feature","geometry":{"type":"Point","coordinates":[1.38678,45.78754]},"properties":{"nom":"La Châtaigneraie","ag":["Réseau interurbain - Haute-Vienne (87)"],"lt":1,"dept":"87"}},{"type":"Feature","geometry":{"type":"Point","coordinates":[1.32425,45.7358]},"properties":{"nom":"La Planche","ag":["Réseau interurbain - Haute-Vienne (87)"],"lt":1,"dept":"87"}},{"type":"Feature","geometry":{"type":"Point","coordinates":[1.33348,45.76307]},"properties":{"nom":"La Plaine","ag":["Réseau interurbain - Haute-Vienne (87)"],"lt":1,"dept":"87"}},{"type":"Feature","geometry":{"type":"Point","coordinates":[1.34762,46.04176]},"properties":{"nom":"Bas","ag":["Réseau interurbain - Haute-Vienne (87)"],"lt":1,"dept":"87"}},{"type":"Feature","geometry":{"type":"Point","coordinates":[1.35701,45.80713]},"properties":{"nom":"Les Chabannes","ag":["Réseau interurbain - Haute-Vienne (87)"],"lt":1,"dept":"87"}},{"type":"Feature","geometry":{"type":"Point","coordinates":[1.39324,45.77624]},"properties":{"nom":"Eyjeaux Bourg","ag":["Réseau interurbain - Haute-Vienne (87)"],"lt":1,"dept":"87"}},{"type":"Feature","geometry":{"type":"Point","coordinates":[1.33039,45.81286]},"properties":{"nom":"La Croix Rouge","ag":["Réseau interurbain - Haute-Vienne (87)"],"lt":1,"dept":"87"}},{"type":"Feature","geometry":{"type":"Point","coordinates":[1.32027,45.81401]},"properties":{"nom":"La Ceriseraie","ag":["Réseau interurbain - Haute-Vienne (87)"],"lt":1,"dept":"87"}},{"type":"Feature","geometry":{"type":"Point","coordinates":[1.05159,45.81733]},"properties":{"nom":"Le Palais","ag":["Réseau interurbain - Haute-Vienne (87)"],"lt":1,"dept":"87"}},{"type":"Feature","geometry":{"type":"Point","coordinates":[1.09938,45.81672]},"properties":{"nom":"Pl. de la Poste","ag":["Réseau interurbain - Haute-Vienne (87)"],"lt":1,"dept":"87"}},{"type":"Feature","geometry":{"type":"Point","coordinates":[1.10424,45.81119]},"properties":{"nom":"Lot les Mûres","ag":["Réseau interurbain - Haute-Vienne (87)"],"lt":1,"dept":"87"}},{"type":"Feature","geometry":{"type":"Point","coordinates":[1.05292,45.81185]},"properties":{"nom":"Les Lattes","ag":["Réseau interurbain - Haute-Vienne (87)"],"lt":1,"dept":"87"}},{"type":"Feature","geometry":{"type":"Point","coordinates":[1.48207,45.83204]},"properties":{"nom":"St Léonard Gare","ag":["Réseau interurbain - Haute-Vienne (87)"],"lt":1,"dept":"87"}},{"type":"Feature","geometry":{"type":"Point","coordinates":[0.9703,45.81069]},"properties":{"nom":"Les chouettes","ag":["Réseau interurbain - Haute-Vienne (87)"],"lt":1,"dept":"87"}},{"type":"Feature","geometry":{"type":"Point","coordinates":[1.43227,45.74335]},"properties":{"nom":"Le Petit Chaleix","ag":["Réseau interurbain - Haute-Vienne (87)"],"lt":1,"dept":"87"}},{"type":"Feature","geometry":{"type":"Point","coordinates":[1.4546,45.73547]},"properties":{"nom":"La violette","ag":["Réseau interurbain - Haute-Vienne (87)"],"lt":1,"dept":"87"}},{"type":"Feature","geometry":{"type":"Point","coordinates":[0.85326,45.74809]},"properties":{"nom":"Manvin","ag":["Réseau interurbain - Haute-Vienne (87)"],"lt":1,"dept":"87"}},{"type":"Feature","geometry":{"type":"Point","coordinates":[1.60367,45.71269]},"properties":{"nom":"Place Jean Monnet","ag":["Réseau interurbain - Haute-Vienne (87)"],"lt":1,"dept":"87"}},{"type":"Feature","geometry":{"type":"Point","coordinates":[0.84891,45.76207]},"properties":{"nom":"La Treille","ag":["Réseau interurbain - Haute-Vienne (87)"],"lt":1,"dept":"87"}},{"type":"Feature","geometry":{"type":"Point","coordinates":[1.10319,45.87648]},"properties":{"nom":"Beauvalet","ag":["Réseau interurbain - Haute-Vienne (87)"],"lt":1,"dept":"87"}},{"type":"Feature","geometry":{"type":"Point","coordinates":[1.20336,45.77944]},"properties":{"nom":"Rue de la Gare","ag":["Réseau interurbain - Haute-Vienne (87)"],"lt":1,"dept":"87"}},{"type":"Feature","geometry":{"type":"Point","coordinates":[1.13456,45.79072]},"properties":{"nom":"Cité Turgot","ag":["Réseau interurbain - Haute-Vienne (87)"],"lt":1,"dept":"87"}},{"type":"Feature","geometry":{"type":"Point","coordinates":[0.98108,45.65538]},"properties":{"nom":"Le Belvédère","ag":["Réseau interurbain - Haute-Vienne (87)"],"lt":1,"dept":"87"}},{"type":"Feature","geometry":{"type":"Point","coordinates":[0.97993,45.65092]},"properties":{"nom":"CHÂLUS - PLACE S. ALLENDE","ag":["Réseau interurbain - Haute-Vienne (87)"],"lt":1,"dept":"87"}},{"type":"Feature","geometry":{"type":"Point","coordinates":[1.12649,45.79489]},"properties":{"nom":"Chamborêt","ag":["Réseau interurbain - Haute-Vienne (87)"],"lt":1,"dept":"87"}},{"type":"Feature","geometry":{"type":"Point","coordinates":[1.44357,45.91916]},"properties":{"nom":"Bourg","ag":["Réseau interurbain - Haute-Vienne (87)"],"lt":1,"dept":"87"}},{"type":"Feature","geometry":{"type":"Point","coordinates":[1.04838,45.83981]},"properties":{"nom":"Erin","ag":["Réseau interurbain - Haute-Vienne (87)"],"lt":1,"dept":"87"}},{"type":"Feature","geometry":{"type":"Point","coordinates":[1.15583,45.80525]},"properties":{"nom":"Beaubonnat","ag":["Réseau interurbain - Haute-Vienne (87)"],"lt":1,"dept":"87"}},{"type":"Feature","geometry":{"type":"Point","coordinates":[1.16641,45.76444]},"properties":{"nom":"Maison Familiale","ag":["Réseau interurbain - Haute-Vienne (87)"],"lt":1,"dept":"87"}},{"type":"Feature","geometry":{"type":"Point","coordinates":[1.20207,45.76707]},"properties":{"nom":"Impasse du Boulou","ag":["Réseau interurbain - Haute-Vienne (87)"],"lt":1,"dept":"87"}},{"type":"Feature","geometry":{"type":"Point","coordinates":[1.4818,45.91615]},"properties":{"nom":"Le Bouquet","ag":["Réseau interurbain - Haute-Vienne (87)"],"lt":1,"dept":"87"}},{"type":"Feature","geometry":{"type":"Point","coordinates":[1.34541,46.03361]},"properties":{"nom":"Place André Duffraisse","ag":["Réseau interurbain - Haute-Vienne (87)"],"lt":1,"dept":"87"}},{"type":"Feature","geometry":{"type":"Point","coordinates":[1.13969,45.76172]},"properties":{"nom":"Le Breuil","ag":["Réseau interurbain - Haute-Vienne (87)"],"lt":1,"dept":"87"}},{"type":"Feature","geometry":{"type":"Point","coordinates":[1.16746,45.76637]},"properties":{"nom":"Bourg","ag":["Réseau interurbain - Haute-Vienne (87)"],"lt":1,"dept":"87"}},{"type":"Feature","geometry":{"type":"Point","coordinates":[1.17887,45.69164]},"properties":{"nom":"Gare","ag":["Réseau interurbain - Haute-Vienne (87)"],"lt":1,"dept":"87"}},{"type":"Feature","geometry":{"type":"Point","coordinates":[0.69116,45.71115]},"properties":{"nom":"Bourg","ag":["Réseau interurbain - Haute-Vienne (87)"],"lt":1,"dept":"87"}},{"type":"Feature","geometry":{"type":"Point","coordinates":[0.99746,45.90247]},"properties":{"nom":"La Malaise","ag":["Réseau interurbain - Haute-Vienne (87)"],"lt":1,"dept":"87"}},{"type":"Feature","geometry":{"type":"Point","coordinates":[1.49945,45.70966]},"properties":{"nom":"Etang de Sivergnat","ag":["Réseau interurbain - Haute-Vienne (87)"],"lt":1,"dept":"87"}},{"type":"Feature","geometry":{"type":"Point","coordinates":[1.11464,45.87012]},"properties":{"nom":"La Bouteille","ag":["Réseau interurbain - Haute-Vienne (87)"],"lt":1,"dept":"87"}},{"type":"Feature","geometry":{"type":"Point","coordinates":[1.21375,45.71953]},"properties":{"nom":"JOURGNAC - PLACE DE LA MAIRIE","ag":["Réseau interurbain - Haute-Vienne (87)"],"lt":1,"dept":"87"}},{"type":"Feature","geometry":{"type":"Point","coordinates":[1.20007,45.50628]},"properties":{"nom":"SAINT-YRIEIX-LA-PERCHE - LYCÉE COLL. DARNET*","ag":["Réseau interurbain - Haute-Vienne (87)"],"lt":1,"dept":"87"}},{"type":"Feature","geometry":{"type":"Point","coordinates":[1.25353,45.83129]},"properties":{"nom":"Place W. Churchill E","ag":["Réseau interurbain - Haute-Vienne (87)"],"lt":1,"dept":"87"}},{"type":"Feature","geometry":{"type":"Point","coordinates":[1.20483,45.76311]},"properties":{"nom":"Lot. Plein Ciel","ag":["Réseau interurbain - Haute-Vienne (87)"],"lt":1,"dept":"87"}},{"type":"Feature","geometry":{"type":"Point","coordinates":[1.19449,45.72199]},"properties":{"nom":"Royer","ag":["Réseau interurbain - Haute-Vienne (87)"],"lt":1,"dept":"87"}},{"type":"Feature","geometry":{"type":"Point","coordinates":[0.86075,45.71368]},"properties":{"nom":"La Monnerie","ag":["Réseau interurbain - Haute-Vienne (87)"],"lt":1,"dept":"87"}},{"type":"Feature","geometry":{"type":"Point","coordinates":[1.20568,45.7713]},"properties":{"nom":"Lot. Panorama","ag":["Réseau interurbain - Haute-Vienne (87)"],"lt":1,"dept":"87"}},{"type":"Feature","geometry":{"type":"Point","coordinates":[0.85201,45.70512]},"properties":{"nom":"Place de la Poste","ag":["Réseau interurbain - Haute-Vienne (87)"],"lt":1,"dept":"87"}},{"type":"Feature","geometry":{"type":"Point","coordinates":[1.21112,45.76069]},"properties":{"nom":"Rue du Boulou","ag":["Réseau interurbain - Haute-Vienne (87)"],"lt":1,"dept":"87"}},{"type":"Feature","geometry":{"type":"Point","coordinates":[1.01811,46.04352]},"properties":{"nom":"Bourg","ag":["Réseau interurbain - Haute-Vienne (87)"],"lt":1,"dept":"87"}},{"type":"Feature","geometry":{"type":"Point","coordinates":[1.3768,45.84559]},"properties":{"nom":"Les Chabannes","ag":["Réseau interurbain - Haute-Vienne (87)"],"lt":1,"dept":"87"}},{"type":"Feature","geometry":{"type":"Point","coordinates":[0.9522,45.69342]},"properties":{"nom":"Route de Champsac","ag":["Réseau interurbain - Haute-Vienne (87)"],"lt":1,"dept":"87"}},{"type":"Feature","geometry":{"type":"Point","coordinates":[1.02545,45.72796]},"properties":{"nom":"Le Bos Vieux","ag":["Réseau interurbain - Haute-Vienne (87)"],"lt":1,"dept":"87"}},{"type":"Feature","geometry":{"type":"Point","coordinates":[1.01572,45.70959]},"properties":{"nom":"Chez Eymard","ag":["Réseau interurbain - Haute-Vienne (87)"],"lt":1,"dept":"87"}},{"type":"Feature","geometry":{"type":"Point","coordinates":[1.04174,45.74279]},"properties":{"nom":"Crezeunet","ag":["Réseau interurbain - Haute-Vienne (87)"],"lt":1,"dept":"87"}},{"type":"Feature","geometry":{"type":"Point","coordinates":[0.83257,45.83286]},"properties":{"nom":"ROCHECHOUART - LA GROSILLE","ag":["Réseau interurbain - Haute-Vienne (87)"],"lt":1,"dept":"87"}},{"type":"Feature","geometry":{"type":"Point","coordinates":[1.05299,45.8928]},"properties":{"nom":"La Barre","ag":["Réseau interurbain - Haute-Vienne (87)"],"lt":1,"dept":"87"}},{"type":"Feature","geometry":{"type":"Point","coordinates":[1.00187,45.6768]},"properties":{"nom":"Abri RN21","ag":["Réseau interurbain - Haute-Vienne (87)"],"lt":1,"dept":"87"}},{"type":"Feature","geometry":{"type":"Point","coordinates":[1.04552,45.97043]},"properties":{"nom":"Le petit Charrat","ag":["Réseau interurbain - Haute-Vienne (87)"],"lt":1,"dept":"87"}},{"type":"Feature","geometry":{"type":"Point","coordinates":[1.13226,45.86135]},"properties":{"nom":"La Côte","ag":["Réseau interurbain - Haute-Vienne (87)"],"lt":1,"dept":"87"}},{"type":"Feature","geometry":{"type":"Point","coordinates":[1.61511,45.7245]},"properties":{"nom":"Bourg","ag":["Réseau interurbain - Haute-Vienne (87)"],"lt":1,"dept":"87"}},{"type":"Feature","geometry":{"type":"Point","coordinates":[0.98483,45.65965]},"properties":{"nom":"Avenue Jean Jaurès","ag":["Réseau interurbain - Haute-Vienne (87)"],"lt":1,"dept":"87"}},{"type":"Feature","geometry":{"type":"Point","coordinates":[0.92369,46.06579]},"properties":{"nom":"Plaisance","ag":["Réseau interurbain - Haute-Vienne (87)"],"lt":1,"dept":"87"}},{"type":"Feature","geometry":{"type":"Point","coordinates":[0.90994,46.1071]},"properties":{"nom":"VAL D'ISSOIRE - PL DE LA RÉPUBLIQUE","ag":["Réseau interurbain - Haute-Vienne (87)"],"lt":1,"dept":"87"}},{"type":"Feature","geometry":{"type":"Point","coordinates":[0.98002,45.65089]},"properties":{"nom":"Collège","ag":["Réseau interurbain - Haute-Vienne (87)"],"lt":1,"dept":"87"}},{"type":"Feature","geometry":{"type":"Point","coordinates":[1.10499,46.06945]},"properties":{"nom":"La Poste","ag":["Réseau interurbain - Haute-Vienne (87)"],"lt":1,"dept":"87"}},{"type":"Feature","geometry":{"type":"Point","coordinates":[1.27814,46.01391]},"properties":{"nom":"Camping Municipal","ag":["Réseau interurbain - Haute-Vienne (87)"],"lt":1,"dept":"87"}},{"type":"Feature","geometry":{"type":"Point","coordinates":[0.96181,45.90577]},"properties":{"nom":"Les Séguines","ag":["Réseau interurbain - Haute-Vienne (87)"],"lt":1,"dept":"87"}},{"type":"Feature","geometry":{"type":"Point","coordinates":[1.1411,46.00459]},"properties":{"nom":"Le Betoux / RN147","ag":["Réseau interurbain - Haute-Vienne (87)"],"lt":1,"dept":"87"}},{"type":"Feature","geometry":{"type":"Point","coordinates":[0.91749,45.62501]},"properties":{"nom":"DOURNAZAC - BOURG","ag":["Réseau interurbain - Haute-Vienne (87)"],"lt":1,"dept":"87"}},{"type":"Feature","geometry":{"type":"Point","coordinates":[1.41295,45.76584]},"properties":{"nom":"Arfeuille","ag":["Réseau interurbain - Haute-Vienne (87)"],"lt":1,"dept":"87"}},{"type":"Feature","geometry":{"type":"Point","coordinates":[1.25192,45.96985]},"properties":{"nom":"Le Malagnac","ag":["Réseau interurbain - Haute-Vienne (87)"],"lt":1,"dept":"87"}},{"type":"Feature","geometry":{"type":"Point","coordinates":[0.89936,45.88181]},"properties":{"nom":"Gare","ag":["Réseau interurbain - Haute-Vienne (87)"],"lt":1,"dept":"87"}},{"type":"Feature","geometry":{"type":"Point","coordinates":[1.50885,45.70553]},"properties":{"nom":"Ribières Gagnoux","ag":["Réseau interurbain - Haute-Vienne (87)"],"lt":1,"dept":"87"}},{"type":"Feature","geometry":{"type":"Point","coordinates":[1.47583,45.70745]},"properties":{"nom":"Bourg","ag":["Réseau interurbain - Haute-Vienne (87)"],"lt":1,"dept":"87"}},{"type":"Feature","geometry":{"type":"Point","coordinates":[1.03285,45.7352]},"properties":{"nom":"Le Gatinaud","ag":["Réseau interurbain - Haute-Vienne (87)"],"lt":1,"dept":"87"}},{"type":"Feature","geometry":{"type":"Point","coordinates":[0.90416,45.8905]},"properties":{"nom":"Champ de Foire","ag":["Réseau interurbain - Haute-Vienne (87)"],"lt":1,"dept":"87"}},{"type":"Feature","geometry":{"type":"Point","coordinates":[1.43158,45.75081]},"properties":{"nom":"Le Bourg","ag":["Réseau interurbain - Haute-Vienne (87)"],"lt":1,"dept":"87"}},{"type":"Feature","geometry":{"type":"Point","coordinates":[1.01639,45.65783]},"properties":{"nom":"Le Mazaubert","ag":["Réseau interurbain - Haute-Vienne (87)"],"lt":1,"dept":"87"}},{"type":"Feature","geometry":{"type":"Point","coordinates":[1.25215,46.04458]},"properties":{"nom":"St Symph.-Crumaud","ag":["Réseau interurbain - Haute-Vienne (87)"],"lt":1,"dept":"87"}},{"type":"Feature","geometry":{"type":"Point","coordinates":[0.91311,45.89563]},"properties":{"nom":"Av. d'Oradour/Glane","ag":["Réseau interurbain - Haute-Vienne (87)"],"lt":1,"dept":"87"}},{"type":"Feature","geometry":{"type":"Point","coordinates":[1.11914,46.04911]},"properties":{"nom":"La Betoulle","ag":["Réseau interurbain - Haute-Vienne (87)"],"lt":1,"dept":"87"}},{"type":"Feature","geometry":{"type":"Point","coordinates":[1.5349,45.69986]},"properties":{"nom":"Champ de Foire","ag":["Réseau interurbain - Haute-Vienne (87)"],"lt":1,"dept":"87"}},{"type":"Feature","geometry":{"type":"Point","coordinates":[0.82461,45.64278]},"properties":{"nom":"La Nadalie","ag":["Réseau interurbain - Haute-Vienne (87)"],"lt":1,"dept":"87"}},{"type":"Feature","geometry":{"type":"Point","coordinates":[1.27477,45.99233]},"properties":{"nom":"Bourg","ag":["Réseau interurbain - Haute-Vienne (87)"],"lt":1,"dept":"87"}},{"type":"Feature","geometry":{"type":"Point","coordinates":[1.42825,45.75389]},"properties":{"nom":"La Croix Verte","ag":["Réseau interurbain - Haute-Vienne (87)"],"lt":1,"dept":"87"}},{"type":"Feature","geometry":{"type":"Point","coordinates":[1.11181,45.747]},"properties":{"nom":"Les 4 Routes","ag":["Réseau interurbain - Haute-Vienne (87)"],"lt":1,"dept":"87"}},{"type":"Feature","geometry":{"type":"Point","coordinates":[1.27825,46.01979]},"properties":{"nom":"Montimbert","ag":["Réseau interurbain - Haute-Vienne (87)"],"lt":1,"dept":"87"}},{"type":"Feature","geometry":{"type":"Point","coordinates":[0.89866,45.88647]},"properties":{"nom":"Place la côte","ag":["Réseau interurbain - Haute-Vienne (87)"],"lt":1,"dept":"87"}},{"type":"Feature","geometry":{"type":"Point","coordinates":[1.25609,46.01899]},"properties":{"nom":"Le Puymenier","ag":["Réseau interurbain - Haute-Vienne (87)"],"lt":1,"dept":"87"}},{"type":"Feature","geometry":{"type":"Point","coordinates":[0.89739,45.89195]},"properties":{"nom":"Bellevue de Glane","ag":["Réseau interurbain - Haute-Vienne (87)"],"lt":1,"dept":"87"}},{"type":"Feature","geometry":{"type":"Point","coordinates":[0.79731,45.62708]},"properties":{"nom":"Bourg","ag":["Réseau interurbain - Haute-Vienne (87)"],"lt":1,"dept":"87"}},{"type":"Feature","geometry":{"type":"Point","coordinates":[0.84796,45.64668]},"properties":{"nom":"Bourg","ag":["Réseau interurbain - Haute-Vienne (87)"],"lt":1,"dept":"87"}},{"type":"Feature","geometry":{"type":"Point","coordinates":[1.11851,45.74585]},"properties":{"nom":"Bourg","ag":["Réseau interurbain - Haute-Vienne (87)"],"lt":1,"dept":"87"}},{"type":"Feature","geometry":{"type":"Point","coordinates":[0.86358,45.61712]},"properties":{"nom":"Les 3 cerisiers","ag":["Réseau interurbain - Haute-Vienne (87)"],"lt":1,"dept":"87"}},{"type":"Feature","geometry":{"type":"Point","coordinates":[0.82703,45.60978]},"properties":{"nom":"Bourg","ag":["Réseau interurbain - Haute-Vienne (87)"],"lt":1,"dept":"87"}},{"type":"Feature","geometry":{"type":"Point","coordinates":[1.8435,45.80591]},"properties":{"nom":"Auphelle bas","ag":["Réseau interurbain - Haute-Vienne (87)"],"lt":1,"dept":"87"}},{"type":"Feature","geometry":{"type":"Point","coordinates":[1.24261,45.87997]},"properties":{"nom":"Collège Genevoix","ag":["Réseau interurbain - Haute-Vienne (87)"],"lt":1,"dept":"87"}},{"type":"Feature","geometry":{"type":"Point","coordinates":[1.5694,45.76234]},"properties":{"nom":"Bourg","ag":["Réseau interurbain - Haute-Vienne (87)"],"lt":1,"dept":"87"}},{"type":"Feature","geometry":{"type":"Point","coordinates":[1.4242,45.79606]},"properties":{"nom":"ALLOIS CARF RD","ag":["Réseau interurbain - Haute-Vienne (87)"],"lt":1,"dept":"87"}},{"type":"Feature","geometry":{"type":"Point","coordinates":[0.80328,45.70969]},"properties":{"nom":"La Forge","ag":["Réseau interurbain - Haute-Vienne (87)"],"lt":1,"dept":"87"}},{"type":"Feature","geometry":{"type":"Point","coordinates":[1.36182,46.08669]},"properties":{"nom":"Le Mazataud","ag":["Réseau interurbain - Haute-Vienne (87)"],"lt":1,"dept":"87"}},{"type":"Feature","geometry":{"type":"Point","coordinates":[0.75826,45.70746]},"properties":{"nom":"La Poste","ag":["Réseau interurbain - Haute-Vienne (87)"],"lt":1,"dept":"87"}},{"type":"Feature","geometry":{"type":"Point","coordinates":[1.03281,45.93287]},"properties":{"nom":"ORADOUR-SUR-GLANE - CHAMP DE FOIRE","ag":["Réseau interurbain - Haute-Vienne (87)"],"lt":1,"dept":"87"}},{"type":"Feature","geometry":{"type":"Point","coordinates":[1.77302,45.81404]},"properties":{"nom":"Point Information","ag":["Réseau interurbain - Haute-Vienne (87)"],"lt":1,"dept":"87"}},{"type":"Feature","geometry":{"type":"Point","coordinates":[1.08359,45.77114]},"properties":{"nom":"Les Grands Bos","ag":["Réseau interurbain - Haute-Vienne (87)"],"lt":1,"dept":"87"}},{"type":"Feature","geometry":{"type":"Point","coordinates":[1.0307,45.77384]},"properties":{"nom":"Villeneuve","ag":["Réseau interurbain - Haute-Vienne (87)"],"lt":1,"dept":"87"}},{"type":"Feature","geometry":{"type":"Point","coordinates":[1.33813,46.01299]},"properties":{"nom":"Le Ritor","ag":["Réseau interurbain - Haute-Vienne (87)"],"lt":1,"dept":"87"}},{"type":"Feature","geometry":{"type":"Point","coordinates":[1.09512,45.7779]},"properties":{"nom":"Les Betoulles","ag":["Réseau interurbain - Haute-Vienne (87)"],"lt":1,"dept":"87"}},{"type":"Feature","geometry":{"type":"Point","coordinates":[1.16668,45.92725]},"properties":{"nom":"La Filature","ag":["Réseau interurbain - Haute-Vienne (87)"],"lt":1,"dept":"87"}},{"type":"Feature","geometry":{"type":"Point","coordinates":[1.0794,45.76605]},"properties":{"nom":"Bourg","ag":["Réseau interurbain - Haute-Vienne (87)"],"lt":1,"dept":"87"}},{"type":"Feature","geometry":{"type":"Point","coordinates":[1.16502,45.9303]},"properties":{"nom":"CARF LOT. L'EMETTEUR","ag":["Réseau interurbain - Haute-Vienne (87)"],"lt":1,"dept":"87"}},{"type":"Feature","geometry":{"type":"Point","coordinates":[1.20248,45.50921]},"properties":{"nom":"Place de la Nation","ag":["Réseau interurbain - Haute-Vienne (87)"],"lt":1,"dept":"87"}},{"type":"Feature","geometry":{"type":"Point","coordinates":[1.25417,45.83122]},"properties":{"nom":"PLACE WINSTON CHURCHILL","ag":["Réseau interurbain - Haute-Vienne (87)","Réseau interurbain - Corrèze (19)"],"lt":1,"dept":"87"}},{"type":"Feature","geometry":{"type":"Point","coordinates":[1.03612,45.62659]},"properties":{"nom":"Bourg","ag":["Réseau interurbain - Haute-Vienne (87)"],"lt":1,"dept":"87"}},{"type":"Feature","geometry":{"type":"Point","coordinates":[1.11279,45.58267]},"properties":{"nom":"LADIGNAC-LE-LONG - MAIRIE*","ag":["Réseau interurbain - Haute-Vienne (87)"],"lt":1,"dept":"87"}},{"type":"Feature","geometry":{"type":"Point","coordinates":[1.2491,45.81994]},"properties":{"nom":"Bellevue","ag":["Réseau interurbain - Haute-Vienne (87)","Réseau urbain TCL"],"lt":1,"dept":"87"}},{"type":"Feature","geometry":{"type":"Point","coordinates":[1.20365,45.51286]},"properties":{"nom":"LR ST YRIEIX LA P.-Hôtel de ville (2)","ag":["Réseau interurbain - Haute-Vienne (87)","Réseau interurbain - Dordogne (24)"],"lt":1,"dept":"87"}},{"type":"Feature","geometry":{"type":"Point","coordinates":[1.03406,45.89662]},"properties":{"nom":"Le Loubier","ag":["Réseau interurbain - Haute-Vienne (87)"],"lt":1,"dept":"87"}},{"type":"Feature","geometry":{"type":"Point","coordinates":[0.82177,45.82406]},"properties":{"nom":"Rue Maurice Thorez","ag":["Réseau interurbain - Haute-Vienne (87)"],"lt":1,"dept":"87"}},{"type":"Feature","geometry":{"type":"Point","coordinates":[1.15991,45.97769]},"properties":{"nom":"Conore","ag":["Réseau interurbain - Haute-Vienne (87)"],"lt":1,"dept":"87"}},{"type":"Feature","geometry":{"type":"Point","coordinates":[1.32124,45.97656]},"properties":{"nom":"Népoulas","ag":["Réseau interurbain - Haute-Vienne (87)"],"lt":1,"dept":"87"}},{"type":"Feature","geometry":{"type":"Point","coordinates":[0.84081,45.83706]},"properties":{"nom":"Croix de Labrousse","ag":["Réseau interurbain - Haute-Vienne (87)"],"lt":1,"dept":"87"}},{"type":"Feature","geometry":{"type":"Point","coordinates":[0.85387,45.8465]},"properties":{"nom":"Les Plats","ag":["Réseau interurbain - Haute-Vienne (87)"],"lt":1,"dept":"87"}},{"type":"Feature","geometry":{"type":"Point","coordinates":[1.13348,45.61508]},"properties":{"nom":"Pommet","ag":["Réseau interurbain - Haute-Vienne (87)"],"lt":1,"dept":"87"}},{"type":"Feature","geometry":{"type":"Point","coordinates":[1.25411,45.83107]},"properties":{"nom":"Place W. Churchill A","ag":["Réseau interurbain - Haute-Vienne (87)"],"lt":1,"dept":"87"}},{"type":"Feature","geometry":{"type":"Point","coordinates":[0.90322,45.88482]},"properties":{"nom":"Collège P. Langevin","ag":["Réseau interurbain - Haute-Vienne (87)"],"lt":1,"dept":"87"}},{"type":"Feature","geometry":{"type":"Point","coordinates":[1.15627,45.64521]},"properties":{"nom":"Les Places","ag":["Réseau interurbain - Haute-Vienne (87)"],"lt":1,"dept":"87"}},{"type":"Feature","geometry":{"type":"Point","coordinates":[1.13355,45.61515]},"properties":{"nom":"La Grénerie","ag":["Réseau interurbain - Haute-Vienne (87)"],"lt":1,"dept":"87"}},{"type":"Feature","geometry":{"type":"Point","coordinates":[0.9072,45.72197]},"properties":{"nom":"Chez Fiateau","ag":["Réseau interurbain - Haute-Vienne (87)"],"lt":1,"dept":"87"}},{"type":"Feature","geometry":{"type":"Point","coordinates":[1.04424,45.99238]},"properties":{"nom":"Bourg","ag":["Réseau interurbain - Haute-Vienne (87)"],"lt":1,"dept":"87"}},{"type":"Feature","geometry":{"type":"Point","coordinates":[0.91992,46.05981]},"properties":{"nom":"Place Justin Labuze","ag":["Réseau interurbain - Haute-Vienne (87)"],"lt":1,"dept":"87"}},{"type":"Feature","geometry":{"type":"Point","coordinates":[1.17931,45.77748]},"properties":{"nom":"La Sudrie","ag":["Réseau interurbain - Haute-Vienne (87)"],"lt":1,"dept":"87"}},{"type":"Feature","geometry":{"type":"Point","coordinates":[1.28969,45.78661]},"properties":{"nom":"Les Pradilles","ag":["Réseau interurbain - Haute-Vienne (87)"],"lt":1,"dept":"87"}},{"type":"Feature","geometry":{"type":"Point","coordinates":[1.3572,46.04488]},"properties":{"nom":"Charensannes","ag":["Réseau interurbain - Haute-Vienne (87)"],"lt":1,"dept":"87"}},{"type":"Feature","geometry":{"type":"Point","coordinates":[1.27984,46.05826]},"properties":{"nom":"St Pard.- Bourg","ag":["Réseau interurbain - Haute-Vienne (87)"],"lt":1,"dept":"87"}},{"type":"Feature","geometry":{"type":"Point","coordinates":[1.28923,45.75084]},"properties":{"nom":"Le Vigen Bourg","ag":["Réseau interurbain - Haute-Vienne (87)"],"lt":1,"dept":"87"}},{"type":"Feature","geometry":{"type":"Point","coordinates":[1.34477,46.03681]},"properties":{"nom":"Mairie","ag":["Réseau interurbain - Haute-Vienne (87)"],"lt":1,"dept":"87"}},{"type":"Feature","geometry":{"type":"Point","coordinates":[1.36062,46.07776]},"properties":{"nom":"Avent","ag":["Réseau interurbain - Haute-Vienne (87)"],"lt":1,"dept":"87"}},{"type":"Feature","geometry":{"type":"Point","coordinates":[1.36041,46.05637]},"properties":{"nom":"Chanteloube","ag":["Réseau interurbain - Haute-Vienne (87)"],"lt":1,"dept":"87"}},{"type":"Feature","geometry":{"type":"Point","coordinates":[1.15854,45.85201]},"properties":{"nom":"Le Breuil","ag":["Réseau interurbain - Haute-Vienne (87)","Réseau urbain TCL"],"lt":1,"dept":"87"}},{"type":"Feature","geometry":{"type":"Point","coordinates":[1.56666,45.76365]},"properties":{"nom":"Bourg","ag":["Réseau interurbain - Haute-Vienne (87)"],"lt":1,"dept":"87"}},{"type":"Feature","geometry":{"type":"Point","coordinates":[1.74123,45.73971]},"properties":{"nom":"Gare SNCF","ag":["Réseau interurbain - Haute-Vienne (87)"],"lt":1,"dept":"87"}},{"type":"Feature","geometry":{"type":"Point","coordinates":[1.06567,45.90663]},"properties":{"nom":"La Plaine","ag":["Réseau interurbain - Haute-Vienne (87)"],"lt":1,"dept":"87"}},{"type":"Feature","geometry":{"type":"Point","coordinates":[1.37272,46.12981]},"properties":{"nom":"La Croix du Breuil","ag":["Réseau interurbain - Haute-Vienne (87)"],"lt":1,"dept":"87"}},{"type":"Feature","geometry":{"type":"Point","coordinates":[1.36611,46.14766]},"properties":{"nom":"Morterolles","ag":["Réseau interurbain - Haute-Vienne (87)"],"lt":1,"dept":"87"}},{"type":"Feature","geometry":{"type":"Point","coordinates":[1.36189,46.1028]},"properties":{"nom":"Route de Sagnat","ag":["Réseau interurbain - Haute-Vienne (87)"],"lt":1,"dept":"87"}},{"type":"Feature","geometry":{"type":"Point","coordinates":[1.37055,46.10767]},"properties":{"nom":"Route de Bersac","ag":["Réseau interurbain - Haute-Vienne (87)"],"lt":1,"dept":"87"}},{"type":"Feature","geometry":{"type":"Point","coordinates":[1.3279,45.99022]},"properties":{"nom":"La Crouzille","ag":["Réseau interurbain - Haute-Vienne (87)"],"lt":1,"dept":"87"}},{"type":"Feature","geometry":{"type":"Point","coordinates":[1.33543,46.00553]},"properties":{"nom":"Les Roussilles","ag":["Réseau interurbain - Haute-Vienne (87)"],"lt":1,"dept":"87"}},{"type":"Feature","geometry":{"type":"Point","coordinates":[1.32416,45.86554]},"properties":{"nom":"Le Palais Centre","ag":["Réseau interurbain - Haute-Vienne (87)"],"lt":1,"dept":"87"}},{"type":"Feature","geometry":{"type":"Point","coordinates":[1.28457,45.81054]},"properties":{"nom":"Magré","ag":["Réseau interurbain - Haute-Vienne (87)"],"lt":1,"dept":"87"}},{"type":"Feature","geometry":{"type":"Point","coordinates":[1.33142,45.76946]},"properties":{"nom":"Boisseuil Bourg","ag":["Réseau interurbain - Haute-Vienne (87)"],"lt":1,"dept":"87"}},{"type":"Feature","geometry":{"type":"Point","coordinates":[1.39353,45.88715]},"properties":{"nom":"Le Pont","ag":["Réseau interurbain - Haute-Vienne (87)"],"lt":1,"dept":"87"}},{"type":"Feature","geometry":{"type":"Point","coordinates":[1.21051,45.82121]},"properties":{"nom":"Limoges Les Courrières","ag":["Réseau interurbain - Haute-Vienne (87)"],"lt":1,"dept":"87"}},{"type":"Feature","geometry":{"type":"Point","coordinates":[1.50618,45.90617]},"properties":{"nom":"Bourg","ag":["Réseau interurbain - Haute-Vienne (87)"],"lt":1,"dept":"87"}},{"type":"Feature","geometry":{"type":"Point","coordinates":[1.49783,45.95094]},"properties":{"nom":"Bourg","ag":["Réseau interurbain - Haute-Vienne (87)"],"lt":1,"dept":"87"}},{"type":"Feature","geometry":{"type":"Point","coordinates":[1.38554,45.88263]},"properties":{"nom":"RTE du Mazeau","ag":["Réseau interurbain - Haute-Vienne (87)"],"lt":1,"dept":"87"}},{"type":"Feature","geometry":{"type":"Point","coordinates":[1.35744,45.87842]},"properties":{"nom":"La Chabasse","ag":["Réseau interurbain - Haute-Vienne (87)"],"lt":1,"dept":"87"}},{"type":"Feature","geometry":{"type":"Point","coordinates":[1.39789,45.88661]},"properties":{"nom":"Mairie","ag":["Réseau interurbain - Haute-Vienne (87)"],"lt":1,"dept":"87"}},{"type":"Feature","geometry":{"type":"Point","coordinates":[1.37278,46.11701]},"properties":{"nom":"La Chataignière","ag":["Réseau interurbain - Haute-Vienne (87)"],"lt":1,"dept":"87"}},{"type":"Feature","geometry":{"type":"Point","coordinates":[1.3453,46.03188]},"properties":{"nom":"Haut","ag":["Réseau interurbain - Haute-Vienne (87)"],"lt":1,"dept":"87"}},{"type":"Feature","geometry":{"type":"Point","coordinates":[1.5085,45.94193]},"properties":{"nom":"Le Dognon","ag":["Réseau interurbain - Haute-Vienne (87)"],"lt":1,"dept":"87"}},{"type":"Feature","geometry":{"type":"Point","coordinates":[1.26821,45.83592]},"properties":{"nom":"Terminal Cars","ag":["Réseau interurbain - Haute-Vienne (87)","Réseau interurbain - Corrèze (19)"],"lt":1,"dept":"87"}},{"type":"Feature","geometry":{"type":"Point","coordinates":[1.30054,45.85133]},"properties":{"nom":"L.P. St Exupéry","ag":["Réseau interurbain - Haute-Vienne (87)"],"lt":1,"dept":"87"}},{"type":"Feature","geometry":{"type":"Point","coordinates":[1.23524,45.95785]},"properties":{"nom":"Les Quatre Poteaux","ag":["Réseau interurbain - Haute-Vienne (87)"],"lt":1,"dept":"87"}},{"type":"Feature","geometry":{"type":"Point","coordinates":[1.41772,45.89922]},"properties":{"nom":"Maison Brûlée","ag":["Réseau interurbain - Haute-Vienne (87)"],"lt":1,"dept":"87"}},{"type":"Feature","geometry":{"type":"Point","coordinates":[1.23146,45.9405]},"properties":{"nom":"Fontbesse","ag":["Réseau interurbain - Haute-Vienne (87)"],"lt":1,"dept":"87"}},{"type":"Feature","geometry":{"type":"Point","coordinates":[1.2284,45.83405]},"properties":{"nom":"A. Dutreix","ag":["Réseau interurbain - Haute-Vienne (87)"],"lt":1,"dept":"87"}},{"type":"Feature","geometry":{"type":"Point","coordinates":[1.24657,45.8444]},"properties":{"nom":"Montjovis","ag":["Réseau interurbain - Haute-Vienne (87)"],"lt":1,"dept":"87"}},{"type":"Feature","geometry":{"type":"Point","coordinates":[1.21446,45.86986]},"properties":{"nom":"Hippodrome","ag":["Réseau interurbain - Haute-Vienne (87)"],"lt":1,"dept":"87"}},{"type":"Feature","geometry":{"type":"Point","coordinates":[1.49212,45.83791]},"properties":{"nom":"St Léonard Centre","ag":["Réseau interurbain - Haute-Vienne (87)"],"lt":1,"dept":"87"}},{"type":"Feature","geometry":{"type":"Point","coordinates":[1.47695,45.83406]},"properties":{"nom":"Pont de Noblat","ag":["Réseau interurbain - Haute-Vienne (87)"],"lt":1,"dept":"87"}},{"type":"Feature","geometry":{"type":"Point","coordinates":[1.27573,46.00498]},"properties":{"nom":"Les Landes","ag":["Réseau interurbain - Haute-Vienne (87)"],"lt":1,"dept":"87"}},{"type":"Feature","geometry":{"type":"Point","coordinates":[1.43056,45.84837]},"properties":{"nom":"Centre","ag":["Réseau interurbain - Haute-Vienne (87)"],"lt":1,"dept":"87"}},{"type":"Feature","geometry":{"type":"Point","coordinates":[0.95853,45.76951]},"properties":{"nom":"Mairie","ag":["Réseau interurbain - Haute-Vienne (87)"],"lt":1,"dept":"87"}},{"type":"Feature","geometry":{"type":"Point","coordinates":[1.43573,45.91173]},"properties":{"nom":"Triadour","ag":["Réseau interurbain - Haute-Vienne (87)"],"lt":1,"dept":"87"}},{"type":"Feature","geometry":{"type":"Point","coordinates":[1.31003,45.93864]},"properties":{"nom":"Maison Rouge","ag":["Réseau interurbain - Haute-Vienne (87)"],"lt":1,"dept":"87"}},{"type":"Feature","geometry":{"type":"Point","coordinates":[1.25379,45.83102]},"properties":{"nom":"Pl. W. Churchill","ag":["Réseau interurbain - Haute-Vienne (87)"],"lt":1,"dept":"87"}},{"type":"Feature","geometry":{"type":"Point","coordinates":[1.38447,45.8471]},"properties":{"nom":"Le Verdeau","ag":["Réseau interurbain - Haute-Vienne (87)"],"lt":1,"dept":"87"}},{"type":"Feature","geometry":{"type":"Point","coordinates":[1.48677,45.91616]},"properties":{"nom":"La Maligne","ag":["Réseau interurbain - Haute-Vienne (87)"],"lt":1,"dept":"87"}},{"type":"Feature","geometry":{"type":"Point","coordinates":[1.46634,45.91752]},"properties":{"nom":"Les Charrauds","ag":["Réseau interurbain - Haute-Vienne (87)"],"lt":1,"dept":"87"}},{"type":"Feature","geometry":{"type":"Point","coordinates":[1.57553,45.89174]},"properties":{"nom":"Vallegeas","ag":["Réseau interurbain - Haute-Vienne (87)"],"lt":1,"dept":"87"}},{"type":"Feature","geometry":{"type":"Point","coordinates":[1.57577,45.89175]},"properties":{"nom":"Vallegeas","ag":["Réseau interurbain - Haute-Vienne (87)"],"lt":1,"dept":"87"}},{"type":"Feature","geometry":{"type":"Point","coordinates":[1.27269,45.83419]},"properties":{"nom":"J. Gagnant","ag":["Réseau interurbain - Haute-Vienne (87)"],"lt":1,"dept":"87"}},{"type":"Feature","geometry":{"type":"Point","coordinates":[1.23832,45.87908]},"properties":{"nom":"Couzeix Mairie","ag":["Réseau interurbain - Haute-Vienne (87)"],"lt":1,"dept":"87"}},{"type":"Feature","geometry":{"type":"Point","coordinates":[1.24593,45.84212]},"properties":{"nom":"Jean Macé","ag":["Réseau interurbain - Haute-Vienne (87)"],"lt":1,"dept":"87"}},{"type":"Feature","geometry":{"type":"Point","coordinates":[1.24563,45.8429]},"properties":{"nom":"Jean Macé","ag":["Réseau interurbain - Haute-Vienne (87)"],"lt":1,"dept":"87"}},{"type":"Feature","geometry":{"type":"Point","coordinates":[0.89632,45.76395]},"properties":{"nom":"Bas Puymoreau","ag":["Réseau interurbain - Haute-Vienne (87)"],"lt":1,"dept":"87"}},{"type":"Feature","geometry":{"type":"Point","coordinates":[1.22712,45.89949]},"properties":{"nom":"Couzeix La Croix d'Anglard","ag":["Réseau interurbain - Haute-Vienne (87)"],"lt":1,"dept":"87"}},{"type":"Feature","geometry":{"type":"Point","coordinates":[0.8965,45.76395]},"properties":{"nom":"Bas Puymoreau","ag":["Réseau interurbain - Haute-Vienne (87)"],"lt":1,"dept":"87"}},{"type":"Feature","geometry":{"type":"Point","coordinates":[1.13885,45.79699]},"properties":{"nom":"Champ de Foire","ag":["Réseau interurbain - Haute-Vienne (87)"],"lt":1,"dept":"87"}},{"type":"Feature","geometry":{"type":"Point","coordinates":[0.86647,45.73138]},"properties":{"nom":"Office  Tourisme","ag":["Réseau interurbain - Haute-Vienne (87)"],"lt":1,"dept":"87"}},{"type":"Feature","geometry":{"type":"Point","coordinates":[1.15678,45.7135]},"properties":{"nom":"Bourg","ag":["Réseau interurbain - Haute-Vienne (87)"],"lt":1,"dept":"87"}},{"type":"Feature","geometry":{"type":"Point","coordinates":[1.13399,45.79626]},"properties":{"nom":"Av. Pasteur","ag":["Réseau interurbain - Haute-Vienne (87)"],"lt":1,"dept":"87"}},{"type":"Feature","geometry":{"type":"Point","coordinates":[1.25204,45.81964]},"properties":{"nom":"Ernest Ruben Bas","ag":["Réseau interurbain - Haute-Vienne (87)"],"lt":1,"dept":"87"}},{"type":"Feature","geometry":{"type":"Point","coordinates":[1.20074,45.77951]},"properties":{"nom":"Place Crépiat","ag":["Réseau interurbain - Haute-Vienne (87)"],"lt":1,"dept":"87"}},{"type":"Feature","geometry":{"type":"Point","coordinates":[1.18923,45.76476]},"properties":{"nom":"Lestrade","ag":["Réseau interurbain - Haute-Vienne (87)"],"lt":1,"dept":"87"}},{"type":"Feature","geometry":{"type":"Point","coordinates":[1.14464,45.7975]},"properties":{"nom":"Passage niveau","ag":["Réseau interurbain - Haute-Vienne (87)"],"lt":1,"dept":"87"}},{"type":"Feature","geometry":{"type":"Point","coordinates":[1.12971,45.59303]},"properties":{"nom":"Laugère","ag":["Réseau interurbain - Haute-Vienne (87)"],"lt":1,"dept":"87"}},{"type":"Feature","geometry":{"type":"Point","coordinates":[1.1526,45.79386]},"properties":{"nom":"Puy Panard","ag":["Réseau interurbain - Haute-Vienne (87)"],"lt":1,"dept":"87"}},{"type":"Feature","geometry":{"type":"Point","coordinates":[1.19359,45.77315]},"properties":{"nom":"Le Petit Bastier","ag":["Réseau interurbain - Haute-Vienne (87)"],"lt":1,"dept":"87"}},{"type":"Feature","geometry":{"type":"Point","coordinates":[1.22048,45.79291]},"properties":{"nom":"Chez Minet","ag":["Réseau interurbain - Haute-Vienne (87)"],"lt":1,"dept":"87"}},{"type":"Feature","geometry":{"type":"Point","coordinates":[1.2349,46.0607]},"properties":{"nom":"St Symph.-Bourg","ag":["Réseau interurbain - Haute-Vienne (87)"],"lt":1,"dept":"87"}},{"type":"Feature","geometry":{"type":"Point","coordinates":[1.23239,45.80254]},"properties":{"nom":"Les Pâquerettes","ag":["Réseau interurbain - Haute-Vienne (87)"],"lt":1,"dept":"87"}},{"type":"Feature","geometry":{"type":"Point","coordinates":[1.2156,46.14528]},"properties":{"nom":"Villevit","ag":["Réseau interurbain - Haute-Vienne (87)"],"lt":1,"dept":"87"}},{"type":"Feature","geometry":{"type":"Point","coordinates":[1.17981,45.78821]},"properties":{"nom":"Le Caillaud","ag":["Réseau interurbain - Haute-Vienne (87)"],"lt":1,"dept":"87"}},{"type":"Feature","geometry":{"type":"Point","coordinates":[1.24523,45.84906]},"properties":{"nom":"Rue de Bellac","ag":["Réseau interurbain - Haute-Vienne (87)"],"lt":1,"dept":"87"}},{"type":"Feature","geometry":{"type":"Point","coordinates":[1.25033,45.83012]},"properties":{"nom":"Pl. des Carmes","ag":["Réseau interurbain - Haute-Vienne (87)"],"lt":1,"dept":"87"}},{"type":"Feature","geometry":{"type":"Point","coordinates":[1.16878,45.79044]},"properties":{"nom":"Le Bas Mérignac","ag":["Réseau interurbain - Haute-Vienne (87)"],"lt":1,"dept":"87"}},{"type":"Feature","geometry":{"type":"Point","coordinates":[1.2297,45.92579]},"properties":{"nom":"Morcheval","ag":["Réseau interurbain - Haute-Vienne (87)"],"lt":1,"dept":"87"}},{"type":"Feature","geometry":{"type":"Point","coordinates":[1.25095,45.82553]},"properties":{"nom":"Ernest Ruben Haut","ag":["Réseau interurbain - Haute-Vienne (87)"],"lt":1,"dept":"87"}},{"type":"Feature","geometry":{"type":"Point","coordinates":[1.18254,46.13064]},"properties":{"nom":"Bourg","ag":["Réseau interurbain - Haute-Vienne (87)"],"lt":1,"dept":"87"}},{"type":"Feature","geometry":{"type":"Point","coordinates":[1.20238,45.78277]},"properties":{"nom":"Pont de L'Aiguille","ag":["Réseau interurbain - Haute-Vienne (87)"],"lt":1,"dept":"87"}},{"type":"Feature","geometry":{"type":"Point","coordinates":[1.22975,45.80034]},"properties":{"nom":"Le Pont de Condat","ag":["Réseau interurbain - Haute-Vienne (87)"],"lt":1,"dept":"87"}},{"type":"Feature","geometry":{"type":"Point","coordinates":[1.55042,45.87833]},"properties":{"nom":"Rte de Moissannes","ag":["Réseau interurbain - Haute-Vienne (87)"],"lt":1,"dept":"87"}},{"type":"Feature","geometry":{"type":"Point","coordinates":[1.25962,45.82747]},"properties":{"nom":"Mairie","ag":["Réseau interurbain - Haute-Vienne (87)"],"lt":1,"dept":"87"}},{"type":"Feature","geometry":{"type":"Point","coordinates":[0.91324,45.89782]},"properties":{"nom":"LP Edouart Vaillant","ag":["Réseau interurbain - Haute-Vienne (87)"],"lt":1,"dept":"87"}},{"type":"Feature","geometry":{"type":"Point","coordinates":[1.22716,45.82443]},"properties":{"nom":"F. Perrin","ag":["Réseau interurbain - Haute-Vienne (87)"],"lt":1,"dept":"87"}},{"type":"Feature","geometry":{"type":"Point","coordinates":[1.3669,45.71347]},"properties":{"nom":"Puy Baraud","ag":["Réseau interurbain - Haute-Vienne (87)"],"lt":1,"dept":"87"}},{"type":"Feature","geometry":{"type":"Point","coordinates":[1.34914,45.69992]},"properties":{"nom":"Gare SNCF","ag":["Réseau interurbain - Haute-Vienne (87)"],"lt":1,"dept":"87"}},{"type":"Feature","geometry":{"type":"Point","coordinates":[0.80089,45.7865]},"properties":{"nom":"Le grand Meynieux","ag":["Réseau interurbain - Haute-Vienne (87)"],"lt":1,"dept":"87"}},{"type":"Feature","geometry":{"type":"Point","coordinates":[1.25515,45.82999]},"properties":{"nom":"Pl. d'Aine","ag":["Réseau interurbain - Haute-Vienne (87)"],"lt":1,"dept":"87"}},{"type":"Feature","geometry":{"type":"Point","coordinates":[1.16278,45.74292]},"properties":{"nom":"Les Landes","ag":["Réseau interurbain - Haute-Vienne (87)"],"lt":1,"dept":"87"}},{"type":"Feature","geometry":{"type":"Point","coordinates":[1.06478,45.76665]},"properties":{"nom":"Rte de Gorre","ag":["Réseau interurbain - Haute-Vienne (87)"],"lt":1,"dept":"87"}},{"type":"Feature","geometry":{"type":"Point","coordinates":[1.30124,45.83128]},"properties":{"nom":"L. Blum","ag":["Réseau interurbain - Haute-Vienne (87)"],"lt":1,"dept":"87"}},{"type":"Feature","geometry":{"type":"Point","coordinates":[0.89132,45.76019]},"properties":{"nom":"Puymoreau","ag":["Réseau interurbain - Haute-Vienne (87)"],"lt":1,"dept":"87"}},{"type":"Feature","geometry":{"type":"Point","coordinates":[1.18605,45.76607]},"properties":{"nom":"Gare de Beynac","ag":["Réseau interurbain - Haute-Vienne (87)"],"lt":1,"dept":"87"}},{"type":"Feature","geometry":{"type":"Point","coordinates":[1.15148,45.7258]},"properties":{"nom":"Bourg","ag":["Réseau interurbain - Haute-Vienne (87)"],"lt":1,"dept":"87"}},{"type":"Feature","geometry":{"type":"Point","coordinates":[1.16845,45.7574]},"properties":{"nom":"Nouailhas","ag":["Réseau interurbain - Haute-Vienne (87)"],"lt":1,"dept":"87"}},{"type":"Feature","geometry":{"type":"Point","coordinates":[1.27398,45.8251]},"properties":{"nom":"Rue de Toulouse","ag":["Réseau interurbain - Haute-Vienne (87)"],"lt":1,"dept":"87"}},{"type":"Feature","geometry":{"type":"Point","coordinates":[1.30834,45.77971]},"properties":{"nom":"Boisseuil C.C.","ag":["Réseau interurbain - Haute-Vienne (87)"],"lt":1,"dept":"87"}},{"type":"Feature","geometry":{"type":"Point","coordinates":[1.0871,45.84]},"properties":{"nom":"Les Richards","ag":["Réseau interurbain - Haute-Vienne (87)"],"lt":1,"dept":"87"}},{"type":"Feature","geometry":{"type":"Point","coordinates":[1.2641,45.83209]},"properties":{"nom":"Pl. Jourdan","ag":["Réseau interurbain - Haute-Vienne (87)"],"lt":1,"dept":"87"}},{"type":"Feature","geometry":{"type":"Point","coordinates":[1.32552,45.77483]},"properties":{"nom":"Les Bessières","ag":["Réseau interurbain - Haute-Vienne (87)"],"lt":1,"dept":"87"}},{"type":"Feature","geometry":{"type":"Point","coordinates":[1.11171,45.82661]},"properties":{"nom":"Chez Roger","ag":["Réseau interurbain - Haute-Vienne (87)"],"lt":1,"dept":"87"}},{"type":"Feature","geometry":{"type":"Point","coordinates":[1.34306,45.73417]},"properties":{"nom":"La Roselle","ag":["Réseau interurbain - Haute-Vienne (87)"],"lt":1,"dept":"87"}},{"type":"Feature","geometry":{"type":"Point","coordinates":[1.2366,45.85945]},"properties":{"nom":"Villefelix","ag":["Réseau interurbain - Haute-Vienne (87)"],"lt":1,"dept":"87"}},{"type":"Feature","geometry":{"type":"Point","coordinates":[1.25535,45.84215]},"properties":{"nom":"Mas Loubier","ag":["Réseau interurbain - Haute-Vienne (87)"],"lt":1,"dept":"87"}},{"type":"Feature","geometry":{"type":"Point","coordinates":[1.03515,45.85152]},"properties":{"nom":"Le Dognon","ag":["Réseau interurbain - Haute-Vienne (87)"],"lt":1,"dept":"87"}},{"type":"Feature","geometry":{"type":"Point","coordinates":[1.24135,45.82355]},"properties":{"nom":"Lycée Renoir","ag":["Réseau interurbain - Haute-Vienne (87)"],"lt":1,"dept":"87"}},{"type":"Feature","geometry":{"type":"Point","coordinates":[1.11322,45.8187]},"properties":{"nom":"Les Forges","ag":["Réseau interurbain - Haute-Vienne (87)"],"lt":1,"dept":"87"}},{"type":"Feature","geometry":{"type":"Point","coordinates":[1.36157,45.72526]},"properties":{"nom":"Bellevue","ag":["Réseau interurbain - Haute-Vienne (87)"],"lt":1,"dept":"87"}},{"type":"Feature","geometry":{"type":"Point","coordinates":[1.32564,45.86798]},"properties":{"nom":"S. Carnot","ag":["Réseau interurbain - Haute-Vienne (87)"],"lt":1,"dept":"87"}},{"type":"Feature","geometry":{"type":"Point","coordinates":[1.3226,45.73996]},"properties":{"nom":"La Planche haut","ag":["Réseau interurbain - Haute-Vienne (87)"],"lt":1,"dept":"87"}},{"type":"Feature","geometry":{"type":"Point","coordinates":[1.28478,45.82728]},"properties":{"nom":"Chastaingt","ag":["Réseau interurbain - Haute-Vienne (87)"],"lt":1,"dept":"87"}},{"type":"Feature","geometry":{"type":"Point","coordinates":[1.42528,45.70339]},"properties":{"nom":"Bourg","ag":["Réseau interurbain - Haute-Vienne (87)"],"lt":1,"dept":"87"}},{"type":"Feature","geometry":{"type":"Point","coordinates":[1.17392,45.90393]},"properties":{"nom":"La Lande du Haut","ag":["Réseau interurbain - Haute-Vienne (87)"],"lt":1,"dept":"87"}},{"type":"Feature","geometry":{"type":"Point","coordinates":[1.22483,45.6832]},"properties":{"nom":"La Plaine","ag":["Réseau interurbain - Haute-Vienne (87)"],"lt":1,"dept":"87"}},{"type":"Feature","geometry":{"type":"Point","coordinates":[1.23604,45.69869]},"properties":{"nom":"Bourg","ag":["Réseau interurbain - Haute-Vienne (87)"],"lt":1,"dept":"87"}},{"type":"Feature","geometry":{"type":"Point","coordinates":[1.24965,45.82536]},"properties":{"nom":"Carr. Beaupeyrat","ag":["Réseau interurbain - Haute-Vienne (87)"],"lt":1,"dept":"87"}},{"type":"Feature","geometry":{"type":"Point","coordinates":[1.24573,45.82378]},"properties":{"nom":"H. Dunant","ag":["Réseau interurbain - Haute-Vienne (87)"],"lt":1,"dept":"87"}},{"type":"Feature","geometry":{"type":"Point","coordinates":[1.25813,45.72783]},"properties":{"nom":"Route de Boissac","ag":["Réseau interurbain - Haute-Vienne (87)"],"lt":1,"dept":"87"}},{"type":"Feature","geometry":{"type":"Point","coordinates":[1.28166,45.73945]},"properties":{"nom":"La Baisse","ag":["Réseau interurbain - Haute-Vienne (87)"],"lt":1,"dept":"87"}},{"type":"Feature","geometry":{"type":"Point","coordinates":[1.83042,45.7197]},"properties":{"nom":"PARKING PNR*","ag":["Réseau interurbain - Haute-Vienne (87)"],"lt":1,"dept":"87"}},{"type":"Feature","geometry":{"type":"Point","coordinates":[1.3744,46.26571]},"properties":{"nom":"MAIRIE*","ag":["Réseau interurbain - Haute-Vienne (87)"],"lt":1,"dept":"87"}},{"type":"Feature","geometry":{"type":"Point","coordinates":[1.37005,46.31982]},"properties":{"nom":"MAIRIE","ag":["Réseau interurbain - Haute-Vienne (87)"],"lt":1,"dept":"87"}},{"type":"Feature","geometry":{"type":"Point","coordinates":[1.37455,46.26578]},"properties":{"nom":"MAIRIE","ag":["Réseau interurbain - Haute-Vienne (87)"],"lt":1,"dept":"87"}},{"type":"Feature","geometry":{"type":"Point","coordinates":[1.36998,46.31988]},"properties":{"nom":"MAIRIE*","ag":["Réseau interurbain - Haute-Vienne (87)"],"lt":1,"dept":"87"}},{"type":"Feature","geometry":{"type":"Point","coordinates":[1.25844,45.83244]},"properties":{"nom":"Opéra","ag":["Réseau interurbain - Haute-Vienne (87)"],"lt":1,"dept":"87"}},{"type":"Feature","geometry":{"type":"Point","coordinates":[1.1704,45.92253]},"properties":{"nom":"La Bascule","ag":["Réseau interurbain - Haute-Vienne (87)"],"lt":1,"dept":"87"}},{"type":"Feature","geometry":{"type":"Point","coordinates":[1.1684,45.91639]},"properties":{"nom":"Maison Neuve","ag":["Réseau interurbain - Haute-Vienne (87)"],"lt":1,"dept":"87"}},{"type":"Feature","geometry":{"type":"Point","coordinates":[1.04596,45.84707]},"properties":{"nom":"Ratterie","ag":["Réseau interurbain - Haute-Vienne (87)"],"lt":1,"dept":"87"}},{"type":"Feature","geometry":{"type":"Point","coordinates":[1.17761,45.89242]},"properties":{"nom":"St Martin du Fault","ag":["Réseau interurbain - Haute-Vienne (87)"],"lt":1,"dept":"87"}},{"type":"Feature","geometry":{"type":"Point","coordinates":[1.10475,45.82296]},"properties":{"nom":"Font au Bru","ag":["Réseau interurbain - Haute-Vienne (87)"],"lt":1,"dept":"87"}},{"type":"Feature","geometry":{"type":"Point","coordinates":[1.08456,45.83225]},"properties":{"nom":"Chemin ferré","ag":["Réseau interurbain - Haute-Vienne (87)"],"lt":1,"dept":"87"}},{"type":"Feature","geometry":{"type":"Point","coordinates":[1.07799,45.85691]},"properties":{"nom":"Le Bourg","ag":["Réseau interurbain - Haute-Vienne (87)"],"lt":1,"dept":"87"}},{"type":"Feature","geometry":{"type":"Point","coordinates":[1.17518,45.92667]},"properties":{"nom":"Les Lavandières","ag":["Réseau interurbain - Haute-Vienne (87)"],"lt":1,"dept":"87"}},{"type":"Feature","geometry":{"type":"Point","coordinates":[1.51471,45.8602]},"properties":{"nom":"Eycouveaux","ag":["Réseau interurbain - Haute-Vienne (87)"],"lt":1,"dept":"87"}},{"type":"Feature","geometry":{"type":"Point","coordinates":[1.21655,45.57935]},"properties":{"nom":"Croix de Marneix","ag":["Réseau interurbain - Haute-Vienne (87)"],"lt":1,"dept":"87"}},{"type":"Feature","geometry":{"type":"Point","coordinates":[1.49281,45.8448]},"properties":{"nom":"Cité d'Augères","ag":["Réseau interurbain - Haute-Vienne (87)"],"lt":1,"dept":"87"}},{"type":"Feature","geometry":{"type":"Point","coordinates":[1.22721,45.64447]},"properties":{"nom":"Le Pavillon","ag":["Réseau interurbain - Haute-Vienne (87)"],"lt":1,"dept":"87"}},{"type":"Feature","geometry":{"type":"Point","coordinates":[1.22677,45.60918]},"properties":{"nom":"La Traverse","ag":["Réseau interurbain - Haute-Vienne (87)"],"lt":1,"dept":"87"}},{"type":"Feature","geometry":{"type":"Point","coordinates":[1.21107,45.52435]},"properties":{"nom":"Arfeuille","ag":["Réseau interurbain - Haute-Vienne (87)"],"lt":1,"dept":"87"}},{"type":"Feature","geometry":{"type":"Point","coordinates":[1.3726,46.13014]},"properties":{"nom":"La Croix du Breuil","ag":["Réseau interurbain - Haute-Vienne (87)"],"lt":0,"dept":"87"}},{"type":"Feature","geometry":{"type":"Point","coordinates":[1.33554,46.00574]},"properties":{"nom":"Les Roussilles","ag":["Réseau interurbain - Haute-Vienne (87)"],"lt":0,"dept":"87"}},{"type":"Feature","geometry":{"type":"Point","coordinates":[1.74122,45.73979]},"properties":{"nom":"Gare SNCF","ag":["Réseau interurbain - Haute-Vienne (87)"],"lt":0,"dept":"87"}},{"type":"Feature","geometry":{"type":"Point","coordinates":[1.30943,45.93803]},"properties":{"nom":"Maison rouge","ag":["Réseau interurbain - Haute-Vienne (87)"],"lt":0,"dept":"87"}},{"type":"Feature","geometry":{"type":"Point","coordinates":[1.74123,45.73963]},"properties":{"nom":"Gare SNCF","ag":["Réseau interurbain - Haute-Vienne (87)"],"lt":0,"dept":"87"}},{"type":"Feature","geometry":{"type":"Point","coordinates":[1.40405,45.96305]},"properties":{"nom":"La Mazaurie","ag":["Réseau interurbain - Haute-Vienne (87)"],"lt":0,"dept":"87"}},{"type":"Feature","geometry":{"type":"Point","coordinates":[1.36237,46.08689]},"properties":{"nom":"Le Mazataud","ag":["Réseau interurbain - Haute-Vienne (87)"],"lt":0,"dept":"87"}},{"type":"Feature","geometry":{"type":"Point","coordinates":[1.03326,45.93238]},"properties":{"nom":"Champ de Foire","ag":["Réseau interurbain - Haute-Vienne (87)"],"lt":0,"dept":"87"}},{"type":"Feature","geometry":{"type":"Point","coordinates":[1.77329,45.8141]},"properties":{"nom":"Point Information","ag":["Réseau interurbain - Haute-Vienne (87)"],"lt":0,"dept":"87"}},{"type":"Feature","geometry":{"type":"Point","coordinates":[1.09594,45.77811]},"properties":{"nom":"Les Betoulles","ag":["Réseau interurbain - Haute-Vienne (87)"],"lt":0,"dept":"87"}},{"type":"Feature","geometry":{"type":"Point","coordinates":[1.14526,46.16776]},"properties":{"nom":"La Brousse","ag":["Réseau interurbain - Haute-Vienne (87)"],"lt":0,"dept":"87"}},{"type":"Feature","geometry":{"type":"Point","coordinates":[1.33827,46.01312]},"properties":{"nom":"Le Ritor","ag":["Réseau interurbain - Haute-Vienne (87)"],"lt":0,"dept":"87"}},{"type":"Feature","geometry":{"type":"Point","coordinates":[1.20148,46.03526]},"properties":{"nom":"Bourg","ag":["Réseau interurbain - Haute-Vienne (87)"],"lt":0,"dept":"87"}},{"type":"Feature","geometry":{"type":"Point","coordinates":[1.36089,46.07799]},"properties":{"nom":"Avent","ag":["Réseau interurbain - Haute-Vienne (87)"],"lt":0,"dept":"87"}},{"type":"Feature","geometry":{"type":"Point","coordinates":[1.3731,46.11694]},"properties":{"nom":"La Chataignière","ag":["Réseau interurbain - Haute-Vienne (87)"],"lt":0,"dept":"87"}},{"type":"Feature","geometry":{"type":"Point","coordinates":[1.21407,45.91503]},"properties":{"nom":"Frégefond","ag":["Réseau interurbain - Haute-Vienne (87)"],"lt":0,"dept":"87"}},{"type":"Feature","geometry":{"type":"Point","coordinates":[1.13286,45.79618]},"properties":{"nom":"Av. Pasteur","ag":["Réseau interurbain - Haute-Vienne (87)"],"lt":0,"dept":"87"}},{"type":"Feature","geometry":{"type":"Point","coordinates":[1.32117,45.97666]},"properties":{"nom":"Népoulas","ag":["Réseau interurbain - Haute-Vienne (87)"],"lt":0,"dept":"87"}},{"type":"Feature","geometry":{"type":"Point","coordinates":[1.13808,45.79696]},"properties":{"nom":"AIXE-SUR-VIENNE - CHAMP DE FOIRE","ag":["Réseau interurbain - Haute-Vienne (87)"],"lt":0,"dept":"87"}},{"type":"Feature","geometry":{"type":"Point","coordinates":[1.3623,46.10317]},"properties":{"nom":"Route de Sagnat","ag":["Réseau interurbain - Haute-Vienne (87)"],"lt":0,"dept":"87"}},{"type":"Feature","geometry":{"type":"Point","coordinates":[1.1515,45.79462]},"properties":{"nom":"Puy Panard","ag":["Réseau interurbain - Haute-Vienne (87)"],"lt":0,"dept":"87"}},{"type":"Feature","geometry":{"type":"Point","coordinates":[1.16008,45.97778]},"properties":{"nom":"Conore","ag":["Réseau interurbain - Haute-Vienne (87)"],"lt":0,"dept":"87"}},{"type":"Feature","geometry":{"type":"Point","coordinates":[0.83273,45.83274]},"properties":{"nom":"La Grosille","ag":["Réseau interurbain - Haute-Vienne (87)"],"lt":0,"dept":"87"}},{"type":"Feature","geometry":{"type":"Point","coordinates":[1.33142,45.76946]},"properties":{"nom":"Bourg","ag":["Réseau interurbain - Haute-Vienne (87)"],"lt":0,"dept":"87"}},{"type":"Feature","geometry":{"type":"Point","coordinates":[1.3094,45.77924]},"properties":{"nom":"Centre commercial","ag":["Réseau interurbain - Haute-Vienne (87)"],"lt":0,"dept":"87"}},{"type":"Feature","geometry":{"type":"Point","coordinates":[1.04187,45.74272]},"properties":{"nom":"Crezeunet","ag":["Réseau interurbain - Haute-Vienne (87)"],"lt":0,"dept":"87"}},{"type":"Feature","geometry":{"type":"Point","coordinates":[1.00221,45.67693]},"properties":{"nom":"Abri RN21","ag":["Réseau interurbain - Haute-Vienne (87)"],"lt":0,"dept":"87"}},{"type":"Feature","geometry":{"type":"Point","coordinates":[0.95229,45.69357]},"properties":{"nom":"Route de Champsac","ag":["Réseau interurbain - Haute-Vienne (87)"],"lt":0,"dept":"87"}},{"type":"Feature","geometry":{"type":"Point","coordinates":[1.02518,45.72757]},"properties":{"nom":"Le Bos Vieux","ag":["Réseau interurbain - Haute-Vienne (87)"],"lt":0,"dept":"87"}},{"type":"Feature","geometry":{"type":"Point","coordinates":[1.01557,45.70959]},"properties":{"nom":"Chez Eymard","ag":["Réseau interurbain - Haute-Vienne (87)"],"lt":0,"dept":"87"}},{"type":"Feature","geometry":{"type":"Point","coordinates":[1.13134,45.86138]},"properties":{"nom":"La Côte","ag":["Réseau interurbain - Haute-Vienne (87)"],"lt":0,"dept":"87"}},{"type":"Feature","geometry":{"type":"Point","coordinates":[0.98506,45.65974]},"properties":{"nom":"Avenue Jean Jaurès","ag":["Réseau interurbain - Haute-Vienne (87)"],"lt":0,"dept":"87"}},{"type":"Feature","geometry":{"type":"Point","coordinates":[1.15845,45.85199]},"properties":{"nom":"Le Breuil","ag":["Réseau interurbain - Haute-Vienne (87)"],"lt":0,"dept":"87"}},{"type":"Feature","geometry":{"type":"Point","coordinates":[1.22712,45.89949]},"properties":{"nom":"La Croix d'Anglard","ag":["Réseau interurbain - Haute-Vienne (87)"],"lt":0,"dept":"87"}},{"type":"Feature","geometry":{"type":"Point","coordinates":[1.14114,46.00484]},"properties":{"nom":"Le Betoux / RN147","ag":["Réseau interurbain - Haute-Vienne (87)"],"lt":0,"dept":"87"}},{"type":"Feature","geometry":{"type":"Point","coordinates":[1.41266,45.76594]},"properties":{"nom":"Arfeuille","ag":["Réseau interurbain - Haute-Vienne (87)"],"lt":0,"dept":"87"}},{"type":"Feature","geometry":{"type":"Point","coordinates":[1.5083,45.70581]},"properties":{"nom":"Ribières Gagnoux","ag":["Réseau interurbain - Haute-Vienne (87)"],"lt":0,"dept":"87"}},{"type":"Feature","geometry":{"type":"Point","coordinates":[1.03214,45.73468]},"properties":{"nom":"Le Gatinaud","ag":["Réseau interurbain - Haute-Vienne (87)"],"lt":0,"dept":"87"}},{"type":"Feature","geometry":{"type":"Point","coordinates":[0.91859,45.62494]},"properties":{"nom":"Bourg","ag":["Réseau interurbain - Haute-Vienne (87)"],"lt":0,"dept":"87"}},{"type":"Feature","geometry":{"type":"Point","coordinates":[1.01619,45.65775]},"properties":{"nom":"Le Mazaubert","ag":["Réseau interurbain - Haute-Vienne (87)"],"lt":0,"dept":"87"}},{"type":"Feature","geometry":{"type":"Point","coordinates":[1.46843,45.73511]},"properties":{"nom":"Leycuras","ag":["Réseau interurbain - Haute-Vienne (87)"],"lt":0,"dept":"87"}},{"type":"Feature","geometry":{"type":"Point","coordinates":[1.27632,46.13388]},"properties":{"nom":"Gare routière","ag":["Réseau interurbain - Haute-Vienne (87)"],"lt":0,"dept":"87"}},{"type":"Feature","geometry":{"type":"Point","coordinates":[1.34004,46.01908]},"properties":{"nom":"Silord","ag":["Réseau interurbain - Haute-Vienne (87)"],"lt":0,"dept":"87"}},{"type":"Feature","geometry":{"type":"Point","coordinates":[1.46841,45.73518]},"properties":{"nom":"Leycuras","ag":["Réseau interurbain - Haute-Vienne (87)"],"lt":0,"dept":"87"}},{"type":"Feature","geometry":{"type":"Point","coordinates":[1.39308,45.77625]},"properties":{"nom":"Bourg","ag":["Réseau interurbain - Haute-Vienne (87)"],"lt":0,"dept":"87"}},{"type":"Feature","geometry":{"type":"Point","coordinates":[1.39317,45.77625]},"properties":{"nom":"Bourg","ag":["Réseau interurbain - Haute-Vienne (87)"],"lt":0,"dept":"87"}},{"type":"Feature","geometry":{"type":"Point","coordinates":[1.31995,45.81416]},"properties":{"nom":"La Ceriseraie","ag":["Réseau interurbain - Haute-Vienne (87)"],"lt":0,"dept":"87"}},{"type":"Feature","geometry":{"type":"Point","coordinates":[1.31495,45.81532]},"properties":{"nom":"Crézin","ag":["Réseau interurbain - Haute-Vienne (87)"],"lt":0,"dept":"87"}},{"type":"Feature","geometry":{"type":"Point","coordinates":[1.05151,46.12053]},"properties":{"nom":"BELLAC - AVENUE FOCH","ag":["Réseau interurbain - Haute-Vienne (87)"],"lt":0,"dept":"87"}},{"type":"Feature","geometry":{"type":"Point","coordinates":[1.11241,45.74689]},"properties":{"nom":"Les 4 Routes","ag":["Réseau interurbain - Haute-Vienne (87)"],"lt":0,"dept":"87"}},{"type":"Feature","geometry":{"type":"Point","coordinates":[1.10457,46.06963]},"properties":{"nom":"La Poste","ag":["Réseau interurbain - Haute-Vienne (87)"],"lt":0,"dept":"87"}},{"type":"Feature","geometry":{"type":"Point","coordinates":[1.24362,45.82904]},"properties":{"nom":"Sacré Coeur","ag":["Réseau interurbain - Haute-Vienne (87)"],"lt":0,"dept":"87"}},{"type":"Feature","geometry":{"type":"Point","coordinates":[0.85354,45.74791]},"properties":{"nom":"Manvin","ag":["Réseau interurbain - Haute-Vienne (87)"],"lt":0,"dept":"87"}},{"type":"Feature","geometry":{"type":"Point","coordinates":[1.15452,45.80483]},"properties":{"nom":"Beaubonnat","ag":["Réseau interurbain - Haute-Vienne (87)"],"lt":0,"dept":"87"}},{"type":"Feature","geometry":{"type":"Point","coordinates":[1.25486,45.84267]},"properties":{"nom":"Mas Loubier","ag":["Réseau interurbain - Haute-Vienne (87)"],"lt":0,"dept":"87"}},{"type":"Feature","geometry":{"type":"Point","coordinates":[1.14852,45.79917]},"properties":{"nom":"Av. Jean Rebier","ag":["Réseau interurbain - Haute-Vienne (87)"],"lt":0,"dept":"87"}},{"type":"Feature","geometry":{"type":"Point","coordinates":[0.84875,45.76205]},"properties":{"nom":"La Treille","ag":["Réseau interurbain - Haute-Vienne (87)"],"lt":0,"dept":"87"}},{"type":"Feature","geometry":{"type":"Point","coordinates":[1.45408,45.73571]},"properties":{"nom":"La violette","ag":["Réseau interurbain - Haute-Vienne (87)"],"lt":0,"dept":"87"}},{"type":"Feature","geometry":{"type":"Point","coordinates":[1.20872,45.82094]},"properties":{"nom":"Les Courrières","ag":["Réseau interurbain - Haute-Vienne (87)"],"lt":0,"dept":"87"}},{"type":"Feature","geometry":{"type":"Point","coordinates":[1.16837,45.75725]},"properties":{"nom":"Nouailhas","ag":["Réseau interurbain - Haute-Vienne (87)"],"lt":0,"dept":"87"}},{"type":"Feature","geometry":{"type":"Point","coordinates":[1.23877,45.82703]},"properties":{"nom":"Casimir Ranson","ag":["Réseau interurbain - Haute-Vienne (87)"],"lt":0,"dept":"87"}},{"type":"Feature","geometry":{"type":"Point","coordinates":[1.15156,45.72533]},"properties":{"nom":"Bourg","ag":["Réseau interurbain - Haute-Vienne (87)"],"lt":0,"dept":"87"}},{"type":"Feature","geometry":{"type":"Point","coordinates":[1.24904,45.81986]},"properties":{"nom":"Bellevue","ag":["Réseau interurbain - Haute-Vienne (87)"],"lt":0,"dept":"87"}},{"type":"Feature","geometry":{"type":"Point","coordinates":[1.43209,45.7423]},"properties":{"nom":"Le Petit Chaleix","ag":["Réseau interurbain - Haute-Vienne (87)"],"lt":0,"dept":"87"}},{"type":"Feature","geometry":{"type":"Point","coordinates":[1.22515,45.82409]},"properties":{"nom":"François Perrin","ag":["Réseau interurbain - Haute-Vienne (87)"],"lt":0,"dept":"87"}},{"type":"Feature","geometry":{"type":"Point","coordinates":[0.91939,45.71751]},"properties":{"nom":"Le Poteau","ag":["Réseau interurbain - Haute-Vienne (87)"],"lt":0,"dept":"87"}},{"type":"Feature","geometry":{"type":"Point","coordinates":[1.59907,45.71018]},"properties":{"nom":"Pont la Prairie","ag":["Réseau interurbain - Haute-Vienne (87)"],"lt":0,"dept":"87"}},{"type":"Feature","geometry":{"type":"Point","coordinates":[0.89874,45.88658]},"properties":{"nom":"SAINT-JUNIEN - PLACE LA CÔTE","ag":["Réseau interurbain - Haute-Vienne (87)"],"lt":0,"dept":"87"}},{"type":"Feature","geometry":{"type":"Point","coordinates":[1.60349,45.71249]},"properties":{"nom":"Place Jean Monnet","ag":["Réseau interurbain - Haute-Vienne (87)"],"lt":0,"dept":"87"}},{"type":"Feature","geometry":{"type":"Point","coordinates":[1.17464,45.81613]},"properties":{"nom":"Le Mas des Landes","ag":["Réseau interurbain - Haute-Vienne (87)"],"lt":0,"dept":"87"}},{"type":"Feature","geometry":{"type":"Point","coordinates":[1.2284,45.83405]},"properties":{"nom":"Armand Dutreix","ag":["Réseau interurbain - Haute-Vienne (87)"],"lt":0,"dept":"87"}},{"type":"Feature","geometry":{"type":"Point","coordinates":[1.13596,45.79102]},"properties":{"nom":"Cité Turgot","ag":["Réseau interurbain - Haute-Vienne (87)"],"lt":0,"dept":"87"}},{"type":"Feature","geometry":{"type":"Point","coordinates":[0.98277,45.65452]},"properties":{"nom":"Le Belvédère","ag":["Réseau interurbain - Haute-Vienne (87)"],"lt":0,"dept":"87"}},{"type":"Feature","geometry":{"type":"Point","coordinates":[1.15669,45.7134]},"properties":{"nom":"Bourg","ag":["Réseau interurbain - Haute-Vienne (87)"],"lt":0,"dept":"87"}},{"type":"Feature","geometry":{"type":"Point","coordinates":[1.53552,45.69955]},"properties":{"nom":"Champ de Foire","ag":["Réseau interurbain - Haute-Vienne (87)"],"lt":0,"dept":"87"}},{"type":"Feature","geometry":{"type":"Point","coordinates":[1.18056,45.68391]},"properties":{"nom":"Avenue Garibaldi","ag":["Réseau interurbain - Haute-Vienne (87)"],"lt":0,"dept":"87"}},{"type":"Feature","geometry":{"type":"Point","coordinates":[1.10383,45.876]},"properties":{"nom":"Beauvalet","ag":["Réseau interurbain - Haute-Vienne (87)"],"lt":0,"dept":"87"}},{"type":"Feature","geometry":{"type":"Point","coordinates":[1.4282,45.7538]},"properties":{"nom":"La Croix Verte","ag":["Réseau interurbain - Haute-Vienne (87)"],"lt":0,"dept":"87"}},{"type":"Feature","geometry":{"type":"Point","coordinates":[1.19016,45.67651]},"properties":{"nom":"Bascule","ag":["Réseau interurbain - Haute-Vienne (87)"],"lt":0,"dept":"87"}},{"type":"Feature","geometry":{"type":"Point","coordinates":[1.06972,45.6793]},"properties":{"nom":"Bourg","ag":["Réseau interurbain - Haute-Vienne (87)"],"lt":0,"dept":"87"}},{"type":"Feature","geometry":{"type":"Point","coordinates":[1.11461,45.87027]},"properties":{"nom":"La Bouteille","ag":["Réseau interurbain - Haute-Vienne (87)"],"lt":0,"dept":"87"}},{"type":"Feature","geometry":{"type":"Point","coordinates":[1.24032,45.82331]},"properties":{"nom":"Lycée Renoir","ag":["Réseau interurbain - Haute-Vienne (87)"],"lt":0,"dept":"87"}},{"type":"Feature","geometry":{"type":"Point","coordinates":[1.47573,45.70732]},"properties":{"nom":"Bourg","ag":["Réseau interurbain - Haute-Vienne (87)"],"lt":0,"dept":"87"}},{"type":"Feature","geometry":{"type":"Point","coordinates":[1.2136,45.71992]},"properties":{"nom":"Place de la Mairie","ag":["Réseau interurbain - Haute-Vienne (87)"],"lt":0,"dept":"87"}},{"type":"Feature","geometry":{"type":"Point","coordinates":[1.20354,45.77931]},"properties":{"nom":"Rue de la Gare","ag":["Réseau interurbain - Haute-Vienne (87)"],"lt":0,"dept":"87"}},{"type":"Feature","geometry":{"type":"Point","coordinates":[1.25327,45.83122]},"properties":{"nom":"Place W. Churchill F","ag":["Réseau interurbain - Haute-Vienne (87)"],"lt":0,"dept":"87"}},{"type":"Feature","geometry":{"type":"Point","coordinates":[1.05265,45.8929]},"properties":{"nom":"La Barre","ag":["Réseau interurbain - Haute-Vienne (87)"],"lt":0,"dept":"87"}},{"type":"Feature","geometry":{"type":"Point","coordinates":[0.91332,45.89587]},"properties":{"nom":"Av. d'Oradour/Glane","ag":["Réseau interurbain - Haute-Vienne (87)"],"lt":0,"dept":"87"}},{"type":"Feature","geometry":{"type":"Point","coordinates":[0.89739,45.8922]},"properties":{"nom":"SAINT-JUNIEN - BELLEVUE DE GLANE","ag":["Réseau interurbain - Haute-Vienne (87)"],"lt":0,"dept":"87"}},{"type":"Feature","geometry":{"type":"Point","coordinates":[1.22456,45.68308]},"properties":{"nom":"La Plaine","ag":["Réseau interurbain - Haute-Vienne (87)"],"lt":0,"dept":"87"}},{"type":"Feature","geometry":{"type":"Point","coordinates":[1.28477,45.8101]},"properties":{"nom":"Magré","ag":["Réseau interurbain - Haute-Vienne (87)"],"lt":0,"dept":"87"}},{"type":"Feature","geometry":{"type":"Point","coordinates":[0.90379,45.89045]},"properties":{"nom":"Champ de Foire","ag":["Réseau interurbain - Haute-Vienne (87)"],"lt":0,"dept":"87"}},{"type":"Feature","geometry":{"type":"Point","coordinates":[0.87774,45.7609]},"properties":{"nom":"Les Ollières","ag":["Réseau interurbain - Haute-Vienne (87)"],"lt":0,"dept":"87"}},{"type":"Feature","geometry":{"type":"Point","coordinates":[1.26079,45.82713]},"properties":{"nom":"Mairie Dumas","ag":["Réseau interurbain - Haute-Vienne (87)"],"lt":0,"dept":"87"}},{"type":"Feature","geometry":{"type":"Point","coordinates":[1.27468,45.82445]},"properties":{"nom":"Rue de Toulouse","ag":["Réseau interurbain - Haute-Vienne (87)"],"lt":0,"dept":"87"}},{"type":"Feature","geometry":{"type":"Point","coordinates":[1.04852,45.8399]},"properties":{"nom":"SAINT-YRIEIX-SOUS-AIXE - ERIN","ag":["Réseau interurbain - Haute-Vienne (87)"],"lt":0,"dept":"87"}},{"type":"Feature","geometry":{"type":"Point","coordinates":[1.25962,45.82747]},"properties":{"nom":"Mairie Gambetta","ag":["Réseau interurbain - Haute-Vienne (87)"],"lt":0,"dept":"87"}},{"type":"Feature","geometry":{"type":"Point","coordinates":[0.96192,45.90587]},"properties":{"nom":"Les Séguines","ag":["Réseau interurbain - Haute-Vienne (87)"],"lt":0,"dept":"87"}},{"type":"Feature","geometry":{"type":"Point","coordinates":[0.99795,45.90255]},"properties":{"nom":"La Malaise","ag":["Réseau interurbain - Haute-Vienne (87)"],"lt":0,"dept":"87"}},{"type":"Feature","geometry":{"type":"Point","coordinates":[0.8537,45.84652]},"properties":{"nom":"Les Plats","ag":["Réseau interurbain - Haute-Vienne (87)"],"lt":0,"dept":"87"}},{"type":"Feature","geometry":{"type":"Point","coordinates":[1.25441,45.83011]},"properties":{"nom":"Place d'Aine","ag":["Réseau interurbain - Haute-Vienne (87)"],"lt":0,"dept":"87"}},{"type":"Feature","geometry":{"type":"Point","coordinates":[0.90917,45.7846]},"properties":{"nom":"La Nouzille","ag":["Réseau interurbain - Haute-Vienne (87)"],"lt":0,"dept":"87"}},{"type":"Feature","geometry":{"type":"Point","coordinates":[1.22821,45.83418]},"properties":{"nom":"Armand Dutreix","ag":["Réseau interurbain - Haute-Vienne (87)"],"lt":0,"dept":"87"}},{"type":"Feature","geometry":{"type":"Point","coordinates":[1.22736,45.64447]},"properties":{"nom":"Le Pavillon","ag":["Réseau interurbain - Haute-Vienne (87)"],"lt":0,"dept":"87"}},{"type":"Feature","geometry":{"type":"Point","coordinates":[1.04763,45.82557]},"properties":{"nom":"Le Queyroix","ag":["Réseau interurbain - Haute-Vienne (87)"],"lt":0,"dept":"87"}},{"type":"Feature","geometry":{"type":"Point","coordinates":[1.51461,45.86033]},"properties":{"nom":"Eycouveaux","ag":["Réseau interurbain - Haute-Vienne (87)"],"lt":0,"dept":"87"}},{"type":"Feature","geometry":{"type":"Point","coordinates":[1.13068,45.79344]},"properties":{"nom":"Collège Parking","ag":["Réseau interurbain - Haute-Vienne (87)"],"lt":0,"dept":"87"}},{"type":"Feature","geometry":{"type":"Point","coordinates":[1.12749,45.79541]},"properties":{"nom":"AIXE-SUR-VIENNE - CHAMBORÊT","ag":["Réseau interurbain - Haute-Vienne (87)"],"lt":0,"dept":"87"}},{"type":"Feature","geometry":{"type":"Point","coordinates":[0.9,45.88174]},"properties":{"nom":"Gare","ag":["Réseau interurbain - Haute-Vienne (87)"],"lt":0,"dept":"87"}},{"type":"Feature","geometry":{"type":"Point","coordinates":[1.25515,45.82999]},"properties":{"nom":"Place d'Aine","ag":["Réseau interurbain - Haute-Vienne (87)"],"lt":0,"dept":"87"}},{"type":"Feature","geometry":{"type":"Point","coordinates":[1.11398,45.76318]},"properties":{"nom":"Le Poueix","ag":["Réseau interurbain - Haute-Vienne (87)"],"lt":0,"dept":"87"}},{"type":"Feature","geometry":{"type":"Point","coordinates":[1.11208,45.80809]},"properties":{"nom":"Tarnaud","ag":["Réseau interurbain - Haute-Vienne (87)"],"lt":0,"dept":"87"}},{"type":"Feature","geometry":{"type":"Point","coordinates":[1.09942,45.81674]},"properties":{"nom":"Pl. de la Poste","ag":["Réseau interurbain - Haute-Vienne (87)"],"lt":0,"dept":"87"}},{"type":"Feature","geometry":{"type":"Point","coordinates":[1.28923,45.75084]},"properties":{"nom":"Bourg","ag":["Réseau interurbain - Haute-Vienne (87)"],"lt":0,"dept":"87"}},{"type":"Feature","geometry":{"type":"Point","coordinates":[1.09425,45.81201]},"properties":{"nom":"Stade","ag":["Réseau interurbain - Haute-Vienne (87)"],"lt":0,"dept":"87"}},{"type":"Feature","geometry":{"type":"Point","coordinates":[1.28905,45.78582]},"properties":{"nom":"Les Pradilles","ag":["Réseau interurbain - Haute-Vienne (87)"],"lt":0,"dept":"87"}},{"type":"Feature","geometry":{"type":"Point","coordinates":[1.20367,45.51291]},"properties":{"nom":"Bd Hôtel de Ville","ag":["Réseau interurbain - Haute-Vienne (87)"],"lt":0,"dept":"87"}},{"type":"Feature","geometry":{"type":"Point","coordinates":[1.07324,45.81205]},"properties":{"nom":"Scierie","ag":["Réseau interurbain - Haute-Vienne (87)"],"lt":0,"dept":"87"}},{"type":"Feature","geometry":{"type":"Point","coordinates":[0.93393,45.80333]},"properties":{"nom":"Bourg","ag":["Réseau interurbain - Haute-Vienne (87)"],"lt":0,"dept":"87"}},{"type":"Feature","geometry":{"type":"Point","coordinates":[1.20683,45.55597]},"properties":{"nom":"Maison Neuve","ag":["Réseau interurbain - Haute-Vienne (87)"],"lt":0,"dept":"87"}},{"type":"Feature","geometry":{"type":"Point","coordinates":[1.21642,45.57954]},"properties":{"nom":"Croix de Marneix","ag":["Réseau interurbain - Haute-Vienne (87)"],"lt":0,"dept":"87"}},{"type":"Feature","geometry":{"type":"Point","coordinates":[0.95937,45.80027]},"properties":{"nom":"Bourg","ag":["Réseau interurbain - Haute-Vienne (87)"],"lt":0,"dept":"87"}},{"type":"Feature","geometry":{"type":"Point","coordinates":[1.21077,45.52435]},"properties":{"nom":"Arfeuille","ag":["Réseau interurbain - Haute-Vienne (87)"],"lt":0,"dept":"87"}},{"type":"Feature","geometry":{"type":"Point","coordinates":[1.22662,45.60917]},"properties":{"nom":"La Traverse","ag":["Réseau interurbain - Haute-Vienne (87)"],"lt":0,"dept":"87"}},{"type":"Feature","geometry":{"type":"Point","coordinates":[0.9091,45.78464]},"properties":{"nom":"La Nouzille","ag":["Réseau interurbain - Haute-Vienne (87)"],"lt":0,"dept":"87"}},{"type":"Feature","geometry":{"type":"Point","coordinates":[1.39957,45.95645]},"properties":{"nom":"Pl.de la Republique","ag":["Réseau interurbain - Haute-Vienne (87)"],"lt":0,"dept":"87"}},{"type":"Feature","geometry":{"type":"Point","coordinates":[1.37022,46.10969]},"properties":{"nom":"BESSINES-SUR-GARTEMPE - BOURG","ag":["Réseau interurbain - Haute-Vienne (87)"],"lt":0,"dept":"87"}},{"type":"Feature","geometry":{"type":"Point","coordinates":[0.8102,45.75968]},"properties":{"nom":"Bourg","ag":["Réseau interurbain - Haute-Vienne (87)"],"lt":0,"dept":"87"}},{"type":"Feature","geometry":{"type":"Point","coordinates":[1.28248,45.73947]},"properties":{"nom":"La Baisse","ag":["Réseau interurbain - Haute-Vienne (87)"],"lt":0,"dept":"87"}},{"type":"Feature","geometry":{"type":"Point","coordinates":[1.23558,45.69819]},"properties":{"nom":"Bourg","ag":["Réseau interurbain - Haute-Vienne (87)"],"lt":0,"dept":"87"}},{"type":"Feature","geometry":{"type":"Point","coordinates":[1.05164,45.81731]},"properties":{"nom":"Le Palais","ag":["Réseau interurbain - Haute-Vienne (87)"],"lt":0,"dept":"87"}},{"type":"Feature","geometry":{"type":"Point","coordinates":[1.25827,45.72769]},"properties":{"nom":"Route de Boissac","ag":["Réseau interurbain - Haute-Vienne (87)"],"lt":0,"dept":"87"}},{"type":"Feature","geometry":{"type":"Point","coordinates":[1.28933,45.75066]},"properties":{"nom":"Bourg","ag":["Réseau interurbain - Haute-Vienne (87)"],"lt":0,"dept":"87"}},{"type":"Feature","geometry":{"type":"Point","coordinates":[1.34541,46.03362]},"properties":{"nom":"Place André Duffraisse","ag":["Réseau interurbain - Haute-Vienne (87)"],"lt":0,"dept":"87"}},{"type":"Feature","geometry":{"type":"Point","coordinates":[1.17406,45.90395]},"properties":{"nom":"La Lande du Haut","ag":["Réseau interurbain - Haute-Vienne (87)"],"lt":0,"dept":"87"}},{"type":"Feature","geometry":{"type":"Point","coordinates":[1.3454,46.03361]},"properties":{"nom":"Place André Duffraisse","ag":["Réseau interurbain - Haute-Vienne (87)"],"lt":0,"dept":"87"}},{"type":"Feature","geometry":{"type":"Point","coordinates":[1.13069,45.79342]},"properties":{"nom":"Collège Parking","ag":["Réseau interurbain - Haute-Vienne (87)"],"lt":0,"dept":"87"}},{"type":"Feature","geometry":{"type":"Point","coordinates":[1.25349,45.83136]},"properties":{"nom":"Place W. Churchill G","ag":["Réseau interurbain - Haute-Vienne (87)"],"lt":0,"dept":"87"}},{"type":"Feature","geometry":{"type":"Point","coordinates":[1.17545,45.92666]},"properties":{"nom":"Les Lavandières","ag":["Réseau interurbain - Haute-Vienne (87)"],"lt":0,"dept":"87"}},{"type":"Feature","geometry":{"type":"Point","coordinates":[1.17788,45.89208]},"properties":{"nom":"St Martin du Fault","ag":["Réseau interurbain - Haute-Vienne (87)"],"lt":0,"dept":"87"}},{"type":"Feature","geometry":{"type":"Point","coordinates":[1.24965,45.82536]},"properties":{"nom":"Carrefour Beaupeyrat","ag":["Réseau interurbain - Haute-Vienne (87)"],"lt":0,"dept":"87"}},{"type":"Feature","geometry":{"type":"Point","coordinates":[1.24917,45.82]},"properties":{"nom":"Bellevue","ag":["Réseau interurbain - Haute-Vienne (87)"],"lt":0,"dept":"87"}},{"type":"Feature","geometry":{"type":"Point","coordinates":[1.22716,45.82443]},"properties":{"nom":"François Perrin","ag":["Réseau interurbain - Haute-Vienne (87)"],"lt":0,"dept":"87"}},{"type":"Feature","geometry":{"type":"Point","coordinates":[1.16856,45.91641]},"properties":{"nom":"Maison Neuve","ag":["Réseau interurbain - Haute-Vienne (87)"],"lt":0,"dept":"87"}},{"type":"Feature","geometry":{"type":"Point","coordinates":[1.21051,45.82121]},"properties":{"nom":"Les Courrières","ag":["Réseau interurbain - Haute-Vienne (87)"],"lt":0,"dept":"87"}},{"type":"Feature","geometry":{"type":"Point","coordinates":[1.08446,45.83219]},"properties":{"nom":"Chemin ferré","ag":["Réseau interurbain - Haute-Vienne (87)"],"lt":0,"dept":"87"}},{"type":"Feature","geometry":{"type":"Point","coordinates":[1.17045,45.92244]},"properties":{"nom":"La Bascule","ag":["Réseau interurbain - Haute-Vienne (87)"],"lt":0,"dept":"87"}},{"type":"Feature","geometry":{"type":"Point","coordinates":[1.24541,45.84759]},"properties":{"nom":"Rue de Bellac","ag":["Réseau interurbain - Haute-Vienne (87)"],"lt":0,"dept":"87"}},{"type":"Feature","geometry":{"type":"Point","coordinates":[1.10488,45.82331]},"properties":{"nom":"Font au Bru","ag":["Réseau interurbain - Haute-Vienne (87)"],"lt":0,"dept":"87"}},