{"type":"FeatureCollection","features":[{"type":"Feature","geometry":{"type":"Point","coordinates":[3.51268,47.96108]},"properties":{"nom":"Laroche - Migennes","ag":["SNCF Transilien","Réseaux urbains et interurbains d'Île-de-France Mobilités (IDFM)"],"lt":0,"dept":"89"}},{"type":"Feature","geometry":{"type":"Point","coordinates":[3.30276,48.02662]},"properties":{"nom":"Saint-Julien du Sault","ag":["SNCF Transilien","Réseaux urbains et interurbains d'Île-de-France Mobilités (IDFM)"],"lt":0,"dept":"89"}},{"type":"Feature","geometry":{"type":"Point","coordinates":[3.39367,47.97366]},"properties":{"nom":"Joigny","ag":["SNCF Transilien","Réseaux urbains et interurbains d'Île-de-France Mobilités (IDFM)"],"lt":0,"dept":"89"}},{"type":"Feature","geometry":{"type":"Point","coordinates":[3.2865,48.08521]},"properties":{"nom":"Villeneuve-sur-Yonne","ag":["SNCF Transilien","Réseaux urbains et interurbains d'Île-de-France Mobilités (IDFM)"],"lt":0,"dept":"89"}},{"type":"Feature","geometry":{"type":"Point","coordinates":[3.29008,48.13765]},"properties":{"nom":"Étigny - Véron","ag":["SNCF Transilien","Réseaux urbains et interurbains d'Île-de-France Mobilités (IDFM)"],"lt":0,"dept":"89"}},{"type":"Feature","geometry":{"type":"Point","coordinates":[3.20182,48.2862]},"properties":{"nom":"Pont-sur-Yonne","ag":["SNCF Transilien","Réseaux urbains et interurbains d'Île-de-France Mobilités (IDFM)"],"lt":0,"dept":"89"}},{"type":"Feature","geometry":{"type":"Point","coordinates":[3.13015,48.32421]},"properties":{"nom":"Champigny-sur-Yonne","ag":["SNCF Transilien","Réseaux urbains et interurbains d'Île-de-France Mobilités (IDFM)"],"lt":0,"dept":"89"}},{"type":"Feature","geometry":{"type":"Point","coordinates":[3.07202,48.34262]},"properties":{"nom":"Villeneuve-la-Guyard","ag":["SNCF Transilien","Réseaux urbains et interurbains d'Île-de-France Mobilités (IDFM)"],"lt":0,"dept":"89"}},{"type":"Feature","geometry":{"type":"Point","coordinates":[3.26738,48.19823]},"properties":{"nom":"Sens","ag":["SNCF Transilien","Réseaux urbains et interurbains d'Île-de-France Mobilités (IDFM)"],"lt":0,"dept":"89"}},{"type":"Feature","geometry":{"type":"Point","coordinates":[3.39335,47.97367]},"properties":{"nom":"Joigny","ag":["SNCF Transilien","Réseaux urbains et interurbains d'Île-de-France Mobilités (IDFM)"],"lt":0,"dept":"89"}},{"type":"Feature","geometry":{"type":"Point","coordinates":[3.2018,48.28628]},"properties":{"nom":"Pont-sur-Yonne","ag":["SNCF Transilien","Réseaux urbains et interurbains d'Île-de-France Mobilités (IDFM)"],"lt":0,"dept":"89"}},{"type":"Feature","geometry":{"type":"Point","coordinates":[3.5127,47.9612]},"properties":{"nom":"Laroche - Migennes","ag":["SNCF Transilien","Réseaux urbains et interurbains d'Île-de-France Mobilités (IDFM)"],"lt":0,"dept":"89"}},{"type":"Feature","geometry":{"type":"Point","coordinates":[3.12946,48.32432]},"properties":{"nom":"Champigny-sur-Yonne","ag":["SNCF Transilien","Réseaux urbains et interurbains d'Île-de-France Mobilités (IDFM)"],"lt":0,"dept":"89"}},{"type":"Feature","geometry":{"type":"Point","coordinates":[3.5127,47.96123]},"properties":{"nom":"Laroche - Migennes","ag":["SNCF Transilien","Réseaux urbains et interurbains d'Île-de-France Mobilités (IDFM)"],"lt":0,"dept":"89"}},{"type":"Feature","geometry":{"type":"Point","coordinates":[3.07223,48.34247]},"properties":{"nom":"Villeneuve-la-Guyard","ag":["SNCF Transilien","Réseaux urbains et interurbains d'Île-de-France Mobilités (IDFM)"],"lt":0,"dept":"89"}},{"type":"Feature","geometry":{"type":"Point","coordinates":[3.39335,47.97363]},"properties":{"nom":"Joigny","ag":["SNCF Transilien","Réseaux urbains et interurbains d'Île-de-France Mobilités (IDFM)"],"lt":0,"dept":"89"}},{"type":"Feature","geometry":{"type":"Point","coordinates":[3.5845,47.79662]},"properties":{"nom":"Auxerre","ag":["Réseau européen FlixBus et FlixTrain"],"lt":0,"dept":"89"}},{"type":"Feature","geometry":{"type":"Point","coordinates":[3.27587,48.36646]},"properties":{"nom":"Compigny","ag":["Réseaux urbains et interurbains d'Île-de-France Mobilités (IDFM)"],"lt":0,"dept":"89"}},{"type":"Feature","geometry":{"type":"Point","coordinates":[3.27586,48.36649]},"properties":{"nom":"Compigny","ag":["Réseaux urbains et interurbains d'Île-de-France Mobilités (IDFM)"],"lt":0,"dept":"89"}},{"type":"Feature","geometry":{"type":"Point","coordinates":[3.27586,48.36648]},"properties":{"nom":"Compigny","ag":["Réseaux urbains et interurbains d'Île-de-France Mobilités (IDFM)"],"lt":1,"dept":"89"}},{"type":"Feature","geometry":{"type":"Point","coordinates":[3.32238,48.04493]},"properties":{"nom":"Armeau - Mairie Abri","ag":["Réseau urbain Intercom"],"lt":0,"dept":"89"}},{"type":"Feature","geometry":{"type":"Point","coordinates":[3.34199,48.05278]},"properties":{"nom":"Armeau - Grand Palteau Abri","ag":["Réseau urbain Intercom"],"lt":0,"dept":"89"}},{"type":"Feature","geometry":{"type":"Point","coordinates":[3.36506,48.04574]},"properties":{"nom":"Armeau - Petit Palteau Abri","ag":["Réseau urbain Intercom"],"lt":0,"dept":"89"}},{"type":"Feature","geometry":{"type":"Point","coordinates":[3.37982,48.09684]},"properties":{"nom":"Les Bordes - Abri","ag":["Réseau urbain Intercom"],"lt":0,"dept":"89"}},{"type":"Feature","geometry":{"type":"Point","coordinates":[3.37025,48.11613]},"properties":{"nom":"Les Bordes - Bois Bourdin","ag":["Réseau urbain Intercom"],"lt":0,"dept":"89"}},{"type":"Feature","geometry":{"type":"Point","coordinates":[3.40503,48.10057]},"properties":{"nom":"Les Bordes - Clos Aubry","ag":["Réseau urbain Intercom"],"lt":0,"dept":"89"}},{"type":"Feature","geometry":{"type":"Point","coordinates":[3.38051,48.09865]},"properties":{"nom":"Les Bordes - Ecole","ag":["Réseau urbain Intercom"],"lt":0,"dept":"89"}},{"type":"Feature","geometry":{"type":"Point","coordinates":[3.38853,48.12563]},"properties":{"nom":"Les Bordes - La Grainerie","ag":["Réseau urbain Intercom"],"lt":0,"dept":"89"}},{"type":"Feature","geometry":{"type":"Point","coordinates":[3.3591,48.11074]},"properties":{"nom":"Les Bordes - Jumeau","ag":["Réseau urbain Intercom"],"lt":0,"dept":"89"}},{"type":"Feature","geometry":{"type":"Point","coordinates":[3.39984,48.1217]},"properties":{"nom":"Les Bordes - Maurepas","ag":["Réseau urbain Intercom"],"lt":0,"dept":"89"}},{"type":"Feature","geometry":{"type":"Point","coordinates":[3.24743,48.22433]},"properties":{"nom":"Les Bordes","ag":["Réseau urbain Intercom"],"lt":0,"dept":"89"}},{"type":"Feature","geometry":{"type":"Point","coordinates":[3.24737,48.22437]},"properties":{"nom":"Les Bordes","ag":["Réseau urbain Intercom"],"lt":0,"dept":"89"}},{"type":"Feature","geometry":{"type":"Point","coordinates":[3.25282,48.22573]},"properties":{"nom":"Courtois Ecole","ag":["Réseau urbain Intercom"],"lt":0,"dept":"89"}},{"type":"Feature","geometry":{"type":"Point","coordinates":[3.25174,48.22548]},"properties":{"nom":"Courtois Ecole","ag":["Réseau urbain Intercom"],"lt":0,"dept":"89"}},{"type":"Feature","geometry":{"type":"Point","coordinates":[3.26014,48.22625]},"properties":{"nom":"La Fontaine","ag":["Réseau urbain Intercom"],"lt":0,"dept":"89"}},{"type":"Feature","geometry":{"type":"Point","coordinates":[3.26022,48.22664]},"properties":{"nom":"La Fontaine","ag":["Réseau urbain Intercom"],"lt":0,"dept":"89"}},{"type":"Feature","geometry":{"type":"Point","coordinates":[3.41254,48.08311]},"properties":{"nom":"Dixmont - Abri Rue D'eichtal","ag":["Réseau urbain Intercom"],"lt":0,"dept":"89"}},{"type":"Feature","geometry":{"type":"Point","coordinates":[3.37648,48.0452]},"properties":{"nom":"Dixmont - Les Bauquins","ag":["Réseau urbain Intercom"],"lt":0,"dept":"89"}},{"type":"Feature","geometry":{"type":"Point","coordinates":[3.38695,48.05922]},"properties":{"nom":"Dixmont - Les Bruleries","ag":["Réseau urbain Intercom"],"lt":0,"dept":"89"}},{"type":"Feature","geometry":{"type":"Point","coordinates":[3.41484,48.08217]},"properties":{"nom":"Dixmont - Ecole","ag":["Réseau urbain Intercom"],"lt":0,"dept":"89"}},{"type":"Feature","geometry":{"type":"Point","coordinates":[3.4446,48.08944]},"properties":{"nom":"Dixmont - Grange Bertin","ag":["Réseau urbain Intercom"],"lt":0,"dept":"89"}},{"type":"Feature","geometry":{"type":"Point","coordinates":[3.42413,48.10789]},"properties":{"nom":"Dixmont - Grange Pourrain","ag":["Réseau urbain Intercom"],"lt":0,"dept":"89"}},{"type":"Feature","geometry":{"type":"Point","coordinates":[3.45218,48.07644]},"properties":{"nom":"DIXMONT-LA GRANDE VALLEE","ag":["Réseau urbain Intercom"],"lt":0,"dept":"89"}},{"type":"Feature","geometry":{"type":"Point","coordinates":[3.45531,48.09272]},"properties":{"nom":"Dixmont - La Bordes à la Gousse","ag":["Réseau urbain Intercom"],"lt":0,"dept":"89"}},{"type":"Feature","geometry":{"type":"Point","coordinates":[3.46265,48.10348]},"properties":{"nom":"Dixmont - Pimancon","ag":["Réseau urbain Intercom"],"lt":0,"dept":"89"}},{"type":"Feature","geometry":{"type":"Point","coordinates":[3.43711,48.06098]},"properties":{"nom":"Dixmont - Les Tuileries","ag":["Réseau urbain Intercom"],"lt":0,"dept":"89"}},{"type":"Feature","geometry":{"type":"Point","coordinates":[3.44833,48.0838]},"properties":{"nom":"Dixmont - Vaulevrier","ag":["Réseau urbain Intercom"],"lt":0,"dept":"89"}},{"type":"Feature","geometry":{"type":"Point","coordinates":[3.29075,48.13737]},"properties":{"nom":"Etigny - Gare","ag":["Réseau urbain Intercom"],"lt":0,"dept":"89"}},{"type":"Feature","geometry":{"type":"Point","coordinates":[3.27894,48.13167]},"properties":{"nom":"Etigny - Place des Tilleuls","ag":["Réseau urbain Intercom"],"lt":0,"dept":"89"}},{"type":"Feature","geometry":{"type":"Point","coordinates":[3.25747,48.16072]},"properties":{"nom":"Croix de Pierre","ag":["Réseau urbain Intercom"],"lt":0,"dept":"89"}},{"type":"Feature","geometry":{"type":"Point","coordinates":[3.25947,48.1567]},"properties":{"nom":"Gron Centre","ag":["Réseau urbain Intercom"],"lt":0,"dept":"89"}},{"type":"Feature","geometry":{"type":"Point","coordinates":[3.25927,48.15678]},"properties":{"nom":"Gron Centre","ag":["Réseau urbain Intercom"],"lt":0,"dept":"89"}},{"type":"Feature","geometry":{"type":"Point","coordinates":[3.26472,48.15548]},"properties":{"nom":"Croix Jacquelin","ag":["Réseau urbain Intercom"],"lt":0,"dept":"89"}},{"type":"Feature","geometry":{"type":"Point","coordinates":[3.26466,48.1554]},"properties":{"nom":"Croix Jacquelin","ag":["Réseau urbain Intercom"],"lt":0,"dept":"89"}},{"type":"Feature","geometry":{"type":"Point","coordinates":[3.25445,48.15758]},"properties":{"nom":"Gron Damiettes","ag":["Réseau urbain Intercom"],"lt":0,"dept":"89"}},{"type":"Feature","geometry":{"type":"Point","coordinates":[3.25436,48.15762]},"properties":{"nom":"Gron Damiettes","ag":["Réseau urbain Intercom"],"lt":0,"dept":"89"}},{"type":"Feature","geometry":{"type":"Point","coordinates":[3.2661,48.14552]},"properties":{"nom":"Les Epenards","ag":["Réseau urbain Intercom"],"lt":0,"dept":"89"}},{"type":"Feature","geometry":{"type":"Point","coordinates":[3.266,48.14553]},"properties":{"nom":"Les Epenards","ag":["Réseau urbain Intercom"],"lt":0,"dept":"89"}},{"type":"Feature","geometry":{"type":"Point","coordinates":[3.26407,48.16021]},"properties":{"nom":"Gron Mairie","ag":["Réseau urbain Intercom"],"lt":0,"dept":"89"}},{"type":"Feature","geometry":{"type":"Point","coordinates":[3.26395,48.16032]},"properties":{"nom":"Gron Mairie","ag":["Réseau urbain Intercom"],"lt":0,"dept":"89"}},{"type":"Feature","geometry":{"type":"Point","coordinates":[3.26676,48.15938]},"properties":{"nom":"Salle Polyvalente","ag":["Réseau urbain Intercom"],"lt":0,"dept":"89"}},{"type":"Feature","geometry":{"type":"Point","coordinates":[3.26679,48.15941]},"properties":{"nom":"Salle Polyvalente","ag":["Réseau urbain Intercom"],"lt":0,"dept":"89"}},{"type":"Feature","geometry":{"type":"Point","coordinates":[3.26089,48.17205]},"properties":{"nom":"Route de Sens","ag":["Réseau urbain Intercom"],"lt":0,"dept":"89"}},{"type":"Feature","geometry":{"type":"Point","coordinates":[3.26173,48.17067]},"properties":{"nom":"Route de Sens","ag":["Réseau urbain Intercom"],"lt":0,"dept":"89"}},{"type":"Feature","geometry":{"type":"Point","coordinates":[3.3797,48.0966]},"properties":{"nom":"Abri","ag":["Réseau urbain Intercom"],"lt":0,"dept":"89"}},{"type":"Feature","geometry":{"type":"Point","coordinates":[3.37962,48.09662]},"properties":{"nom":"Abri","ag":["Réseau urbain Intercom"],"lt":0,"dept":"89"}},{"type":"Feature","geometry":{"type":"Point","coordinates":[3.3589,48.1096]},"properties":{"nom":"Jumeau","ag":["Réseau urbain Intercom"],"lt":0,"dept":"89"}},{"type":"Feature","geometry":{"type":"Point","coordinates":[3.35896,48.10959]},"properties":{"nom":"Jumeau","ag":["Réseau urbain Intercom"],"lt":0,"dept":"89"}},{"type":"Feature","geometry":{"type":"Point","coordinates":[3.2954,48.18019]},"properties":{"nom":"Saule Fendu","ag":["Réseau urbain Intercom"],"lt":0,"dept":"89"}},{"type":"Feature","geometry":{"type":"Point","coordinates":[3.29551,48.18019]},"properties":{"nom":"Saule Fendu","ag":["Réseau urbain Intercom"],"lt":0,"dept":"89"}},{"type":"Feature","geometry":{"type":"Point","coordinates":[3.3073,48.17671]},"properties":{"nom":"Grande Rue","ag":["Réseau urbain Intercom"],"lt":0,"dept":"89"}},{"type":"Feature","geometry":{"type":"Point","coordinates":[3.30656,48.17994]},"properties":{"nom":"Moulins","ag":["Réseau urbain Intercom"],"lt":0,"dept":"89"}},{"type":"Feature","geometry":{"type":"Point","coordinates":[3.30683,48.18037]},"properties":{"nom":"Moulins","ag":["Réseau urbain Intercom"],"lt":0,"dept":"89"}},{"type":"Feature","geometry":{"type":"Point","coordinates":[3.30824,48.17166]},"properties":{"nom":"Mésanges","ag":["Réseau urbain Intercom"],"lt":0,"dept":"89"}},{"type":"Feature","geometry":{"type":"Point","coordinates":[3.30553,48.17217]},"properties":{"nom":"Saint-Marc","ag":["Réseau urbain Intercom"],"lt":0,"dept":"89"}},{"type":"Feature","geometry":{"type":"Point","coordinates":[3.30111,48.17547]},"properties":{"nom":"Le Stade","ag":["Réseau urbain Intercom"],"lt":0,"dept":"89"}},{"type":"Feature","geometry":{"type":"Point","coordinates":[3.23396,48.13365]},"properties":{"nom":"Marsangy - Chaumes Place","ag":["Réseau urbain Intercom"],"lt":0,"dept":"89"}},{"type":"Feature","geometry":{"type":"Point","coordinates":[3.23421,48.11566]},"properties":{"nom":"Marsangy - Roussemeau Abri","ag":["Réseau urbain Intercom"],"lt":0,"dept":"89"}},{"type":"Feature","geometry":{"type":"Point","coordinates":[3.25431,48.11348]},"properties":{"nom":"Marsangy - 28 Rue des Haies","ag":["Réseau urbain Intercom"],"lt":0,"dept":"89"}},{"type":"Feature","geometry":{"type":"Point","coordinates":[3.39982,48.12293]},"properties":{"nom":"Maurepas","ag":["Réseau urbain Intercom"],"lt":0,"dept":"89"}},{"type":"Feature","geometry":{"type":"Point","coordinates":[3.30025,48.11054]},"properties":{"nom":"Passy Abri","ag":["Réseau urbain Intercom"],"lt":0,"dept":"89"}},{"type":"Feature","geometry":{"type":"Point","coordinates":[3.3027,48.1101]},"properties":{"nom":"Passy - Grande Rue Poteau Intercom","ag":["Réseau urbain Intercom"],"lt":0,"dept":"89"}},{"type":"Feature","geometry":{"type":"Point","coordinates":[3.3034,48.1102]},"properties":{"nom":"Passy - Grande Rue Poteau Intercom","ag":["Réseau urbain Intercom"],"lt":0,"dept":"89"}},{"type":"Feature","geometry":{"type":"Point","coordinates":[3.3054,48.11189]},"properties":{"nom":"Route de Beaujard","ag":["Réseau urbain Intercom"],"lt":0,"dept":"89"}},{"type":"Feature","geometry":{"type":"Point","coordinates":[3.30544,48.11189]},"properties":{"nom":"Route de Beaujard","ag":["Réseau urbain Intercom"],"lt":0,"dept":"89"}},{"type":"Feature","geometry":{"type":"Point","coordinates":[3.26163,48.19093]},"properties":{"nom":"Bas De Saint-Bond","ag":["Réseau urbain Intercom"],"lt":0,"dept":"89"}},{"type":"Feature","geometry":{"type":"Point","coordinates":[3.23585,48.18191]},"properties":{"nom":"Calmette","ag":["Réseau urbain Intercom"],"lt":0,"dept":"89"}},{"type":"Feature","geometry":{"type":"Point","coordinates":[3.2358,48.18195]},"properties":{"nom":"Calmette","ag":["Réseau urbain Intercom"],"lt":0,"dept":"89"}},{"type":"Feature","geometry":{"type":"Point","coordinates":[3.24721,48.18714]},"properties":{"nom":"Chauvot de Beauchêne","ag":["Réseau urbain Intercom"],"lt":0,"dept":"89"}},{"type":"Feature","geometry":{"type":"Point","coordinates":[3.25297,48.18681]},"properties":{"nom":"Paron Collège","ag":["Réseau urbain Intercom"],"lt":0,"dept":"89"}},{"type":"Feature","geometry":{"type":"Point","coordinates":[3.25274,48.18662]},"properties":{"nom":"Paron Collège","ag":["Réseau urbain Intercom"],"lt":0,"dept":"89"}},{"type":"Feature","geometry":{"type":"Point","coordinates":[3.2437,48.18358]},"properties":{"nom":"Château d'eau","ag":["Réseau urbain Intercom"],"lt":0,"dept":"89"}},{"type":"Feature","geometry":{"type":"Point","coordinates":[3.2437,48.18364]},"properties":{"nom":"Château d'Eau","ag":["Réseau urbain Intercom"],"lt":0,"dept":"89"}},{"type":"Feature","geometry":{"type":"Point","coordinates":[3.25299,48.18682]},"properties":{"nom":"Paron Collège","ag":["Réseau urbain Intercom"],"lt":0,"dept":"89"}},{"type":"Feature","geometry":{"type":"Point","coordinates":[3.25273,48.1866]},"properties":{"nom":"Paron Collège","ag":["Réseau urbain Intercom"],"lt":0,"dept":"89"}},{"type":"Feature","geometry":{"type":"Point","coordinates":[3.25308,48.18998]},"properties":{"nom":"Cerisiers","ag":["Réseau urbain Intercom"],"lt":0,"dept":"89"}},{"type":"Feature","geometry":{"type":"Point","coordinates":[3.21717,48.17807]},"properties":{"nom":"Les Fleuris","ag":["Réseau urbain Intercom"],"lt":0,"dept":"89"}},{"type":"Feature","geometry":{"type":"Point","coordinates":[3.21721,48.17806]},"properties":{"nom":"Les Fleuris","ag":["Réseau urbain Intercom"],"lt":0,"dept":"89"}},{"type":"Feature","geometry":{"type":"Point","coordinates":[3.26094,48.19171]},"properties":{"nom":"Fraternité","ag":["Réseau urbain Intercom"],"lt":0,"dept":"89"}},{"type":"Feature","geometry":{"type":"Point","coordinates":[3.22785,48.17842]},"properties":{"nom":"Les Gallots","ag":["Réseau urbain Intercom"],"lt":0,"dept":"89"}},{"type":"Feature","geometry":{"type":"Point","coordinates":[3.22784,48.1785]},"properties":{"nom":"Les Gallots","ag":["Réseau urbain Intercom"],"lt":0,"dept":"89"}},{"type":"Feature","geometry":{"type":"Point","coordinates":[3.26322,48.18962]},"properties":{"nom":"Paron Mairie","ag":["Réseau urbain Intercom"],"lt":0,"dept":"89"}},{"type":"Feature","geometry":{"type":"Point","coordinates":[3.26346,48.18987]},"properties":{"nom":"Paron Mairie","ag":["Réseau urbain Intercom"],"lt":0,"dept":"89"}},{"type":"Feature","geometry":{"type":"Point","coordinates":[3.21088,48.19461]},"properties":{"nom":"Les Joigneaux","ag":["Réseau urbain Intercom"],"lt":0,"dept":"89"}},{"type":"Feature","geometry":{"type":"Point","coordinates":[3.21086,48.19465]},"properties":{"nom":"Les Joigneaux","ag":["Réseau urbain Intercom"],"lt":0,"dept":"89"}},{"type":"Feature","geometry":{"type":"Point","coordinates":[3.25952,48.19288]},"properties":{"nom":"Notre Dame","ag":["Réseau urbain Intercom"],"lt":0,"dept":"89"}},{"type":"Feature","geometry":{"type":"Point","coordinates":[3.25557,48.17924]},"properties":{"nom":"Paul Bert","ag":["Réseau urbain Intercom"],"lt":0,"dept":"89"}},{"type":"Feature","geometry":{"type":"Point","coordinates":[3.25529,48.17921]},"properties":{"nom":"Paul Bert","ag":["Réseau urbain Intercom"],"lt":0,"dept":"89"}},{"type":"Feature","geometry":{"type":"Point","coordinates":[3.23872,48.19355]},"properties":{"nom":"Provendiers","ag":["Réseau urbain Intercom"],"lt":0,"dept":"89"}},{"type":"Feature","geometry":{"type":"Point","coordinates":[3.23871,48.19353]},"properties":{"nom":"Provendiers","ag":["Réseau urbain Intercom"],"lt":0,"dept":"89"}},{"type":"Feature","geometry":{"type":"Point","coordinates":[3.24107,48.1884]},"properties":{"nom":"Les Puits","ag":["Réseau urbain Intercom"],"lt":0,"dept":"89"}},{"type":"Feature","geometry":{"type":"Point","coordinates":[3.24108,48.18836]},"properties":{"nom":"Les Puits","ag":["Réseau urbain Intercom"],"lt":0,"dept":"89"}},{"type":"Feature","geometry":{"type":"Point","coordinates":[3.31152,48.1504]},"properties":{"nom":"Rosoy - Centre","ag":["Réseau urbain Intercom"],"lt":0,"dept":"89"}},{"type":"Feature","geometry":{"type":"Point","coordinates":[3.31142,48.15038]},"properties":{"nom":"Rosoy - Centre","ag":["Réseau urbain Intercom"],"lt":0,"dept":"89"}},{"type":"Feature","geometry":{"type":"Point","coordinates":[3.31414,48.14644]},"properties":{"nom":"Rosoy Entrée","ag":["Réseau urbain Intercom"],"lt":0,"dept":"89"}},{"type":"Feature","geometry":{"type":"Point","coordinates":[3.31403,48.14607]},"properties":{"nom":"Rosoy Entrée","ag":["Réseau urbain Intercom"],"lt":0,"dept":"89"}},{"type":"Feature","geometry":{"type":"Point","coordinates":[3.31142,48.1488]},"properties":{"nom":"Rosoy Mairie","ag":["Réseau urbain Intercom"],"lt":0,"dept":"89"}},{"type":"Feature","geometry":{"type":"Point","coordinates":[3.31134,48.1488]},"properties":{"nom":"Rosoy Mairie","ag":["Réseau urbain Intercom"],"lt":0,"dept":"89"}},{"type":"Feature","geometry":{"type":"Point","coordinates":[3.2782,48.21652]},"properties":{"nom":"C/C Nord","ag":["Réseau urbain Intercom"],"lt":0,"dept":"89"}},{"type":"Feature","geometry":{"type":"Point","coordinates":[3.27586,48.2123]},"properties":{"nom":"Pôle Santé","ag":["Réseau urbain Intercom"],"lt":0,"dept":"89"}},{"type":"Feature","geometry":{"type":"Point","coordinates":[3.30667,48.19668]},"properties":{"nom":"08-mai-45","ag":["Réseau urbain Intercom"],"lt":0,"dept":"89"}},{"type":"Feature","geometry":{"type":"Point","coordinates":[3.30666,48.19675]},"properties":{"nom":"08-mai-45","ag":["Réseau urbain Intercom"],"lt":0,"dept":"89"}},{"type":"Feature","geometry":{"type":"Point","coordinates":[3.30162,48.19534]},"properties":{"nom":"Pierre de Coubertin","ag":["Réseau urbain Intercom"],"lt":0,"dept":"89"}},{"type":"Feature","geometry":{"type":"Point","coordinates":[3.30158,48.19534]},"properties":{"nom":"Pierre de Coubertin","ag":["Réseau urbain Intercom"],"lt":0,"dept":"89"}},{"type":"Feature","geometry":{"type":"Point","coordinates":[3.29761,48.19774]},"properties":{"nom":"CCAS","ag":["Réseau urbain Intercom"],"lt":0,"dept":"89"}},{"type":"Feature","geometry":{"type":"Point","coordinates":[3.29766,48.19762]},"properties":{"nom":"CCAS","ag":["Réseau urbain Intercom"],"lt":0,"dept":"89"}},{"type":"Feature","geometry":{"type":"Point","coordinates":[3.30196,48.19274]},"properties":{"nom":"Sens - Collège Champs Plaisants","ag":["Réseau urbain Intercom"],"lt":0,"dept":"89"}},{"type":"Feature","geometry":{"type":"Point","coordinates":[3.2922,48.20243]},"properties":{"nom":"Chaillots","ag":["Réseau urbain Intercom"],"lt":0,"dept":"89"}},{"type":"Feature","geometry":{"type":"Point","coordinates":[3.29227,48.20231]},"properties":{"nom":"Chaillots","ag":["Réseau urbain Intercom"],"lt":0,"dept":"89"}},{"type":"Feature","geometry":{"type":"Point","coordinates":[3.30574,48.18983]},"properties":{"nom":"Charmilles","ag":["Réseau urbain Intercom"],"lt":0,"dept":"89"}},{"type":"Feature","geometry":{"type":"Point","coordinates":[3.30556,48.18987]},"properties":{"nom":"Charmilles","ag":["Réseau urbain Intercom"],"lt":0,"dept":"89"}},{"type":"Feature","geometry":{"type":"Point","coordinates":[3.26432,48.19931]},"properties":{"nom":"C/C Ouest","ag":["Réseau urbain Intercom"],"lt":0,"dept":"89"}},{"type":"Feature","geometry":{"type":"Point","coordinates":[3.26447,48.19925]},"properties":{"nom":"C/C Ouest","ag":["Réseau urbain Intercom"],"lt":0,"dept":"89"}},{"type":"Feature","geometry":{"type":"Point","coordinates":[3.30147,48.1922]},"properties":{"nom":"Champs Plaisants","ag":["Réseau urbain Intercom"],"lt":0,"dept":"89"}},{"type":"Feature","geometry":{"type":"Point","coordinates":[3.3015,48.19218]},"properties":{"nom":"Champs Plaisants","ag":["Réseau urbain Intercom"],"lt":0,"dept":"89"}},{"type":"Feature","geometry":{"type":"Point","coordinates":[3.3046,48.18765]},"properties":{"nom":"C/C Sud","ag":["Réseau urbain Intercom"],"lt":0,"dept":"89"}},{"type":"Feature","geometry":{"type":"Point","coordinates":[3.30454,48.18762]},"properties":{"nom":"C/C Sud","ag":["Réseau urbain Intercom"],"lt":0,"dept":"89"}},{"type":"Feature","geometry":{"type":"Point","coordinates":[3.26212,48.19519]},"properties":{"nom":"Pierre Curie","ag":["Réseau urbain Intercom"],"lt":0,"dept":"89"}},{"type":"Feature","geometry":{"type":"Point","coordinates":[3.29462,48.196]},"properties":{"nom":"Etoile","ag":["Réseau urbain Intercom"],"lt":0,"dept":"89"}},{"type":"Feature","geometry":{"type":"Point","coordinates":[3.29443,48.19601]},"properties":{"nom":"Etoile","ag":["Réseau urbain Intercom"],"lt":0,"dept":"89"}},{"type":"Feature","geometry":{"type":"Point","coordinates":[3.28203,48.1994]},"properties":{"nom":"Garibaldi","ag":["Réseau urbain Intercom"],"lt":0,"dept":"89"}},{"type":"Feature","geometry":{"type":"Point","coordinates":[3.28155,48.19983]},"properties":{"nom":"Garibaldi","ag":["Réseau urbain Intercom"],"lt":0,"dept":"89"}},{"type":"Feature","geometry":{"type":"Point","coordinates":[3.29851,48.20112]},"properties":{"nom":"Gaillons","ag":["Réseau urbain Intercom"],"lt":0,"dept":"89"}},{"type":"Feature","geometry":{"type":"Point","coordinates":[3.2985,48.20101]},"properties":{"nom":"Gaillons","ag":["Réseau urbain Intercom"],"lt":0,"dept":"89"}},{"type":"Feature","geometry":{"type":"Point","coordinates":[3.29973,48.19254]},"properties":{"nom":"Hôpital","ag":["Réseau urbain Intercom"],"lt":0,"dept":"89"}},{"type":"Feature","geometry":{"type":"Point","coordinates":[3.29967,48.19256]},"properties":{"nom":"Hôpital","ag":["Réseau urbain Intercom"],"lt":0,"dept":"89"}},{"type":"Feature","geometry":{"type":"Point","coordinates":[3.27728,48.19814]},"properties":{"nom":"Jean Moulin","ag":["Réseau urbain Intercom"],"lt":0,"dept":"89"}},{"type":"Feature","geometry":{"type":"Point","coordinates":[3.27698,48.19822]},"properties":{"nom":"Jean Moulin","ag":["Réseau urbain Intercom"],"lt":0,"dept":"89"}},{"type":"Feature","geometry":{"type":"Point","coordinates":[3.2789,48.20408]},"properties":{"nom":"Leclerc","ag":["Réseau urbain Intercom"],"lt":0,"dept":"89"}},{"type":"Feature","geometry":{"type":"Point","coordinates":[3.30353,48.20067]},"properties":{"nom":"Lycées","ag":["Réseau urbain Intercom"],"lt":0,"dept":"89"}},{"type":"Feature","geometry":{"type":"Point","coordinates":[3.30341,48.2006]},"properties":{"nom":"Lycées","ag":["Réseau urbain Intercom"],"lt":0,"dept":"89"}},{"type":"Feature","geometry":{"type":"Point","coordinates":[3.30437,48.20081]},"properties":{"nom":"Sens - Lycée polyvalent – Place Walesa","ag":["Réseau urbain Intercom"],"lt":0,"dept":"89"}},{"type":"Feature","geometry":{"type":"Point","coordinates":[3.28799,48.19977]},"properties":{"nom":"Mallarmé","ag":["Réseau urbain Intercom"],"lt":0,"dept":"89"}},{"type":"Feature","geometry":{"type":"Point","coordinates":[3.28796,48.19934]},"properties":{"nom":"Mallarmé","ag":["Réseau urbain Intercom"],"lt":0,"dept":"89"}},{"type":"Feature","geometry":{"type":"Point","coordinates":[3.30698,48.19825]},"properties":{"nom":"Marne","ag":["Réseau urbain Intercom"],"lt":0,"dept":"89"}},{"type":"Feature","geometry":{"type":"Point","coordinates":[3.30686,48.19826]},"properties":{"nom":"Marne","ag":["Réseau urbain Intercom"],"lt":0,"dept":"89"}},{"type":"Feature","geometry":{"type":"Point","coordinates":[3.29409,48.17199]},"properties":{"nom":"Porte de Bourgogne","ag":["Réseau urbain Intercom"],"lt":0,"dept":"89"}},{"type":"Feature","geometry":{"type":"Point","coordinates":[3.29009,48.19758]},"properties":{"nom":"Sens - Place des Héros","ag":["Réseau urbain Intercom"],"lt":0,"dept":"89"}},{"type":"Feature","geometry":{"type":"Point","coordinates":[3.29107,48.19735]},"properties":{"nom":"Place des Héros","ag":["Réseau urbain Intercom"],"lt":0,"dept":"89"}},{"type":"Feature","geometry":{"type":"Point","coordinates":[3.29099,48.1973]},"properties":{"nom":"Place des Héros","ag":["Réseau urbain Intercom"],"lt":0,"dept":"89"}},{"type":"Feature","geometry":{"type":"Point","coordinates":[3.27699,48.20807]},"properties":{"nom":"Pompidou","ag":["Réseau urbain Intercom"],"lt":0,"dept":"89"}},{"type":"Feature","geometry":{"type":"Point","coordinates":[3.26523,48.19552]},"properties":{"nom":"Patton","ag":["Réseau urbain Intercom"],"lt":0,"dept":"89"}},{"type":"Feature","geometry":{"type":"Point","coordinates":[3.26561,48.1942]},"properties":{"nom":"La Paix","ag":["Réseau urbain Intercom"],"lt":0,"dept":"89"}},{"type":"Feature","geometry":{"type":"Point","coordinates":[3.26547,48.1941]},"properties":{"nom":"La Paix","ag":["Réseau urbain Intercom"],"lt":0,"dept":"89"}},{"type":"Feature","geometry":{"type":"Point","coordinates":[3.29323,48.20709]},"properties":{"nom":"Lycée Saint Etienne","ag":["Réseau urbain Intercom"],"lt":0,"dept":"89"}},{"type":"Feature","geometry":{"type":"Point","coordinates":[3.29313,48.20705]},"properties":{"nom":"Lycée Saint Etienne","ag":["Réseau urbain Intercom"],"lt":0,"dept":"89"}},{"type":"Feature","geometry":{"type":"Point","coordinates":[3.2754,48.19746]},"properties":{"nom":"Saint-Maurice","ag":["Réseau urbain Intercom"],"lt":0,"dept":"89"}},{"type":"Feature","geometry":{"type":"Point","coordinates":[3.2755,48.19751]},"properties":{"nom":"Saint-Maurice","ag":["Réseau urbain Intercom"],"lt":0,"dept":"89"}},{"type":"Feature","geometry":{"type":"Point","coordinates":[3.26903,48.19652]},"properties":{"nom":"Gare SNCF Sens","ag":["Réseau urbain Intercom"],"lt":0,"dept":"89"}},{"type":"Feature","geometry":{"type":"Point","coordinates":[3.26826,48.19712]},"properties":{"nom":"Gare SNCF Sens","ag":["Réseau urbain Intercom"],"lt":0,"dept":"89"}},{"type":"Feature","geometry":{"type":"Point","coordinates":[3.27201,48.19792]},"properties":{"nom":"Vauban","ag":["Réseau urbain Intercom"],"lt":0,"dept":"89"}},{"type":"Feature","geometry":{"type":"Point","coordinates":[3.29357,48.20412]},"properties":{"nom":"Verdun","ag":["Réseau urbain Intercom"],"lt":0,"dept":"89"}},{"type":"Feature","geometry":{"type":"Point","coordinates":[3.29337,48.20409]},"properties":{"nom":"Verdun","ag":["Réseau urbain Intercom"],"lt":0,"dept":"89"}},{"type":"Feature","geometry":{"type":"Point","coordinates":[3.272,48.19762]},"properties":{"nom":"Zola","ag":["Réseau urbain Intercom"],"lt":0,"dept":"89"}},{"type":"Feature","geometry":{"type":"Point","coordinates":[3.24095,48.19738]},"properties":{"nom":"Centre Aéré","ag":["Réseau urbain Intercom"],"lt":0,"dept":"89"}},{"type":"Feature","geometry":{"type":"Point","coordinates":[3.24091,48.19745]},"properties":{"nom":"Centre Aéré","ag":["Réseau urbain Intercom"],"lt":0,"dept":"89"}},{"type":"Feature","geometry":{"type":"Point","coordinates":[3.26107,48.21272]},"properties":{"nom":"Chaudron","ag":["Réseau urbain Intercom"],"lt":0,"dept":"89"}},{"type":"Feature","geometry":{"type":"Point","coordinates":[3.261,48.21276]},"properties":{"nom":"Chaudron","ag":["Réseau urbain Intercom"],"lt":0,"dept":"89"}},{"type":"Feature","geometry":{"type":"Point","coordinates":[3.26186,48.21826]},"properties":{"nom":"Saint-Martin Colonnes","ag":["Réseau urbain Intercom"],"lt":0,"dept":"89"}},{"type":"Feature","geometry":{"type":"Point","coordinates":[3.2619,48.21826]},"properties":{"nom":"Saint-Martin Colonnes","ag":["Réseau urbain Intercom"],"lt":0,"dept":"89"}},{"type":"Feature","geometry":{"type":"Point","coordinates":[3.25689,48.21088]},"properties":{"nom":"Caves","ag":["Réseau urbain Intercom"],"lt":0,"dept":"89"}},{"type":"Feature","geometry":{"type":"Point","coordinates":[3.25688,48.21092]},"properties":{"nom":"Caves","ag":["Réseau urbain Intercom"],"lt":0,"dept":"89"}},{"type":"Feature","geometry":{"type":"Point","coordinates":[3.25637,48.21238]},"properties":{"nom":"Grande Rue","ag":["Réseau urbain Intercom"],"lt":0,"dept":"89"}},{"type":"Feature","geometry":{"type":"Point","coordinates":[3.2566,48.21232]},"properties":{"nom":"Grande Rue","ag":["Réseau urbain Intercom"],"lt":0,"dept":"89"}},{"type":"Feature","geometry":{"type":"Point","coordinates":[3.22249,48.19675]},"properties":{"nom":"Hameau Les Caves","ag":["Réseau urbain Intercom"],"lt":0,"dept":"89"}},{"type":"Feature","geometry":{"type":"Point","coordinates":[3.22251,48.19682]},"properties":{"nom":"Hameau Les Caves","ag":["Réseau urbain Intercom"],"lt":0,"dept":"89"}},{"type":"Feature","geometry":{"type":"Point","coordinates":[3.26124,48.21576]},"properties":{"nom":"Jules Ferry","ag":["Réseau urbain Intercom"],"lt":0,"dept":"89"}},{"type":"Feature","geometry":{"type":"Point","coordinates":[3.26119,48.2158]},"properties":{"nom":"Jules Ferry","ag":["Réseau urbain Intercom"],"lt":0,"dept":"89"}},{"type":"Feature","geometry":{"type":"Point","coordinates":[3.25607,48.21543]},"properties":{"nom":"Louise Michel","ag":["Réseau urbain Intercom"],"lt":0,"dept":"89"}},{"type":"Feature","geometry":{"type":"Point","coordinates":[3.2562,48.2155]},"properties":{"nom":"Louise Michel","ag":["Réseau urbain Intercom"],"lt":0,"dept":"89"}},{"type":"Feature","geometry":{"type":"Point","coordinates":[3.25848,48.218]},"properties":{"nom":"Saint-Martin Midi","ag":["Réseau urbain Intercom"],"lt":0,"dept":"89"}},{"type":"Feature","geometry":{"type":"Point","coordinates":[3.2584,48.21804]},"properties":{"nom":"Saint-Martin Midi","ag":["Réseau urbain Intercom"],"lt":0,"dept":"89"}},{"type":"Feature","geometry":{"type":"Point","coordinates":[3.34639,48.09504]},"properties":{"nom":"TALOUAN-ABRI","ag":["Réseau urbain Intercom"],"lt":0,"dept":"89"}},{"type":"Feature","geometry":{"type":"Point","coordinates":[3.34605,48.13337]},"properties":{"nom":"Valperonne","ag":["Réseau urbain Intercom"],"lt":0,"dept":"89"}},{"type":"Feature","geometry":{"type":"Point","coordinates":[3.30591,48.1301]},"properties":{"nom":"Veron Centre","ag":["Réseau urbain Intercom"],"lt":0,"dept":"89"}},{"type":"Feature","geometry":{"type":"Point","coordinates":[3.30591,48.13018]},"properties":{"nom":"Veron Centre","ag":["Réseau urbain Intercom"],"lt":0,"dept":"89"}},{"type":"Feature","geometry":{"type":"Point","coordinates":[3.34148,48.1186]},"properties":{"nom":"La Grange aux Doyens","ag":["Réseau urbain Intercom"],"lt":0,"dept":"89"}},{"type":"Feature","geometry":{"type":"Point","coordinates":[3.34154,48.11859]},"properties":{"nom":"La Grange aux Doyens","ag":["Réseau urbain Intercom"],"lt":0,"dept":"89"}},{"type":"Feature","geometry":{"type":"Point","coordinates":[3.2997,48.13162]},"properties":{"nom":"Lotissement 47 av Gare","ag":["Réseau urbain Intercom"],"lt":0,"dept":"89"}},{"type":"Feature","geometry":{"type":"Point","coordinates":[3.2997,48.1316]},"properties":{"nom":"Lotissement 47 av Gare","ag":["Réseau urbain Intercom"],"lt":0,"dept":"89"}},{"type":"Feature","geometry":{"type":"Point","coordinates":[3.33731,48.1274]},"properties":{"nom":"Puits Botin","ag":["Réseau urbain Intercom"],"lt":0,"dept":"89"}},{"type":"Feature","geometry":{"type":"Point","coordinates":[3.33727,48.12742]},"properties":{"nom":"Puits Botin","ag":["Réseau urbain Intercom"],"lt":0,"dept":"89"}},{"type":"Feature","geometry":{"type":"Point","coordinates":[3.3478,48.13296]},"properties":{"nom":"Veron - Valperonne","ag":["Réseau urbain Intercom"],"lt":0,"dept":"89"}},{"type":"Feature","geometry":{"type":"Point","coordinates":[3.30814,48.12627]},"properties":{"nom":"Villambert","ag":["Réseau urbain Intercom"],"lt":0,"dept":"89"}},{"type":"Feature","geometry":{"type":"Point","coordinates":[3.30817,48.12632]},"properties":{"nom":"Villambert","ag":["Réseau urbain Intercom"],"lt":0,"dept":"89"}},{"type":"Feature","geometry":{"type":"Point","coordinates":[3.29965,48.08294]},"properties":{"nom":"Villeneuve-sur-Yonne - Collège Chateaubriand","ag":["Réseau urbain Intercom"],"lt":0,"dept":"89"}},{"type":"Feature","geometry":{"type":"Point","coordinates":[3.29398,48.07981]},"properties":{"nom":"Villeneuve-sur-Yonne - Ecole Joubert","ag":["Réseau urbain Intercom"],"lt":0,"dept":"89"}},{"type":"Feature","geometry":{"type":"Point","coordinates":[3.32091,48.09561]},"properties":{"nom":"VILLENEUVE SUR YONNE-LE GRAND VAU","ag":["Réseau urbain Intercom"],"lt":0,"dept":"89"}},{"type":"Feature","geometry":{"type":"Point","coordinates":[3.31137,48.09519]},"properties":{"nom":"Villeneuve-sur-Yonne - Le Petit Vau","ag":["Réseau urbain Intercom"],"lt":0,"dept":"89"}},{"type":"Feature","geometry":{"type":"Point","coordinates":[3.27828,48.08516]},"properties":{"nom":"Villeneuve-sur-Yonne - Maternelle Les Sables Rouges","ag":["Réseau urbain Intercom"],"lt":0,"dept":"89"}},{"type":"Feature","geometry":{"type":"Point","coordinates":[3.29631,48.08332]},"properties":{"nom":"Villeneuve-sur-Yonne - Paul Bert","ag":["Réseau urbain Intercom"],"lt":0,"dept":"89"}},{"type":"Feature","geometry":{"type":"Point","coordinates":[3.34639,48.09504]},"properties":{"nom":"Villeneuve-sur-Yonne - Talouan","ag":["Réseau urbain Intercom"],"lt":0,"dept":"89"}},{"type":"Feature","geometry":{"type":"Point","coordinates":[3.3686,48.1175]},"properties":{"nom":"Bois Bourdin","ag":["Réseau urbain Intercom"],"lt":0,"dept":"89"}},{"type":"Feature","geometry":{"type":"Point","coordinates":[3.32645,48.10603]},"properties":{"nom":"Beaujard","ag":["Réseau urbain Intercom"],"lt":0,"dept":"89"}},{"type":"Feature","geometry":{"type":"Point","coordinates":[3.3265,48.106]},"properties":{"nom":"Beaujard","ag":["Réseau urbain Intercom"],"lt":0,"dept":"89"}},{"type":"Feature","geometry":{"type":"Point","coordinates":[3.32449,48.09542]},"properties":{"nom":"Le Grand Vau X des Côtes Blanches","ag":["Réseau urbain Intercom"],"lt":0,"dept":"89"}},{"type":"Feature","geometry":{"type":"Point","coordinates":[3.32444,48.09541]},"properties":{"nom":"Le Grand Vau X des Côtes Blanches","ag":["Réseau urbain Intercom"],"lt":0,"dept":"89"}},{"type":"Feature","geometry":{"type":"Point","coordinates":[3.2994,48.08368]},"properties":{"nom":"Collège Châteaubriand","ag":["Réseau urbain Intercom"],"lt":0,"dept":"89"}},{"type":"Feature","geometry":{"type":"Point","coordinates":[3.293,48.07557]},"properties":{"nom":"Les Egriselles","ag":["Réseau urbain Intercom"],"lt":0,"dept":"89"}},{"type":"Feature","geometry":{"type":"Point","coordinates":[3.29285,48.07526]},"properties":{"nom":"Les Egriselles","ag":["Réseau urbain Intercom"],"lt":0,"dept":"89"}},{"type":"Feature","geometry":{"type":"Point","coordinates":[3.2939,48.0799]},"properties":{"nom":"Ecole Joubert","ag":["Réseau urbain Intercom"],"lt":0,"dept":"89"}},{"type":"Feature","geometry":{"type":"Point","coordinates":[3.29586,48.0892]},"properties":{"nom":"Floral","ag":["Réseau urbain Intercom"],"lt":0,"dept":"89"}},{"type":"Feature","geometry":{"type":"Point","coordinates":[3.29578,48.08921]},"properties":{"nom":"Floral","ag":["Réseau urbain Intercom"],"lt":0,"dept":"89"}},{"type":"Feature","geometry":{"type":"Point","coordinates":[3.321,48.09641]},"properties":{"nom":"Le Grand Vau","ag":["Réseau urbain Intercom"],"lt":0,"dept":"89"}},{"type":"Feature","geometry":{"type":"Point","coordinates":[3.29636,48.08332]},"properties":{"nom":"Ecole Paul Bert","ag":["Réseau urbain Intercom"],"lt":0,"dept":"89"}},{"type":"Feature","geometry":{"type":"Point","coordinates":[3.29438,48.08202]},"properties":{"nom":"Carnot","ag":["Réseau urbain Intercom"],"lt":0,"dept":"89"}},{"type":"Feature","geometry":{"type":"Point","coordinates":[3.29431,48.08206]},"properties":{"nom":"Carnot","ag":["Réseau urbain Intercom"],"lt":0,"dept":"89"}},{"type":"Feature","geometry":{"type":"Point","coordinates":[3.3159,48.0954]},"properties":{"nom":"Le Petit Vau","ag":["Réseau urbain Intercom"],"lt":0,"dept":"89"}},{"type":"Feature","geometry":{"type":"Point","coordinates":[3.3481,48.1058]},"properties":{"nom":"Vaufoin-Mare","ag":["Réseau urbain Intercom"],"lt":0,"dept":"89"}},{"type":"Feature","geometry":{"type":"Point","coordinates":[3.34814,48.1058]},"properties":{"nom":"Vaufoin-Mare","ag":["Réseau urbain Intercom"],"lt":0,"dept":"89"}},{"type":"Feature","geometry":{"type":"Point","coordinates":[3.34164,48.17512]},"properties":{"nom":"Eglise","ag":["Réseau urbain Intercom"],"lt":0,"dept":"89"}},{"type":"Feature","geometry":{"type":"Point","coordinates":[3.34156,48.17513]},"properties":{"nom":"Eglise","ag":["Réseau urbain Intercom"],"lt":0,"dept":"89"}},{"type":"Feature","geometry":{"type":"Point","coordinates":[3.33367,48.18027]},"properties":{"nom":"Malay-Glycines","ag":["Réseau urbain Intercom"],"lt":0,"dept":"89"}},{"type":"Feature","geometry":{"type":"Point","coordinates":[3.33365,48.18022]},"properties":{"nom":"Malay-Glycines","ag":["Réseau urbain Intercom"],"lt":0,"dept":"89"}},{"type":"Feature","geometry":{"type":"Point","coordinates":[3.33919,48.17913]},"properties":{"nom":"Place de Sens","ag":["Réseau urbain Intercom"],"lt":0,"dept":"89"}},{"type":"Feature","geometry":{"type":"Point","coordinates":[3.33914,48.17909]},"properties":{"nom":"Place de Sens","ag":["Réseau urbain Intercom"],"lt":0,"dept":"89"}},{"type":"Feature","geometry":{"type":"Point","coordinates":[3.34433,48.1705]},"properties":{"nom":"Pasteur","ag":["Réseau urbain Intercom"],"lt":0,"dept":"89"}},{"type":"Feature","geometry":{"type":"Point","coordinates":[3.34429,48.17048]},"properties":{"nom":"Pasteur","ag":["Réseau urbain Intercom"],"lt":0,"dept":"89"}},{"type":"Feature","geometry":{"type":"Point","coordinates":[3.2441,48.17864]},"properties":{"nom":"Bocotte","ag":["Réseau urbain Intercom"],"lt":0,"dept":"89"}},{"type":"Feature","geometry":{"type":"Point","coordinates":[3.2441,48.17859]},"properties":{"nom":"Bocotte","ag":["Réseau urbain Intercom"],"lt":0,"dept":"89"}},{"type":"Feature","geometry":{"type":"Point","coordinates":[3.26158,48.19086]},"properties":{"nom":"Bas De Saint-Bond","ag":["Réseau urbain Intercom"],"lt":0,"dept":"89"}},{"type":"Feature","geometry":{"type":"Point","coordinates":[3.24716,48.18713]},"properties":{"nom":"Chauvot de Beauchêne","ag":["Réseau urbain Intercom"],"lt":0,"dept":"89"}},{"type":"Feature","geometry":{"type":"Point","coordinates":[3.29334,48.2067]},"properties":{"nom":"Clinique","ag":["Réseau urbain Intercom"],"lt":0,"dept":"89"}},{"type":"Feature","geometry":{"type":"Point","coordinates":[3.29349,48.20662]},"properties":{"nom":"Clinique","ag":["Réseau urbain Intercom"],"lt":0,"dept":"89"}},{"type":"Feature","geometry":{"type":"Point","coordinates":[3.23664,48.17866]},"properties":{"nom":"Colette","ag":["Réseau urbain Intercom"],"lt":0,"dept":"89"}},{"type":"Feature","geometry":{"type":"Point","coordinates":[3.23662,48.17869]},"properties":{"nom":"Colette","ag":["Réseau urbain Intercom"],"lt":0,"dept":"89"}},{"type":"Feature","geometry":{"type":"Point","coordinates":[3.25351,48.18995]},"properties":{"nom":"Cerisiers","ag":["Réseau urbain Intercom"],"lt":0,"dept":"89"}},{"type":"Feature","geometry":{"type":"Point","coordinates":[3.25349,48.1848]},"properties":{"nom":"Complexe R. Treille","ag":["Réseau urbain Intercom"],"lt":0,"dept":"89"}},{"type":"Feature","geometry":{"type":"Point","coordinates":[3.25336,48.18486]},"properties":{"nom":"Complexe R. Treille","ag":["Réseau urbain Intercom"],"lt":0,"dept":"89"}},{"type":"Feature","geometry":{"type":"Point","coordinates":[3.24189,48.18094]},"properties":{"nom":"Dunant","ag":["Réseau urbain Intercom"],"lt":0,"dept":"89"}},{"type":"Feature","geometry":{"type":"Point","coordinates":[3.24167,48.18084]},"properties":{"nom":"Dunant","ag":["Réseau urbain Intercom"],"lt":0,"dept":"89"}},{"type":"Feature","geometry":{"type":"Point","coordinates":[3.28374,48.22201]},"properties":{"nom":"Fontaine d'Azon","ag":["Réseau urbain Intercom"],"lt":0,"dept":"89"}},{"type":"Feature","geometry":{"type":"Point","coordinates":[3.28612,48.22182]},"properties":{"nom":"Fontaine d'Azon","ag":["Réseau urbain Intercom"],"lt":0,"dept":"89"}},{"type":"Feature","geometry":{"type":"Point","coordinates":[3.26099,48.19147]},"properties":{"nom":"Fraternité","ag":["Réseau urbain Intercom"],"lt":0,"dept":"89"}},{"type":"Feature","geometry":{"type":"Point","coordinates":[3.2917,48.21465]},"properties":{"nom":"Maison de l'Enfance","ag":["Réseau urbain Intercom"],"lt":0,"dept":"89"}},{"type":"Feature","geometry":{"type":"Point","coordinates":[3.29149,48.21437]},"properties":{"nom":"Maison de l'Enfance","ag":["Réseau urbain Intercom"],"lt":0,"dept":"89"}},{"type":"Feature","geometry":{"type":"Point","coordinates":[3.25951,48.19291]},"properties":{"nom":"Notre Dame","ag":["Réseau urbain Intercom"],"lt":0,"dept":"89"}},{"type":"Feature","geometry":{"type":"Point","coordinates":[3.24867,48.17928]},"properties":{"nom":"Parmentier","ag":["Réseau urbain Intercom"],"lt":0,"dept":"89"}},{"type":"Feature","geometry":{"type":"Point","coordinates":[3.25271,48.17946]},"properties":{"nom":"Rue du Clos","ag":["Réseau urbain Intercom"],"lt":0,"dept":"89"}},{"type":"Feature","geometry":{"type":"Point","coordinates":[3.25262,48.17945]},"properties":{"nom":"Rue du Clos","ag":["Réseau urbain Intercom"],"lt":0,"dept":"89"}},{"type":"Feature","geometry":{"type":"Point","coordinates":[3.24568,48.18158]},"properties":{"nom":"Rû Couvert","ag":["Réseau urbain Intercom"],"lt":0,"dept":"89"}},{"type":"Feature","geometry":{"type":"Point","coordinates":[3.24915,48.18304]},"properties":{"nom":"Rû Couvert","ag":["Réseau urbain Intercom"],"lt":0,"dept":"89"}},{"type":"Feature","geometry":{"type":"Point","coordinates":[3.23791,48.17787]},"properties":{"nom":"Rue Verte","ag":["Réseau urbain Intercom"],"lt":0,"dept":"89"}},{"type":"Feature","geometry":{"type":"Point","coordinates":[3.23797,48.17784]},"properties":{"nom":"Rue Verte","ag":["Réseau urbain Intercom"],"lt":0,"dept":"89"}},{"type":"Feature","geometry":{"type":"Point","coordinates":[3.29151,48.2191]},"properties":{"nom":"Saint Clément Ecole","ag":["Réseau urbain Intercom"],"lt":0,"dept":"89"}},{"type":"Feature","geometry":{"type":"Point","coordinates":[3.28597,48.21171]},"properties":{"nom":"Ballastière","ag":["Réseau urbain Intercom"],"lt":0,"dept":"89"}},{"type":"Feature","geometry":{"type":"Point","coordinates":[3.28609,48.2117]},"properties":{"nom":"Ballastière","ag":["Réseau urbain Intercom"],"lt":0,"dept":"89"}},{"type":"Feature","geometry":{"type":"Point","coordinates":[3.29985,48.21607]},"properties":{"nom":"Courlis","ag":["Réseau urbain Intercom"],"lt":0,"dept":"89"}},{"type":"Feature","geometry":{"type":"Point","coordinates":[3.29978,48.21606]},"properties":{"nom":"Courlis","ag":["Réseau urbain Intercom"],"lt":0,"dept":"89"}},{"type":"Feature","geometry":{"type":"Point","coordinates":[3.2921,48.21803]},"properties":{"nom":"De Gaulle","ag":["Réseau urbain Intercom"],"lt":0,"dept":"89"}},{"type":"Feature","geometry":{"type":"Point","coordinates":[3.28744,48.21782]},"properties":{"nom":"Saint Clément Eglise","ag":["Réseau urbain Intercom"],"lt":0,"dept":"89"}},{"type":"Feature","geometry":{"type":"Point","coordinates":[3.2824,48.21449]},"properties":{"nom":"La Gaillarde","ag":["Réseau urbain Intercom"],"lt":0,"dept":"89"}},{"type":"Feature","geometry":{"type":"Point","coordinates":[3.28233,48.21453]},"properties":{"nom":"La Gaillarde","ag":["Réseau urbain Intercom"],"lt":0,"dept":"89"}},{"type":"Feature","geometry":{"type":"Point","coordinates":[3.29723,48.21808]},"properties":{"nom":"Suzanne Guichard","ag":["Réseau urbain Intercom"],"lt":0,"dept":"89"}},{"type":"Feature","geometry":{"type":"Point","coordinates":[3.29718,48.21807]},"properties":{"nom":"Suzanne Guichard","ag":["Réseau urbain Intercom"],"lt":0,"dept":"89"}},{"type":"Feature","geometry":{"type":"Point","coordinates":[3.30158,48.21494]},"properties":{"nom":"Victor Hugo","ag":["Réseau urbain Intercom"],"lt":0,"dept":"89"}},{"type":"Feature","geometry":{"type":"Point","coordinates":[3.30156,48.21493]},"properties":{"nom":"Victor Hugo","ag":["Réseau urbain Intercom"],"lt":0,"dept":"89"}},{"type":"Feature","geometry":{"type":"Point","coordinates":[3.27815,48.21655]},"properties":{"nom":"C/C Nord","ag":["Réseau urbain Intercom"],"lt":0,"dept":"89"}},{"type":"Feature","geometry":{"type":"Point","coordinates":[3.26596,48.2285]},"properties":{"nom":"St.Denis Mairie","ag":["Réseau urbain Intercom"],"lt":0,"dept":"89"}},{"type":"Feature","geometry":{"type":"Point","coordinates":[3.26601,48.22852]},"properties":{"nom":"St.Denis Mairie","ag":["Réseau urbain Intercom"],"lt":0,"dept":"89"}},{"type":"Feature","geometry":{"type":"Point","coordinates":[3.27596,48.21232]},"properties":{"nom":"Pôle Santé","ag":["Réseau urbain Intercom"],"lt":0,"dept":"89"}},{"type":"Feature","geometry":{"type":"Point","coordinates":[3.28395,48.18638]},"properties":{"nom":"Entre 2 Vannes","ag":["Réseau urbain Intercom"],"lt":0,"dept":"89"}},{"type":"Feature","geometry":{"type":"Point","coordinates":[3.284,48.18633]},"properties":{"nom":"Entre 2 Vannes","ag":["Réseau urbain Intercom"],"lt":0,"dept":"89"}},{"type":"Feature","geometry":{"type":"Point","coordinates":[3.28187,48.2053]},"properties":{"nom":"Aristide Briand","ag":["Réseau urbain Intercom"],"lt":0,"dept":"89"}},{"type":"Feature","geometry":{"type":"Point","coordinates":[3.28175,48.20521]},"properties":{"nom":"Aristide Briand","ag":["Réseau urbain Intercom"],"lt":0,"dept":"89"}},{"type":"Feature","geometry":{"type":"Point","coordinates":[3.28564,48.2094]},"properties":{"nom":"L'Amphi","ag":["Réseau urbain Intercom"],"lt":0,"dept":"89"}},{"type":"Feature","geometry":{"type":"Point","coordinates":[3.28576,48.20938]},"properties":{"nom":"L'Amphi","ag":["Réseau urbain Intercom"],"lt":0,"dept":"89"}},{"type":"Feature","geometry":{"type":"Point","coordinates":[3.28912,48.19657]},"properties":{"nom":"Bibliothèque","ag":["Réseau urbain Intercom"],"lt":0,"dept":"89"}},{"type":"Feature","geometry":{"type":"Point","coordinates":[3.2886,48.18196]},"properties":{"nom":"Camping","ag":["Réseau urbain Intercom"],"lt":0,"dept":"89"}},{"type":"Feature","geometry":{"type":"Point","coordinates":[3.28855,48.18196]},"properties":{"nom":"Camping","ag":["Réseau urbain Intercom"],"lt":0,"dept":"89"}},{"type":"Feature","geometry":{"type":"Point","coordinates":[3.27486,48.19061]},"properties":{"nom":"Champbertrand","ag":["Réseau urbain Intercom"],"lt":0,"dept":"89"}},{"type":"Feature","geometry":{"type":"Point","coordinates":[3.27477,48.19064]},"properties":{"nom":"Champbertrand","ag":["Réseau urbain Intercom"],"lt":0,"dept":"89"}},{"type":"Feature","geometry":{"type":"Point","coordinates":[3.31004,48.19863]},"properties":{"nom":"Clemenceau","ag":["Réseau urbain Intercom"],"lt":0,"dept":"89"}},{"type":"Feature","geometry":{"type":"Point","coordinates":[3.31014,48.19864]},"properties":{"nom":"Clemenceau","ag":["Réseau urbain Intercom"],"lt":0,"dept":"89"}},{"type":"Feature","geometry":{"type":"Point","coordinates":[3.2777,48.19503]},"properties":{"nom":"Cours Tarbé","ag":["Réseau urbain Intercom"],"lt":0,"dept":"89"}},{"type":"Feature","geometry":{"type":"Point","coordinates":[3.27762,48.19543]},"properties":{"nom":"Cours Tarbé","ag":["Réseau urbain Intercom"],"lt":0,"dept":"89"}},{"type":"Feature","geometry":{"type":"Point","coordinates":[3.26211,48.19454]},"properties":{"nom":"Pierre Curie","ag":["Réseau urbain Intercom"],"lt":0,"dept":"89"}},{"type":"Feature","geometry":{"type":"Point","coordinates":[3.2854,48.19086]},"properties":{"nom":"Doumer","ag":["Réseau urbain Intercom"],"lt":0,"dept":"89"}},{"type":"Feature","geometry":{"type":"Point","coordinates":[3.28537,48.19092]},"properties":{"nom":"Doumer","ag":["Réseau urbain Intercom"],"lt":0,"dept":"89"}},{"type":"Feature","geometry":{"type":"Point","coordinates":[3.30689,48.19578]},"properties":{"nom":"Europe","ag":["Réseau urbain Intercom"],"lt":0,"dept":"89"}},{"type":"Feature","geometry":{"type":"Point","coordinates":[3.3068,48.1958]},"properties":{"nom":"Europe","ag":["Réseau urbain Intercom"],"lt":0,"dept":"89"}},{"type":"Feature","geometry":{"type":"Point","coordinates":[3.28202,48.19942]},"properties":{"nom":"Garibaldi","ag":["Réseau urbain Intercom"],"lt":0,"dept":"89"}},{"type":"Feature","geometry":{"type":"Point","coordinates":[3.28298,48.19748]},"properties":{"nom":"Grande Rue","ag":["Réseau urbain Intercom"],"lt":0,"dept":"89"}},{"type":"Feature","geometry":{"type":"Point","coordinates":[3.27787,48.19107]},"properties":{"nom":"Hauts Lieux","ag":["Réseau urbain Intercom"],"lt":0,"dept":"89"}},{"type":"Feature","geometry":{"type":"Point","coordinates":[3.27848,48.19106]},"properties":{"nom":"Hauts Lieux","ag":["Réseau urbain Intercom"],"lt":0,"dept":"89"}},{"type":"Feature","geometry":{"type":"Point","coordinates":[3.28352,48.19467]},"properties":{"nom":"Jean Cousin","ag":["Réseau urbain Intercom"],"lt":0,"dept":"89"}},{"type":"Feature","geometry":{"type":"Point","coordinates":[3.28345,48.19466]},"properties":{"nom":"Jean Cousin","ag":["Réseau urbain Intercom"],"lt":0,"dept":"89"}},{"type":"Feature","geometry":{"type":"Point","coordinates":[3.28984,48.17565]},"properties":{"nom":"Jean Pierre Pincemin","ag":["Réseau urbain Intercom"],"lt":0,"dept":"89"}},{"type":"Feature","geometry":{"type":"Point","coordinates":[3.28978,48.17564]},"properties":{"nom":"Jean Pierre Pincemin","ag":["Réseau urbain Intercom"],"lt":0,"dept":"89"}},{"type":"Feature","geometry":{"type":"Point","coordinates":[3.28508,48.19036]},"properties":{"nom":"Kennedy","ag":["Réseau urbain Intercom"],"lt":0,"dept":"89"}},{"type":"Feature","geometry":{"type":"Point","coordinates":[3.28488,48.19041]},"properties":{"nom":"Kennedy","ag":["Réseau urbain Intercom"],"lt":0,"dept":"89"}},{"type":"Feature","geometry":{"type":"Point","coordinates":[3.31958,48.1912]},"properties":{"nom":"Les Clérimois","ag":["Réseau urbain Intercom"],"lt":0,"dept":"89"}},{"type":"Feature","geometry":{"type":"Point","coordinates":[3.31932,48.19122]},"properties":{"nom":"Les Clérimois","ag":["Réseau urbain Intercom"],"lt":0,"dept":"89"}},{"type":"Feature","geometry":{"type":"Point","coordinates":[3.27866,48.20439]},"properties":{"nom":"Leclerc","ag":["Réseau urbain Intercom"],"lt":0,"dept":"89"}},{"type":"Feature","geometry":{"type":"Point","coordinates":[3.28258,48.19073]},"properties":{"nom":"Liberté","ag":["Réseau urbain Intercom"],"lt":0,"dept":"89"}},{"type":"Feature","geometry":{"type":"Point","coordinates":[3.28285,48.19079]},"properties":{"nom":"Liberté","ag":["Réseau urbain Intercom"],"lt":0,"dept":"89"}},{"type":"Feature","geometry":{"type":"Point","coordinates":[3.30199,48.20254]},"properties":{"nom":"Lycées C.Pitou","ag":["Réseau urbain Intercom"],"lt":0,"dept":"89"}},{"type":"Feature","geometry":{"type":"Point","coordinates":[3.30193,48.20259]},"properties":{"nom":"Lycées C.Pitou","ag":["Réseau urbain Intercom"],"lt":0,"dept":"89"}},{"type":"Feature","geometry":{"type":"Point","coordinates":[3.27857,48.18609]},"properties":{"nom":"Moulin à Tan","ag":["Réseau urbain Intercom"],"lt":0,"dept":"89"}},{"type":"Feature","geometry":{"type":"Point","coordinates":[3.27858,48.18602]},"properties":{"nom":"Moulin à Tan","ag":["Réseau urbain Intercom"],"lt":0,"dept":"89"}},{"type":"Feature","geometry":{"type":"Point","coordinates":[3.28934,48.19144]},"properties":{"nom":"Oublettes","ag":["Réseau urbain Intercom"],"lt":0,"dept":"89"}},{"type":"Feature","geometry":{"type":"Point","coordinates":[3.29008,48.19186]},"properties":{"nom":"Oublettes","ag":["Réseau urbain Intercom"],"lt":0,"dept":"89"}},{"type":"Feature","geometry":{"type":"Point","coordinates":[3.29436,48.17203]},"properties":{"nom":"Porte de Bourgogne","ag":["Réseau urbain Intercom"],"lt":0,"dept":"89"}},{"type":"Feature","geometry":{"type":"Point","coordinates":[3.30157,48.19532]},"properties":{"nom":"Pierre de Coubertin","ag":["Réseau urbain Intercom"],"lt":0,"dept":"89"}},{"type":"Feature","geometry":{"type":"Point","coordinates":[3.30833,48.2035]},"properties":{"nom":"Pôle Emploi","ag":["Réseau urbain Intercom"],"lt":0,"dept":"89"}},{"type":"Feature","geometry":{"type":"Point","coordinates":[3.30829,48.2036]},"properties":{"nom":"Pôle Emploi","ag":["Réseau urbain Intercom"],"lt":0,"dept":"89"}},{"type":"Feature","geometry":{"type":"Point","coordinates":[3.27685,48.20875]},"properties":{"nom":"Pompidou","ag":["Réseau urbain Intercom"],"lt":0,"dept":"89"}},{"type":"Feature","geometry":{"type":"Point","coordinates":[3.26684,48.19602]},"properties":{"nom":"Patton","ag":["Réseau urbain Intercom"],"lt":0,"dept":"89"}},{"type":"Feature","geometry":{"type":"Point","coordinates":[3.30369,48.19455]},"properties":{"nom":"Racine","ag":["Réseau urbain Intercom"],"lt":0,"dept":"89"}},{"type":"Feature","geometry":{"type":"Point","coordinates":[3.30373,48.19458]},"properties":{"nom":"Racine","ag":["Réseau urbain Intercom"],"lt":0,"dept":"89"}},{"type":"Feature","geometry":{"type":"Point","coordinates":[3.29378,48.19333]},"properties":{"nom":"René Binet","ag":["Réseau urbain Intercom"],"lt":0,"dept":"89"}},{"type":"Feature","geometry":{"type":"Point","coordinates":[3.29386,48.19334]},"properties":{"nom":"René Binet","ag":["Réseau urbain Intercom"],"lt":0,"dept":"89"}},{"type":"Feature","geometry":{"type":"Point","coordinates":[3.28651,48.21417]},"properties":{"nom":"République","ag":["Réseau urbain Intercom"],"lt":0,"dept":"89"}},{"type":"Feature","geometry":{"type":"Point","coordinates":[3.28642,48.21419]},"properties":{"nom":"République","ag":["Réseau urbain Intercom"],"lt":0,"dept":"89"}},{"type":"Feature","geometry":{"type":"Point","coordinates":[3.28512,48.20616]},"properties":{"nom":"Saint Antoine","ag":["Réseau urbain Intercom"],"lt":0,"dept":"89"}},{"type":"Feature","geometry":{"type":"Point","coordinates":[3.28521,48.20614]},"properties":{"nom":"Saint Antoine","ag":["Réseau urbain Intercom"],"lt":0,"dept":"89"}},{"type":"Feature","geometry":{"type":"Point","coordinates":[3.29608,48.20393]},"properties":{"nom":"Sainte Béâte","ag":["Réseau urbain Intercom"],"lt":0,"dept":"89"}},{"type":"Feature","geometry":{"type":"Point","coordinates":[3.29618,48.20396]},"properties":{"nom":"Saint Béâte","ag":["Réseau urbain Intercom"],"lt":0,"dept":"89"}},{"type":"Feature","geometry":{"type":"Point","coordinates":[3.28498,48.18743]},"properties":{"nom":"Senigallia","ag":["Réseau urbain Intercom"],"lt":0,"dept":"89"}},{"type":"Feature","geometry":{"type":"Point","coordinates":[3.28483,48.18752]},"properties":{"nom":"Senigallia","ag":["Réseau urbain Intercom"],"lt":0,"dept":"89"}},{"type":"Feature","geometry":{"type":"Point","coordinates":[3.29956,48.20349]},"properties":{"nom":"Saligny","ag":["Réseau urbain Intercom"],"lt":0,"dept":"89"}},{"type":"Feature","geometry":{"type":"Point","coordinates":[3.29964,48.20349]},"properties":{"nom":"Saligny","ag":["Réseau urbain Intercom"],"lt":0,"dept":"89"}},{"type":"Feature","geometry":{"type":"Point","coordinates":[3.29753,48.19497]},"properties":{"nom":"Sécurité Sociale","ag":["Réseau urbain Intercom"],"lt":0,"dept":"89"}},{"type":"Feature","geometry":{"type":"Point","coordinates":[3.29841,48.19468]},"properties":{"nom":"Sécurité Sociale","ag":["Réseau urbain Intercom"],"lt":0,"dept":"89"}},{"type":"Feature","geometry":{"type":"Point","coordinates":[3.32024,48.20359]},"properties":{"nom":"Sancey","ag":["Réseau urbain Intercom"],"lt":0,"dept":"89"}},{"type":"Feature","geometry":{"type":"Point","coordinates":[3.32018,48.2036]},"properties":{"nom":"Sancey","ag":["Réseau urbain Intercom"],"lt":0,"dept":"89"}},{"type":"Feature","geometry":{"type":"Point","coordinates":[3.32014,48.20026]},"properties":{"nom":"Vauguillettes 2","ag":["Réseau urbain Intercom"],"lt":0,"dept":"89"}},{"type":"Feature","geometry":{"type":"Point","coordinates":[3.32019,48.20027]},"properties":{"nom":"Vauguillettes 2","ag":["Réseau urbain Intercom"],"lt":0,"dept":"89"}},{"type":"Feature","geometry":{"type":"Point","coordinates":[3.32038,48.19466]},"properties":{"nom":"Vauguillettes","ag":["Réseau urbain Intercom"],"lt":0,"dept":"89"}},{"type":"Feature","geometry":{"type":"Point","coordinates":[3.32031,48.19448]},"properties":{"nom":"Vauguillettes","ag":["Réseau urbain Intercom"],"lt":0,"dept":"89"}},{"type":"Feature","geometry":{"type":"Point","coordinates":[3.26489,48.20707]},"properties":{"nom":"Voulx","ag":["Réseau urbain Intercom"],"lt":0,"dept":"89"}},{"type":"Feature","geometry":{"type":"Point","coordinates":[3.26495,48.20708]},"properties":{"nom":"Voulx","ag":["Réseau urbain Intercom"],"lt":0,"dept":"89"}},{"type":"Feature","geometry":{"type":"Point","coordinates":[3.31704,48.18634]},"properties":{"nom":"Zone des Bas Musats","ag":["Réseau urbain Intercom"],"lt":0,"dept":"89"}},{"type":"Feature","geometry":{"type":"Point","coordinates":[3.31743,48.18613]},"properties":{"nom":"Zone des Bas Musats","ag":["Réseau urbain Intercom"],"lt":0,"dept":"89"}},{"type":"Feature","geometry":{"type":"Point","coordinates":[3.31412,48.19489]},"properties":{"nom":"Zone Industrielle","ag":["Réseau urbain Intercom"],"lt":0,"dept":"89"}},{"type":"Feature","geometry":{"type":"Point","coordinates":[3.2974,48.08759]},"properties":{"nom":"Collingham","ag":["Réseau urbain Intercom"],"lt":0,"dept":"89"}},{"type":"Feature","geometry":{"type":"Point","coordinates":[3.29532,48.08608]},"properties":{"nom":"Faubourg Saint Nicolas","ag":["Réseau urbain Intercom"],"lt":0,"dept":"89"}},{"type":"Feature","geometry":{"type":"Point","coordinates":[3.29525,48.08608]},"properties":{"nom":"Faubourg Saint Nicolas","ag":["Réseau urbain Intercom"],"lt":0,"dept":"89"}},{"type":"Feature","geometry":{"type":"Point","coordinates":[3.28706,48.08504]},"properties":{"nom":"Gare SNCF Villeneuve-sur-Yonne","ag":["Réseau urbain Intercom"],"lt":0,"dept":"89"}},{"type":"Feature","geometry":{"type":"Point","coordinates":[3.28726,48.08508]},"properties":{"nom":"Gare SNCF Villeneuve-sur-Yonne","ag":["Réseau urbain Intercom"],"lt":0,"dept":"89"}},{"type":"Feature","geometry":{"type":"Point","coordinates":[3.28301,48.08659]},"properties":{"nom":"Rue de Rousson","ag":["Réseau urbain Intercom"],"lt":0,"dept":"89"}},{"type":"Feature","geometry":{"type":"Point","coordinates":[3.28296,48.08662]},"properties":{"nom":"Rue de Rousson","ag":["Réseau urbain Intercom"],"lt":0,"dept":"89"}},{"type":"Feature","geometry":{"type":"Point","coordinates":[3.27856,48.0856]},"properties":{"nom":"Sables Rouges","ag":["Réseau urbain Intercom"],"lt":0,"dept":"89"}},{"type":"Feature","geometry":{"type":"Point","coordinates":[3.29606,48.09034]},"properties":{"nom":"Sainfoins","ag":["Réseau urbain Intercom"],"lt":0,"dept":"89"}},{"type":"Feature","geometry":{"type":"Point","coordinates":[3.28886,48.08318]},"properties":{"nom":"Saint Laurent","ag":["Réseau urbain Intercom"],"lt":0,"dept":"89"}},{"type":"Feature","geometry":{"type":"Point","coordinates":[3.28884,48.08323]},"properties":{"nom":"Saint Laurent","ag":["Réseau urbain Intercom"],"lt":0,"dept":"89"}},{"type":"Feature","geometry":{"type":"Point","coordinates":[3.39409,48.25267]},"properties":{"nom":"Voisines Mairie","ag":["Réseau urbain Intercom"],"lt":0,"dept":"89"}},{"type":"Feature","geometry":{"type":"Point","coordinates":[3.39406,48.25263]},"properties":{"nom":"Voisines Mairie","ag":["Réseau urbain Intercom"],"lt":0,"dept":"89"}},{"type":"Feature","geometry":{"type":"Point","coordinates":[3.37848,48.22026]},"properties":{"nom":"Eglise Fontaine La Gaillarde","ag":["Réseau urbain Intercom"],"lt":0,"dept":"89"}},{"type":"Feature","geometry":{"type":"Point","coordinates":[3.37848,48.22022]},"properties":{"nom":"Eglise Fontaine La Gaillarde","ag":["Réseau urbain Intercom"],"lt":0,"dept":"89"}},{"type":"Feature","geometry":{"type":"Point","coordinates":[3.37349,48.21895]},"properties":{"nom":"Rue du Marais","ag":["Réseau urbain Intercom"],"lt":0,"dept":"89"}},{"type":"Feature","geometry":{"type":"Point","coordinates":[3.37366,48.21898]},"properties":{"nom":"Rue du Marais","ag":["Réseau urbain Intercom"],"lt":0,"dept":"89"}},{"type":"Feature","geometry":{"type":"Point","coordinates":[3.38112,48.17257]},"properties":{"nom":"Malay le Petiit Rte de Genève","ag":["Réseau urbain Intercom"],"lt":0,"dept":"89"}},{"type":"Feature","geometry":{"type":"Point","coordinates":[3.38109,48.17269]},"properties":{"nom":"Malay le Petit Rte de Genève","ag":["Réseau urbain Intercom"],"lt":0,"dept":"89"}},{"type":"Feature","geometry":{"type":"Point","coordinates":[3.38924,48.16631]},"properties":{"nom":"Noé - Les Aulnes","ag":["Réseau urbain Intercom"],"lt":0,"dept":"89"}},{"type":"Feature","geometry":{"type":"Point","coordinates":[3.38945,48.16637]},"properties":{"nom":"Noé - Les Aulnes","ag":["Réseau urbain Intercom"],"lt":0,"dept":"89"}},{"type":"Feature","geometry":{"type":"Point","coordinates":[3.27806,48.23773]},"properties":{"nom":"Granchette","ag":["Réseau urbain Intercom"],"lt":0,"dept":"89"}},{"type":"Feature","geometry":{"type":"Point","coordinates":[3.27809,48.2377]},"properties":{"nom":"Granchette","ag":["Réseau urbain Intercom"],"lt":0,"dept":"89"}},{"type":"Feature","geometry":{"type":"Point","coordinates":[3.27308,48.21483]},"properties":{"nom":"Sainte Colombe","ag":["Réseau urbain Intercom"],"lt":0,"dept":"89"}},{"type":"Feature","geometry":{"type":"Point","coordinates":[3.27317,48.21479]},"properties":{"nom":"Sainte Colombe","ag":["Réseau urbain Intercom"],"lt":0,"dept":"89"}},{"type":"Feature","geometry":{"type":"Point","coordinates":[3.35225,48.2141]},"properties":{"nom":"Saligny Mairie","ag":["Réseau urbain Intercom"],"lt":0,"dept":"89"}},{"type":"Feature","geometry":{"type":"Point","coordinates":[3.35237,48.21405]},"properties":{"nom":"Saligny Mairie","ag":["Réseau urbain Intercom"],"lt":0,"dept":"89"}},{"type":"Feature","geometry":{"type":"Point","coordinates":[3.35876,48.21609]},"properties":{"nom":"Ménardes","ag":["Réseau urbain Intercom"],"lt":0,"dept":"89"}},{"type":"Feature","geometry":{"type":"Point","coordinates":[3.35886,48.21606]},"properties":{"nom":"Ménardes","ag":["Réseau urbain Intercom"],"lt":0,"dept":"89"}},{"type":"Feature","geometry":{"type":"Point","coordinates":[3.44402,48.25505]},"properties":{"nom":"Les Basses Bergeries","ag":["Réseau urbain Intercom"],"lt":0,"dept":"89"}},{"type":"Feature","geometry":{"type":"Point","coordinates":[3.44393,48.25509]},"properties":{"nom":"Les Basses Bergeries","ag":["Réseau urbain Intercom"],"lt":0,"dept":"89"}},{"type":"Feature","geometry":{"type":"Point","coordinates":[3.41017,48.23901]},"properties":{"nom":"Grand Champeau","ag":["Réseau urbain Intercom"],"lt":0,"dept":"89"}},{"type":"Feature","geometry":{"type":"Point","coordinates":[3.41014,48.23895]},"properties":{"nom":"Grand Champeau","ag":["Réseau urbain Intercom"],"lt":0,"dept":"89"}},{"type":"Feature","geometry":{"type":"Point","coordinates":[3.44664,48.25912]},"properties":{"nom":"Les Hautes Bergeries","ag":["Réseau urbain Intercom"],"lt":0,"dept":"89"}},{"type":"Feature","geometry":{"type":"Point","coordinates":[3.4466,48.25906]},"properties":{"nom":"Les Hautes Bergeries","ag":["Réseau urbain Intercom"],"lt":0,"dept":"89"}},{"type":"Feature","geometry":{"type":"Point","coordinates":[3.41593,48.24368]},"properties":{"nom":"Le Petit Champeau","ag":["Réseau urbain Intercom"],"lt":0,"dept":"89"}},{"type":"Feature","geometry":{"type":"Point","coordinates":[3.41593,48.24362]},"properties":{"nom":"Le Petit Champeau","ag":["Réseau urbain Intercom"],"lt":0,"dept":"89"}},{"type":"Feature","geometry":{"type":"Point","coordinates":[3.42822,48.24672]},"properties":{"nom":"Le Ruy","ag":["Réseau urbain Intercom"],"lt":0,"dept":"89"}},{"type":"Feature","geometry":{"type":"Point","coordinates":[3.42825,48.24677]},"properties":{"nom":"Le Ruy","ag":["Réseau urbain Intercom"],"lt":0,"dept":"89"}},{"type":"Feature","geometry":{"type":"Point","coordinates":[3.33123,48.0592]},"properties":{"nom":"Armeau - Richemont","ag":["Réseau urbain Intercom"],"lt":0,"dept":"89"}},{"type":"Feature","geometry":{"type":"Point","coordinates":[3.45512,48.09243]},"properties":{"nom":"La Borde à la Gousse","ag":["Réseau urbain Intercom"],"lt":0,"dept":"89"}},{"type":"Feature","geometry":{"type":"Point","coordinates":[3.4552,48.0924]},"properties":{"nom":"La Borde à la Gousse","ag":["Réseau urbain Intercom"],"lt":0,"dept":"89"}},{"type":"Feature","geometry":{"type":"Point","coordinates":[3.41697,48.06198]},"properties":{"nom":"La Chaumarderie","ag":["Réseau urbain Intercom"],"lt":0,"dept":"89"}},{"type":"Feature","geometry":{"type":"Point","coordinates":[3.417,48.062]},"properties":{"nom":"La Chaumarderie","ag":["Réseau urbain Intercom"],"lt":0,"dept":"89"}},{"type":"Feature","geometry":{"type":"Point","coordinates":[3.41696,48.062]},"properties":{"nom":"Dixmont - La Chaumarderie","ag":["Réseau urbain Intercom"],"lt":0,"dept":"89"}},{"type":"Feature","geometry":{"type":"Point","coordinates":[3.44303,48.09122]},"properties":{"nom":"Grange Bertin","ag":["Réseau urbain Intercom"],"lt":0,"dept":"89"}},{"type":"Feature","geometry":{"type":"Point","coordinates":[3.443,48.0912]},"properties":{"nom":"Grange Bertin","ag":["Réseau urbain Intercom"],"lt":0,"dept":"89"}},{"type":"Feature","geometry":{"type":"Point","coordinates":[3.42867,48.05802]},"properties":{"nom":"La Grande Hate","ag":["Réseau urbain Intercom"],"lt":0,"dept":"89"}},{"type":"Feature","geometry":{"type":"Point","coordinates":[3.4287,48.058]},"properties":{"nom":"La Grande Hate","ag":["Réseau urbain Intercom"],"lt":0,"dept":"89"}},{"type":"Feature","geometry":{"type":"Point","coordinates":[3.4241,48.1079]},"properties":{"nom":"Grange Pourrain","ag":["Réseau urbain Intercom"],"lt":0,"dept":"89"}},{"type":"Feature","geometry":{"type":"Point","coordinates":[3.42404,48.10793]},"properties":{"nom":"Grange Pourrain","ag":["Réseau urbain Intercom"],"lt":0,"dept":"89"}},{"type":"Feature","geometry":{"type":"Point","coordinates":[3.42862,48.05813]},"properties":{"nom":"Dixmont - La Grande Hâte","ag":["Réseau urbain Intercom"],"lt":0,"dept":"89"}},{"type":"Feature","geometry":{"type":"Point","coordinates":[3.4519,48.0767]},"properties":{"nom":"La Grande Vallée","ag":["Réseau urbain Intercom"],"lt":0,"dept":"89"}},{"type":"Feature","geometry":{"type":"Point","coordinates":[3.45195,48.07667]},"properties":{"nom":"La Grande Vallée","ag":["Réseau urbain Intercom"],"lt":0,"dept":"89"}},{"type":"Feature","geometry":{"type":"Point","coordinates":[3.38368,48.04929]},"properties":{"nom":"Dixmont - Luxembourg","ag":["Réseau urbain Intercom"],"lt":0,"dept":"89"}},{"type":"Feature","geometry":{"type":"Point","coordinates":[3.41318,48.06406]},"properties":{"nom":"Dixmont - La Petite Hâte","ag":["Réseau urbain Intercom"],"lt":0,"dept":"89"}},{"type":"Feature","geometry":{"type":"Point","coordinates":[3.43577,48.06171]},"properties":{"nom":"La Tuillerie","ag":["Réseau urbain Intercom"],"lt":0,"dept":"89"}},{"type":"Feature","geometry":{"type":"Point","coordinates":[3.4357,48.0617]},"properties":{"nom":"La Tuillerie","ag":["Réseau urbain Intercom"],"lt":0,"dept":"89"}},{"type":"Feature","geometry":{"type":"Point","coordinates":[3.4483,48.08382]},"properties":{"nom":"Vaulevrier","ag":["Réseau urbain Intercom"],"lt":0,"dept":"89"}},{"type":"Feature","geometry":{"type":"Point","coordinates":[3.4482,48.0838]},"properties":{"nom":"Vaulevrier","ag":["Réseau urbain Intercom"],"lt":0,"dept":"89"}},{"type":"Feature","geometry":{"type":"Point","coordinates":[3.2859,48.1341]},"properties":{"nom":"Ecole parking foyer","ag":["Réseau urbain Intercom"],"lt":0,"dept":"89"}},{"type":"Feature","geometry":{"type":"Point","coordinates":[3.28595,48.13411]},"properties":{"nom":"Ecole parking foyer","ag":["Réseau urbain Intercom"],"lt":0,"dept":"89"}},{"type":"Feature","geometry":{"type":"Point","coordinates":[3.25201,48.1269]},"properties":{"nom":"Etigny - Les Fours","ag":["Réseau urbain Intercom"],"lt":0,"dept":"89"}},{"type":"Feature","geometry":{"type":"Point","coordinates":[3.37981,48.22069]},"properties":{"nom":"Ecole Maternelle","ag":["Réseau urbain Intercom"],"lt":0,"dept":"89"}},{"type":"Feature","geometry":{"type":"Point","coordinates":[3.3799,48.2207]},"properties":{"nom":"Ecole Maternelle","ag":["Réseau urbain Intercom"],"lt":0,"dept":"89"}},{"type":"Feature","geometry":{"type":"Point","coordinates":[3.37993,48.22075]},"properties":{"nom":"Fontaine La Gaillarde","ag":["Réseau urbain Intercom"],"lt":0,"dept":"89"}},{"type":"Feature","geometry":{"type":"Point","coordinates":[3.35135,48.24896]},"properties":{"nom":"GRAND BEON - AU BOUT DU HAMEAU","ag":["Réseau urbain Intercom"],"lt":0,"dept":"89"}},{"type":"Feature","geometry":{"type":"Point","coordinates":[3.3515,48.2481]},"properties":{"nom":"Au bout du hameau","ag":["Réseau urbain Intercom"],"lt":0,"dept":"89"}},{"type":"Feature","geometry":{"type":"Point","coordinates":[3.35144,48.24812]},"properties":{"nom":"Au bout du hameau","ag":["Réseau urbain Intercom"],"lt":0,"dept":"89"}},{"type":"Feature","geometry":{"type":"Point","coordinates":[3.34008,48.07076]},"properties":{"nom":"Hameaux - Les Thenots","ag":["Réseau urbain Intercom"],"lt":0,"dept":"89"}},{"type":"Feature","geometry":{"type":"Point","coordinates":[3.35381,48.06476]},"properties":{"nom":"Hameaux - Valprofonde Place","ag":["Réseau urbain Intercom"],"lt":0,"dept":"89"}},{"type":"Feature","geometry":{"type":"Point","coordinates":[3.32542,48.2488]},"properties":{"nom":"Suzanne Guichard","ag":["Réseau urbain Intercom"],"lt":0,"dept":"89"}},{"type":"Feature","geometry":{"type":"Point","coordinates":[3.32538,48.2488]},"properties":{"nom":"Suzanne Guichard","ag":["Réseau urbain Intercom"],"lt":0,"dept":"89"}},{"type":"Feature","geometry":{"type":"Point","coordinates":[3.36867,48.11756]},"properties":{"nom":"Bois Bourdin","ag":["Réseau urbain Intercom"],"lt":0,"dept":"89"}},{"type":"Feature","geometry":{"type":"Point","coordinates":[3.4129,48.1116]},"properties":{"nom":"La Grange aux Malades","ag":["Réseau urbain Intercom"],"lt":0,"dept":"89"}},{"type":"Feature","geometry":{"type":"Point","coordinates":[3.41295,48.11169]},"properties":{"nom":"La Grange aux Malades","ag":["Réseau urbain Intercom"],"lt":0,"dept":"89"}},{"type":"Feature","geometry":{"type":"Point","coordinates":[3.35895,48.10957]},"properties":{"nom":"Maurepas","ag":["Réseau urbain Intercom"],"lt":0,"dept":"89"}},{"type":"Feature","geometry":{"type":"Point","coordinates":[3.35887,48.10959]},"properties":{"nom":"Maurepas","ag":["Réseau urbain Intercom"],"lt":0,"dept":"89"}},{"type":"Feature","geometry":{"type":"Point","coordinates":[3.36853,48.11755]},"properties":{"nom":"Bois Bourdin","ag":["Réseau urbain Intercom"],"lt":0,"dept":"89"}},{"type":"Feature","geometry":{"type":"Point","coordinates":[3.25778,48.1104]},"properties":{"nom":"Marsangy - Ecole Elementaire","ag":["Réseau urbain Intercom"],"lt":0,"dept":"89"}},{"type":"Feature","geometry":{"type":"Point","coordinates":[3.25723,48.11033]},"properties":{"nom":"Marsangy - Eglise","ag":["Réseau urbain Intercom"],"lt":0,"dept":"89"}},{"type":"Feature","geometry":{"type":"Point","coordinates":[3.30017,48.11032]},"properties":{"nom":"Passy - Abri Grande Rue","ag":["Réseau urbain Intercom"],"lt":0,"dept":"89"}},{"type":"Feature","geometry":{"type":"Point","coordinates":[3.3443,48.2509]},"properties":{"nom":"Arrêt de bus","ag":["Réseau urbain Intercom"],"lt":0,"dept":"89"}},{"type":"Feature","geometry":{"type":"Point","coordinates":[3.34432,48.25079]},"properties":{"nom":"Arrêt de bus","ag":["Réseau urbain Intercom"],"lt":0,"dept":"89"}},{"type":"Feature","geometry":{"type":"Point","coordinates":[3.26109,48.09511]},"properties":{"nom":"Rousson - Arrêt des Cars","ag":["Réseau urbain Intercom"],"lt":0,"dept":"89"}},{"type":"Feature","geometry":{"type":"Point","coordinates":[3.25091,48.08585]},"properties":{"nom":"Rousson - Les Caves X Chemin des Caves","ag":["Réseau urbain Intercom"],"lt":0,"dept":"89"}},{"type":"Feature","geometry":{"type":"Point","coordinates":[3.26268,48.09587]},"properties":{"nom":"Rousson - Ecole","ag":["Réseau urbain Intercom"],"lt":0,"dept":"89"}},{"type":"Feature","geometry":{"type":"Point","coordinates":[3.2931,48.207]},"properties":{"nom":"Lycée Saint-Etienne","ag":["Réseau urbain Intercom"],"lt":0,"dept":"89"}},{"type":"Feature","geometry":{"type":"Point","coordinates":[3.29316,48.207]},"properties":{"nom":"Lycée Sainte-Etienne","ag":["Réseau urbain Intercom"],"lt":0,"dept":"89"}},{"type":"Feature","geometry":{"type":"Point","coordinates":[3.31583,48.24711]},"properties":{"nom":"Chante Perdrix","ag":["Réseau urbain Intercom"],"lt":0,"dept":"89"}},{"type":"Feature","geometry":{"type":"Point","coordinates":[3.31585,48.2471]},"properties":{"nom":"Chante Perdrix","ag":["Réseau urbain Intercom"],"lt":0,"dept":"89"}},{"type":"Feature","geometry":{"type":"Point","coordinates":[3.32537,48.24882]},"properties":{"nom":"Victor Guichard","ag":["Réseau urbain Intercom"],"lt":0,"dept":"89"}},{"type":"Feature","geometry":{"type":"Point","coordinates":[3.32541,48.24882]},"properties":{"nom":"Victor Guichard","ag":["Réseau urbain Intercom"],"lt":0,"dept":"89"}},{"type":"Feature","geometry":{"type":"Point","coordinates":[3.30205,48.12838]},"properties":{"nom":"Ecole Maternelle","ag":["Réseau urbain Intercom"],"lt":0,"dept":"89"}},{"type":"Feature","geometry":{"type":"Point","coordinates":[3.3021,48.1284]},"properties":{"nom":"Ecole Maternelle","ag":["Réseau urbain Intercom"],"lt":0,"dept":"89"}},{"type":"Feature","geometry":{"type":"Point","coordinates":[3.30743,48.13011]},"properties":{"nom":"Ecole Primaire","ag":["Réseau urbain Intercom"],"lt":0,"dept":"89"}},{"type":"Feature","geometry":{"type":"Point","coordinates":[3.30744,48.13013]},"properties":{"nom":"Ecole Primaire","ag":["Réseau urbain Intercom"],"lt":0,"dept":"89"}},{"type":"Feature","geometry":{"type":"Point","coordinates":[3.34608,48.13336]},"properties":{"nom":"Valperonne","ag":["Réseau urbain Intercom"],"lt":0,"dept":"89"}},{"type":"Feature","geometry":{"type":"Point","coordinates":[3.34612,48.13335]},"properties":{"nom":"Valperonne","ag":["Réseau urbain Intercom"],"lt":0,"dept":"89"}},{"type":"Feature","geometry":{"type":"Point","coordinates":[3.3939,48.2526]},"properties":{"nom":"Ecole Primaire","ag":["Réseau urbain Intercom"],"lt":0,"dept":"89"}},{"type":"Feature","geometry":{"type":"Point","coordinates":[3.3939,48.25265]},"properties":{"nom":"Ecole primaire","ag":["Réseau urbain Intercom"],"lt":0,"dept":"89"}},{"type":"Feature","geometry":{"type":"Point","coordinates":[3.34989,48.07944]},"properties":{"nom":"Le Buisson Souef","ag":["Réseau urbain Intercom"],"lt":0,"dept":"89"}},{"type":"Feature","geometry":{"type":"Point","coordinates":[3.3499,48.0794]},"properties":{"nom":"Le Buisson Souef","ag":["Réseau urbain Intercom"],"lt":0,"dept":"89"}},{"type":"Feature","geometry":{"type":"Point","coordinates":[3.2994,48.0837]},"properties":{"nom":"Collège Chateaubriand","ag":["Réseau urbain Intercom"],"lt":0,"dept":"89"}},{"type":"Feature","geometry":{"type":"Point","coordinates":[3.29938,48.08372]},"properties":{"nom":"Collège Chateaubriand","ag":["Réseau urbain Intercom"],"lt":0,"dept":"89"}},{"type":"Feature","geometry":{"type":"Point","coordinates":[3.29946,48.08374]},"properties":{"nom":"Villeneuve-sur-Yonne - Collège Chateaubriand","ag":["Réseau urbain Intercom"],"lt":0,"dept":"89"}},{"type":"Feature","geometry":{"type":"Point","coordinates":[3.34081,48.08594]},"properties":{"nom":"Flandre","ag":["Réseau urbain Intercom"],"lt":0,"dept":"89"}},{"type":"Feature","geometry":{"type":"Point","coordinates":[3.3408,48.0859]},"properties":{"nom":"Flandre","ag":["Réseau urbain Intercom"],"lt":0,"dept":"89"}},{"type":"Feature","geometry":{"type":"Point","coordinates":[3.3333,48.0805]},"properties":{"nom":"Les Giltons","ag":["Réseau urbain Intercom"],"lt":0,"dept":"89"}},{"type":"Feature","geometry":{"type":"Point","coordinates":[3.33326,48.08053]},"properties":{"nom":"Les Giltons","ag":["Réseau urbain Intercom"],"lt":0,"dept":"89"}},{"type":"Feature","geometry":{"type":"Point","coordinates":[3.2526,48.07895]},"properties":{"nom":"Villeneuve-sur-Yonne - 61 Rue Thenard","ag":["Réseau urbain Intercom"],"lt":0,"dept":"89"}},{"type":"Feature","geometry":{"type":"Point","coordinates":[3.25683,48.0794]},"properties":{"nom":"Villeneuve-sur-Yonne - 54 Rue Thenard","ag":["Réseau urbain Intercom"],"lt":0,"dept":"89"}},{"type":"Feature","geometry":{"type":"Point","coordinates":[3.26174,48.07939]},"properties":{"nom":"Villeneuve-sur-Yonne - Hte Epine 11 Rue Thenard","ag":["Réseau urbain Intercom"],"lt":0,"dept":"89"}},{"type":"Feature","geometry":{"type":"Point","coordinates":[3.29477,48.08054]},"properties":{"nom":"Villeneuve-sur-Yonne - Ecole Joubert","ag":["Réseau urbain Intercom"],"lt":0,"dept":"89"}},{"type":"Feature","geometry":{"type":"Point","coordinates":[3.2964,48.0833]},"properties":{"nom":"Ecole Paul Bert","ag":["Réseau urbain Intercom"],"lt":0,"dept":"89"}},{"type":"Feature","geometry":{"type":"Point","coordinates":[3.2965,48.08335]},"properties":{"nom":"Villeneuve-sur-Yonne - Ecole Paul Bert","ag":["Réseau urbain Intercom"],"lt":0,"dept":"89"}},{"type":"Feature","geometry":{"type":"Point","coordinates":[3.31688,48.06209]},"properties":{"nom":"Villeneuve-sur-Yonne - Baudemont Reservoir","ag":["Réseau urbain Intercom"],"lt":0,"dept":"89"}},{"type":"Feature","geometry":{"type":"Point","coordinates":[3.27895,48.08543]},"properties":{"nom":"Villeneuve-sur-Yonne - Quartier des Sables Rouges","ag":["Réseau urbain Intercom"],"lt":0,"dept":"89"}},{"type":"Feature","geometry":{"type":"Point","coordinates":[3.31008,48.06553]},"properties":{"nom":"Villeneuve-sur-Yonne - Sortie Nord","ag":["Réseau urbain Intercom"],"lt":0,"dept":"89"}},{"type":"Feature","geometry":{"type":"Point","coordinates":[3.27955,48.07957]},"properties":{"nom":"Villeneuve-sur-Yonne - La Traverse","ag":["Réseau urbain Intercom"],"lt":0,"dept":"89"}},{"type":"Feature","geometry":{"type":"Point","coordinates":[3.74167,47.46353]},"properties":{"nom":"Champ de foire / RD951","ag":["Réseau interurbain Mobigo"],"lt":0,"dept":"89"}},{"type":"Feature","geometry":{"type":"Point","coordinates":[3.34311,47.50377]},"properties":{"nom":"Commune","ag":["Réseau interurbain Mobigo"],"lt":0,"dept":"89"}},{"type":"Feature","geometry":{"type":"Point","coordinates":[3.76498,47.45927]},"properties":{"nom":"(89) Place de la Mairi","ag":["Réseau interurbain Mobigo"],"lt":0,"dept":"89"}},{"type":"Feature","geometry":{"type":"Point","coordinates":[3.79242,47.52892]},"properties":{"nom":"Gare SNCF","ag":["Réseau interurbain Mobigo"],"lt":0,"dept":"89"}},{"type":"Feature","geometry":{"type":"Point","coordinates":[3.75564,47.48157]},"properties":{"nom":"Abri 17 rte Nationale","ag":["Réseau interurbain Mobigo"],"lt":0,"dept":"89"}},{"type":"Feature","geometry":{"type":"Point","coordinates":[3.58448,47.79663]},"properties":{"nom":"Auxerre - Train Station","ag":["Réseau européen BlaBlaCar Bus"],"lt":0,"dept":"89"}},{"type":"Feature","geometry":{"type":"Point","coordinates":[3.7929,48.04286]},"properties":{"nom":"Neuvy-Sautour Route Nationale","ag":["Réseau SNCF TGV, Intercités et TER","Agrégat des réseaux urbains et interurbains du Grand Est"],"lt":1,"dept":"89"}},{"type":"Feature","geometry":{"type":"Point","coordinates":[3.61707,47.99203]},"properties":{"nom":"Brienon-sur-Armançon Mairie","ag":["Réseau SNCF TGV, Intercités et TER","Agrégat des réseaux urbains et interurbains du Grand Est"],"lt":1,"dept":"89"}},{"type":"Feature","geometry":{"type":"Point","coordinates":[3.78469,47.56173]},"properties":{"nom":"Voutenay-sur-Cure Place Mairie","ag":["Réseau SNCF TGV, Intercités et TER"],"lt":1,"dept":"89"}},{"type":"Feature","geometry":{"type":"Point","coordinates":[3.74466,47.62778]},"properties":{"nom":"Lucy-sur-Cure D606","ag":["Réseau SNCF TGV, Intercités et TER"],"lt":1,"dept":"89"}},{"type":"Feature","geometry":{"type":"Point","coordinates":[3.70958,47.6638]},"properties":{"nom":"Accolay Le Pont","ag":["Réseau SNCF TGV, Intercités et TER"],"lt":1,"dept":"89"}},{"type":"Feature","geometry":{"type":"Point","coordinates":[3.26783,48.19786]},"properties":{"nom":"Sens","ag":["Réseau SNCF TGV, Intercités et TER"],"lt":1,"dept":"89"}},{"type":"Feature","geometry":{"type":"Point","coordinates":[3.07166,48.34243]},"properties":{"nom":"Villeneuve-la-Guyard","ag":["Réseau SNCF TGV, Intercités et TER"],"lt":1,"dept":"89"}},{"type":"Feature","geometry":{"type":"Point","coordinates":[3.13057,48.32374]},"properties":{"nom":"Champigny","ag":["Réseau SNCF TGV, Intercités et TER"],"lt":1,"dept":"89"}},{"type":"Feature","geometry":{"type":"Point","coordinates":[3.20146,48.28629]},"properties":{"nom":"Pont-sur-Yonne","ag":["Réseau SNCF TGV, Intercités et TER"],"lt":1,"dept":"89"}},{"type":"Feature","geometry":{"type":"Point","coordinates":[3.29074,48.13828]},"properties":{"nom":"Étigny - Véron","ag":["Réseau SNCF TGV, Intercités et TER"],"lt":1,"dept":"89"}},{"type":"Feature","geometry":{"type":"Point","coordinates":[3.28693,48.08501]},"properties":{"nom":"Villeneuve-sur-Yonne","ag":["Réseau SNCF TGV, Intercités et TER"],"lt":1,"dept":"89"}},{"type":"Feature","geometry":{"type":"Point","coordinates":[3.30278,48.02697]},"properties":{"nom":"Saint-Julien-du-Sault","ag":["Réseau SNCF TGV, Intercités et TER"],"lt":1,"dept":"89"}},{"type":"Feature","geometry":{"type":"Point","coordinates":[3.393,47.97386]},"properties":{"nom":"Joigny","ag":["Réseau SNCF TGV, Intercités et TER"],"lt":1,"dept":"89"}},{"type":"Feature","geometry":{"type":"Point","coordinates":[3.51319,47.961]},"properties":{"nom":"Laroche - Migennes","ag":["Réseau SNCF TGV, Intercités et TER","Agrégat des réseaux urbains et interurbains du Grand Est"],"lt":1,"dept":"89"}},{"type":"Feature","geometry":{"type":"Point","coordinates":[3.73104,47.98106]},"properties":{"nom":"Saint-Florentin - Vergigny","ag":["Réseau SNCF TGV, Intercités et TER"],"lt":1,"dept":"89"}},{"type":"Feature","geometry":{"type":"Point","coordinates":[3.74199,48.00507]},"properties":{"nom":"Saint-Florentin-Ville","ag":["Réseau SNCF TGV, Intercités et TER","Agrégat des réseaux urbains et interurbains du Grand Est"],"lt":1,"dept":"89"}},{"type":"Feature","geometry":{"type":"Point","coordinates":[3.55428,47.89728]},"properties":{"nom":"Chemilly - Appoigny","ag":["Réseau SNCF TGV, Intercités et TER"],"lt":1,"dept":"89"}},{"type":"Feature","geometry":{"type":"Point","coordinates":[3.57995,47.85076]},"properties":{"nom":"Monéteau - Gurgy","ag":["Réseau SNCF TGV, Intercités et TER"],"lt":1,"dept":"89"}},{"type":"Feature","geometry":{"type":"Point","coordinates":[3.58514,47.79765]},"properties":{"nom":"Auxerre Saint-Gervais","ag":["Réseau SNCF TGV, Intercités et TER"],"lt":1,"dept":"89"}},{"type":"Feature","geometry":{"type":"Point","coordinates":[3.60383,47.73859]},"properties":{"nom":"Champs - Saint-Bris","ag":["Réseau SNCF TGV, Intercités et TER"],"lt":1,"dept":"89"}},{"type":"Feature","geometry":{"type":"Point","coordinates":[3.62847,47.7042]},"properties":{"nom":"Vincelles","ag":["Réseau SNCF TGV, Intercités et TER"],"lt":1,"dept":"89"}},{"type":"Feature","geometry":{"type":"Point","coordinates":[3.68117,47.67851]},"properties":{"nom":"Cravant - Bazarnes","ag":["Réseau SNCF TGV, Intercités et TER"],"lt":1,"dept":"89"}},{"type":"Feature","geometry":{"type":"Point","coordinates":[3.73206,47.66076]},"properties":{"nom":"Vermenton","ag":["Réseau SNCF TGV, Intercités et TER"],"lt":1,"dept":"89"}},{"type":"Feature","geometry":{"type":"Point","coordinates":[3.76664,47.60087]},"properties":{"nom":"Arcy-sur-Cure","ag":["Réseau SNCF TGV, Intercités et TER"],"lt":1,"dept":"89"}},{"type":"Feature","geometry":{"type":"Point","coordinates":[3.79267,47.52888]},"properties":{"nom":"Sermizelles - Vézelay","ag":["Réseau SNCF TGV, Intercités et TER"],"lt":1,"dept":"89"}},{"type":"Feature","geometry":{"type":"Point","coordinates":[3.91245,47.49576]},"properties":{"nom":"Avallon","ag":["Réseau SNCF TGV, Intercités et TER"],"lt":1,"dept":"89"}},{"type":"Feature","geometry":{"type":"Point","coordinates":[3.67515,47.60417]},"properties":{"nom":"Mailly-la-Ville","ag":["Réseau SNCF TGV, Intercités et TER"],"lt":1,"dept":"89"}},{"type":"Feature","geometry":{"type":"Point","coordinates":[3.54728,47.52718]},"properties":{"nom":"Coulanges-sur-Yonne","ag":["Réseau SNCF TGV, Intercités et TER"],"lt":1,"dept":"89"}},{"type":"Feature","geometry":{"type":"Point","coordinates":[3.63521,47.53777]},"properties":{"nom":"Châtel-Censoir","ag":["Réseau SNCF TGV, Intercités et TER"],"lt":1,"dept":"89"}},{"type":"Feature","geometry":{"type":"Point","coordinates":[4.21171,47.72931]},"properties":{"nom":"Nuits sous Ravières","ag":["Réseau SNCF TGV, Intercités et TER"],"lt":1,"dept":"89"}},{"type":"Feature","geometry":{"type":"Point","coordinates":[3.97355,47.85938]},"properties":{"nom":"Tonnerre","ag":["Réseau SNCF TGV, Intercités et TER"],"lt":1,"dept":"89"}},{"type":"Feature","geometry":{"type":"Point","coordinates":[3.73266,47.98143]},"properties":{"nom":"Saint-Florentin Gare routière","ag":["Réseau SNCF TGV, Intercités et TER","Agrégat des réseaux urbains et interurbains du Grand Est"],"lt":1,"dept":"89"}},{"type":"Feature","geometry":{"type":"Point","coordinates":[3.51282,47.96113]},"properties":{"nom":"Laroche - Migennes","ag":["Agrégat des réseaux urbains et interurbains du Grand Est"],"lt":1,"dept":"89"}},{"type":"Feature","geometry":{"type":"Point","coordinates":[4.09172,47.51193]},"properties":{"nom":"route de Savigny -","ag":["Réseau interurbain Mobigo"],"lt":0,"dept":"89"}},{"type":"Feature","geometry":{"type":"Point","coordinates":[4.0601,47.48092]},"properties":{"nom":"St André en terre plaine Centre -","ag":["Réseau interurbain Mobigo"],"lt":0,"dept":"89"}},{"type":"Feature","geometry":{"type":"Point","coordinates":[4.08743,47.49653]},"properties":{"nom":"Centre -","ag":["Réseau interurbain Mobigo"],"lt":0,"dept":"89"}},{"type":"Feature","geometry":{"type":"Point","coordinates":[4.02696,47.47141]},"properties":{"nom":"Eglise -","ag":["Réseau interurbain Mobigo"],"lt":0,"dept":"89"}},{"type":"Feature","geometry":{"type":"Point","coordinates":[3.91127,47.49533]},"properties":{"nom":"Gare -","ag":["Réseau interurbain Mobigo"],"lt":0,"dept":"89"}},{"type":"Feature","geometry":{"type":"Point","coordinates":[3.9079,47.49641]},"properties":{"nom":"Centre commercial -","ag":["Réseau interurbain Mobigo"],"lt":0,"dept":"89"}},{"type":"Feature","geometry":{"type":"Point","coordinates":[3.53438,47.85901]},"properties":{"nom":"AUXR_PARC NORD","ag":["Réseau urbain Léo"],"lt":1,"dept":"89"}},{"type":"Feature","geometry":{"type":"Point","coordinates":[3.52529,47.87817]},"properties":{"nom":"APPOIGNY EGLISE","ag":["Réseau urbain Léo"],"lt":1,"dept":"89"}},{"type":"Feature","geometry":{"type":"Point","coordinates":[3.53786,47.85663]},"properties":{"nom":"AUXR_PARC","ag":["Réseau urbain Léo"],"lt":1,"dept":"89"}},{"type":"Feature","geometry":{"type":"Point","coordinates":[3.52673,47.8806]},"properties":{"nom":"APPOIGNY","ag":["Réseau urbain Léo"],"lt":1,"dept":"89"}},{"type":"Feature","geometry":{"type":"Point","coordinates":[3.52676,47.87395]},"properties":{"nom":"APPOIGNY RUE DU PAVILLON","ag":["Réseau urbain Léo"],"lt":1,"dept":"89"}},{"type":"Feature","geometry":{"type":"Point","coordinates":[3.53503,47.86284]},"properties":{"nom":"APPOIGNY Chemin Ruelle Pizze","ag":["Réseau urbain Léo"],"lt":1,"dept":"89"}},{"type":"Feature","geometry":{"type":"Point","coordinates":[3.53817,47.86811]},"properties":{"nom":"APPOIGNY Les Sureaux","ag":["Réseau urbain Léo"],"lt":1,"dept":"89"}},{"type":"Feature","geometry":{"type":"Point","coordinates":[3.54967,47.85046]},"properties":{"nom":"P+R NORD","ag":["Réseau urbain Léo"],"lt":1,"dept":"89"}},{"type":"Feature","geometry":{"type":"Point","coordinates":[3.53348,47.87675]},"properties":{"nom":"APPOIGNY Rue Du Pont","ag":["Réseau urbain Léo"],"lt":1,"dept":"89"}},{"type":"Feature","geometry":{"type":"Point","coordinates":[3.53948,47.87401]},"properties":{"nom":"APPOIGNY Régennes","ag":["Réseau urbain Léo"],"lt":1,"dept":"89"}},{"type":"Feature","geometry":{"type":"Point","coordinates":[3.53126,47.88032]},"properties":{"nom":"APPOIGNY Stade","ag":["Réseau urbain Léo"],"lt":1,"dept":"89"}},{"type":"Feature","geometry":{"type":"Point","coordinates":[3.61232,47.76562]},"properties":{"nom":"AUGY Rd 606","ag":["Réseau urbain Léo"],"lt":1,"dept":"89"}},{"type":"Feature","geometry":{"type":"Point","coordinates":[3.59636,47.78598]},"properties":{"nom":"AUXERREXPO","ag":["Réseau urbain Léo"],"lt":1,"dept":"89"}},{"type":"Feature","geometry":{"type":"Point","coordinates":[3.58933,47.79953]},"properties":{"nom":"ALOUETTE","ag":["Réseau urbain Léo"],"lt":1,"dept":"89"}},{"type":"Feature","geometry":{"type":"Point","coordinates":[3.57136,47.78596]},"properties":{"nom":"ARBORETUM","ag":["Réseau urbain Léo"],"lt":1,"dept":"89"}},{"type":"Feature","geometry":{"type":"Point","coordinates":[3.56737,47.79243]},"properties":{"nom":"ARQUEBUSE","ag":["Réseau urbain Léo"],"lt":1,"dept":"89"}},{"type":"Feature","geometry":{"type":"Point","coordinates":[3.57179,47.80023]},"properties":{"nom":"ABBAYE","ag":["Réseau urbain Léo"],"lt":1,"dept":"89"}},{"type":"Feature","geometry":{"type":"Point","coordinates":[3.58201,47.79311]},"properties":{"nom":"BATARDEAU","ag":["Réseau urbain Léo"],"lt":1,"dept":"89"}},{"type":"Feature","geometry":{"type":"Point","coordinates":[3.58181,47.8213]},"properties":{"nom":"BAS DE JONCHES","ag":["Réseau urbain Léo"],"lt":1,"dept":"89"}},{"type":"Feature","geometry":{"type":"Point","coordinates":[3.56844,47.79064]},"properties":{"nom":"BOURNEIL","ag":["Réseau urbain Léo"],"lt":1,"dept":"89"}},{"type":"Feature","geometry":{"type":"Point","coordinates":[3.58243,47.801]},"properties":{"nom":"BRAZZA","ag":["Réseau urbain Léo"],"lt":1,"dept":"89"}},{"type":"Feature","geometry":{"type":"Point","coordinates":[3.5451,47.79301]},"properties":{"nom":"BRICHERES","ag":["Réseau urbain Léo"],"lt":1,"dept":"89"}},{"type":"Feature","geometry":{"type":"Point","coordinates":[3.57048,47.80918]},"properties":{"nom":"COLLEGE ALBERT CAMUS","ag":["Réseau urbain Léo"],"lt":1,"dept":"89"}},{"type":"Feature","geometry":{"type":"Point","coordinates":[3.57749,47.82095]},"properties":{"nom":"CAILLOTTES","ag":["Réseau urbain Léo"],"lt":1,"dept":"89"}},{"type":"Feature","geometry":{"type":"Point","coordinates":[3.58185,47.78777]},"properties":{"nom":"CARRIERES","ag":["Réseau urbain Léo"],"lt":1,"dept":"89"}},{"type":"Feature","geometry":{"type":"Point","coordinates":[3.58884,47.79508]},"properties":{"nom":"CHARLES DE FOUCAULD","ag":["Réseau urbain Léo"],"lt":1,"dept":"89"}},{"type":"Feature","geometry":{"type":"Point","coordinates":[3.55823,47.79772]},"properties":{"nom":"AUXERRE Collège Denfert Rochereau","ag":["Réseau urbain Léo"],"lt":1,"dept":"89"}},{"type":"Feature","geometry":{"type":"Point","coordinates":[3.56278,47.80377]},"properties":{"nom":"CHAMPLEROY","ag":["Réseau urbain Léo"],"lt":1,"dept":"89"}},{"type":"Feature","geometry":{"type":"Point","coordinates":[3.59008,47.78175]},"properties":{"nom":"CHANTEMERLE","ag":["Réseau urbain Léo"],"lt":1,"dept":"89"}},{"type":"Feature","geometry":{"type":"Point","coordinates":[3.57963,47.80514]},"properties":{"nom":"CHAMPOULAINS","ag":["Réseau urbain Léo"],"lt":1,"dept":"89"}},{"type":"Feature","geometry":{"type":"Point","coordinates":[3.58114,47.80893]},"properties":{"nom":"AUXERRE Cifa","ag":["Réseau urbain Léo"],"lt":1,"dept":"89"}},{"type":"Feature","geometry":{"type":"Point","coordinates":[3.57317,47.79945]},"properties":{"nom":"COCHOIS","ag":["Réseau urbain Léo"],"lt":1,"dept":"89"}},{"type":"Feature","geometry":{"type":"Point","coordinates":[3.58884,47.79674]},"properties":{"nom":"COLBERT","ag":["Réseau urbain Léo"],"lt":1,"dept":"89"}},{"type":"Feature","geometry":{"type":"Point","coordinates":[3.55698,47.79005]},"properties":{"nom":"COLETTE","ag":["Réseau urbain Léo"],"lt":1,"dept":"89"}},{"type":"Feature","geometry":{"type":"Point","coordinates":[3.5703,47.79649]},"properties":{"nom":"CORDELIERS","ag":["Réseau urbain Léo"],"lt":1,"dept":"89"}},{"type":"Feature","geometry":{"type":"Point","coordinates":[3.58487,47.78567]},"properties":{"nom":"COLLEGE PAUL BERT","ag":["Réseau urbain Léo"],"lt":1,"dept":"89"}},{"type":"Feature","geometry":{"type":"Point","coordinates":[3.57163,47.7973]},"properties":{"nom":"CATHEDRALE","ag":["Réseau urbain Léo"],"lt":1,"dept":"89"}},{"type":"Feature","geometry":{"type":"Point","coordinates":[3.59306,47.79627]},"properties":{"nom":"COMPLEXE SPORTIF","ag":["Réseau urbain Léo"],"lt":1,"dept":"89"}},{"type":"Feature","geometry":{"type":"Point","coordinates":[3.56038,47.79681]},"properties":{"nom":"DENFERT","ag":["Réseau urbain Léo"],"lt":1,"dept":"89"}},{"type":"Feature","geometry":{"type":"Point","coordinates":[3.56662,47.80353]},"properties":{"nom":"DE GAULLE","ag":["Réseau urbain Léo"],"lt":1,"dept":"89"}},{"type":"Feature","geometry":{"type":"Point","coordinates":[3.5831,47.81077]},"properties":{"nom":"DENIS PAPIN","ag":["Réseau urbain Léo"],"lt":1,"dept":"89"}},{"type":"Feature","geometry":{"type":"Point","coordinates":[3.54496,47.79756]},"properties":{"nom":"DJANGO REINHARDT","ag":["Réseau urbain Léo"],"lt":1,"dept":"89"}},{"type":"Feature","geometry":{"type":"Point","coordinates":[3.59078,47.79234]},"properties":{"nom":"DR SCHWEITZER","ag":["Réseau urbain Léo"],"lt":1,"dept":"89"}},{"type":"Feature","geometry":{"type":"Point","coordinates":[3.56393,47.79566]},"properties":{"nom":"EGLENY","ag":["Réseau urbain Léo"],"lt":1,"dept":"89"}},{"type":"Feature","geometry":{"type":"Point","coordinates":[3.59423,47.79497]},"properties":{"nom":"EGRISELLES","ag":["Réseau urbain Léo"],"lt":1,"dept":"89"}},{"type":"Feature","geometry":{"type":"Point","coordinates":[3.57159,47.81169]},"properties":{"nom":"EIFFEL","ag":["Réseau urbain Léo"],"lt":1,"dept":"89"}},{"type":"Feature","geometry":{"type":"Point","coordinates":[3.55513,47.80094]},"properties":{"nom":"FLEURUS","ag":["Réseau urbain Léo"],"lt":1,"dept":"89"}},{"type":"Feature","geometry":{"type":"Point","coordinates":[3.5523,47.808]},"properties":{"nom":"FOULON","ag":["Réseau urbain Léo"],"lt":1,"dept":"89"}},{"type":"Feature","geometry":{"type":"Point","coordinates":[3.57139,47.81328]},"properties":{"nom":"FOURNEAUX","ag":["Réseau urbain Léo"],"lt":1,"dept":"89"}},{"type":"Feature","geometry":{"type":"Point","coordinates":[3.55219,47.79436]},"properties":{"nom":"FOURIER","ag":["Réseau urbain Léo"],"lt":1,"dept":"89"}},{"type":"Feature","geometry":{"type":"Point","coordinates":[3.54922,47.79874]},"properties":{"nom":"FRAGONARD","ag":["Réseau urbain Léo"],"lt":1,"dept":"89"}},{"type":"Feature","geometry":{"type":"Point","coordinates":[3.58018,47.79622]},"properties":{"nom":"GAMBETTA","ag":["Réseau urbain Léo"],"lt":1,"dept":"89"}},{"type":"Feature","geometry":{"type":"Point","coordinates":[3.55367,47.80541]},"properties":{"nom":"GOURAUD","ag":["Réseau urbain Léo"],"lt":1,"dept":"89"}},{"type":"Feature","geometry":{"type":"Point","coordinates":[3.58474,47.79797]},"properties":{"nom":"GARE SNCF","ag":["Réseau urbain Léo"],"lt":1,"dept":"89"}},{"type":"Feature","geometry":{"type":"Point","coordinates":[3.58509,47.78024]},"properties":{"nom":"GUYENNE","ag":["Réseau urbain Léo"],"lt":1,"dept":"89"}},{"type":"Feature","geometry":{"type":"Point","coordinates":[3.57508,47.81125]},"properties":{"nom":"GUYNEMER","ag":["Réseau urbain Léo"],"lt":1,"dept":"89"}},{"type":"Feature","geometry":{"type":"Point","coordinates":[3.58885,47.8059]},"properties":{"nom":"H2","ag":["Réseau urbain Léo"],"lt":1,"dept":"89"}},{"type":"Feature","geometry":{"type":"Point","coordinates":[3.55729,47.79706]},"properties":{"nom":"HATIN","ag":["Réseau urbain Léo"],"lt":1,"dept":"89"}},{"type":"Feature","geometry":{"type":"Point","coordinates":[3.57344,47.81601]},"properties":{"nom":"HAUSSMANN","ag":["Réseau urbain Léo"],"lt":1,"dept":"89"}},{"type":"Feature","geometry":{"type":"Point","coordinates":[3.55354,47.81007]},"properties":{"nom":"HEURTEBISE","ag":["Réseau urbain Léo"],"lt":1,"dept":"89"}},{"type":"Feature","geometry":{"type":"Point","coordinates":[3.55302,47.80234]},"properties":{"nom":"HOPITAL","ag":["Réseau urbain Léo"],"lt":1,"dept":"89"}},{"type":"Feature","geometry":{"type":"Point","coordinates":[3.54723,47.79763]},"properties":{"nom":"INGRES","ag":["Réseau urbain Léo"],"lt":1,"dept":"89"}},{"type":"Feature","geometry":{"type":"Point","coordinates":[3.56406,47.81384]},