{"type":"FeatureCollection","features":[{"type":"Feature","geometry":{"type":"Point","coordinates":[2.23354,49.15989]},"properties":{"nom":"Amblaincourt","ag":["Réseau urbain PassThelle Bus"],"lt":0,"dept":"95"}},{"type":"Feature","geometry":{"type":"Point","coordinates":[2.23352,49.15989]},"properties":{"nom":"Amblaincourt - NPU","ag":["Réseau urbain PassThelle Bus"],"lt":0,"dept":"95"}},{"type":"Feature","geometry":{"type":"Point","coordinates":[2.28923,49.14538]},"properties":{"nom":"Hôpital","ag":["Réseau urbain PassThelle Bus"],"lt":0,"dept":"95"}},{"type":"Feature","geometry":{"type":"Point","coordinates":[2.27914,49.14795]},"properties":{"nom":"Persan - Beaumont","ag":["Trains régionaux Hauts-de-France mobilités","Réseau SNCF TGV, Intercités et TER"],"lt":1,"dept":"95"}},{"type":"Feature","geometry":{"type":"Point","coordinates":[2.17492,49.07034]},"properties":{"nom":"Auvers-sur-Oise","ag":["SNCF Transilien","Réseaux urbains et interurbains d'Île-de-France Mobilités (IDFM)"],"lt":0,"dept":"95"}},{"type":"Feature","geometry":{"type":"Point","coordinates":[2.33813,48.97593]},"properties":{"nom":"Deuil - Montmagny","ag":["SNCF Transilien","Réseaux urbains et interurbains d'Île-de-France Mobilités (IDFM)"],"lt":0,"dept":"95"}},{"type":"Feature","geometry":{"type":"Point","coordinates":[1.97054,49.09955]},"properties":{"nom":"Us","ag":["SNCF Transilien","Réseaux urbains et interurbains d'Île-de-France Mobilités (IDFM)"],"lt":0,"dept":"95"}},{"type":"Feature","geometry":{"type":"Point","coordinates":[2.2632,48.99053]},"properties":{"nom":"Ermont Halte","ag":["SNCF Transilien","Réseaux urbains et interurbains d'Île-de-France Mobilités (IDFM)"],"lt":0,"dept":"95"}},{"type":"Feature","geometry":{"type":"Point","coordinates":[1.93687,49.163]},"properties":{"nom":"Chars","ag":["SNCF Transilien","Réseaux urbains et interurbains d'Île-de-France Mobilités (IDFM)"],"lt":0,"dept":"95"}},{"type":"Feature","geometry":{"type":"Point","coordinates":[2.52552,49.09951]},"properties":{"nom":"Survilliers - Fosses","ag":["SNCF Transilien","Réseaux urbains et interurbains d'Île-de-France Mobilités (IDFM)"],"lt":0,"dept":"95"}},{"type":"Feature","geometry":{"type":"Point","coordinates":[2.02539,49.07572]},"properties":{"nom":"Boissy-l'Aillerie","ag":["SNCF Transilien","Réseaux urbains et interurbains d'Île-de-France Mobilités (IDFM)"],"lt":0,"dept":"95"}},{"type":"Feature","geometry":{"type":"Point","coordinates":[2.28785,49.11368]},"properties":{"nom":"Presles - Courcelles","ag":["SNCF Transilien","Réseaux urbains et interurbains d'Île-de-France Mobilités (IDFM)"],"lt":0,"dept":"95"}},{"type":"Feature","geometry":{"type":"Point","coordinates":[1.94941,49.12334]},"properties":{"nom":"Santeuil - Le Perchay","ag":["SNCF Transilien","Réseaux urbains et interurbains d'Île-de-France Mobilités (IDFM)"],"lt":0,"dept":"95"}},{"type":"Feature","geometry":{"type":"Point","coordinates":[2.39966,49.11913]},"properties":{"nom":"Seugy","ag":["SNCF Transilien","Réseaux urbains et interurbains d'Île-de-France Mobilités (IDFM)"],"lt":0,"dept":"95"}},{"type":"Feature","geometry":{"type":"Point","coordinates":[2.10347,49.03909]},"properties":{"nom":"Saint-Ouen-l'Aumône Quartier de l'Église","ag":["SNCF Transilien","Réseaux urbains et interurbains d'Île-de-France Mobilités (IDFM)"],"lt":0,"dept":"95"}},{"type":"Feature","geometry":{"type":"Point","coordinates":[2.47771,49.03307]},"properties":{"nom":"Les Noues","ag":["SNCF Transilien","Réseaux urbains et interurbains d'Île-de-France Mobilités (IDFM)"],"lt":0,"dept":"95"}},{"type":"Feature","geometry":{"type":"Point","coordinates":[2.22945,49.02173]},"properties":{"nom":"Vaucelles","ag":["SNCF Transilien","Réseaux urbains et interurbains d'Île-de-France Mobilités (IDFM)"],"lt":0,"dept":"95"}},{"type":"Feature","geometry":{"type":"Point","coordinates":[2.07978,49.03631]},"properties":{"nom":"Cergy Préfecture","ag":["SNCF Transilien","Réseaux urbains et interurbains d'Île-de-France Mobilités (IDFM)"],"lt":0,"dept":"95"}},{"type":"Feature","geometry":{"type":"Point","coordinates":[2.24289,49.01524]},"properties":{"nom":"Saint-Leu-la-Forêt","ag":["SNCF Transilien","Réseaux urbains et interurbains d'Île-de-France Mobilités (IDFM)"],"lt":0,"dept":"95"}},{"type":"Feature","geometry":{"type":"Point","coordinates":[2.09579,49.04673]},"properties":{"nom":"Pontoise","ag":["SNCF Transilien","Réseaux urbains et interurbains d'Île-de-France Mobilités (IDFM)"],"lt":0,"dept":"95"}},{"type":"Feature","geometry":{"type":"Point","coordinates":[2.50181,49.04934]},"properties":{"nom":"Louvres","ag":["SNCF Transilien","Réseaux urbains et interurbains d'Île-de-France Mobilités (IDFM)"],"lt":0,"dept":"95"}},{"type":"Feature","geometry":{"type":"Point","coordinates":[2.07835,49.01374]},"properties":{"nom":"Neuville Université","ag":["SNCF Transilien","Réseaux urbains et interurbains d'Île-de-France Mobilités (IDFM)"],"lt":0,"dept":"95"}},{"type":"Feature","geometry":{"type":"Point","coordinates":[2.25791,48.9469]},"properties":{"nom":"Argenteuil","ag":["SNCF Transilien","Réseaux urbains et interurbains d'Île-de-France Mobilités (IDFM)"],"lt":0,"dept":"95"}},{"type":"Feature","geometry":{"type":"Point","coordinates":[2.46257,49.02341]},"properties":{"nom":"Goussainville","ag":["SNCF Transilien","Réseaux urbains et interurbains d'Île-de-France Mobilités (IDFM)"],"lt":0,"dept":"95"}},{"type":"Feature","geometry":{"type":"Point","coordinates":[2.27075,48.9805]},"properties":{"nom":"Ermont - Eaubonne","ag":["SNCF Transilien","Réseaux urbains et interurbains d'Île-de-France Mobilités (IDFM)"],"lt":0,"dept":"95"}},{"type":"Feature","geometry":{"type":"Point","coordinates":[2.03452,49.04964]},"properties":{"nom":"Cergy Saint-Christophe","ag":["SNCF Transilien","Réseaux urbains et interurbains d'Île-de-France Mobilités (IDFM)"],"lt":0,"dept":"95"}},{"type":"Feature","geometry":{"type":"Point","coordinates":[2.29115,48.97969]},"properties":{"nom":"Champ de Courses d'Enghien","ag":["SNCF Transilien","Réseaux urbains et interurbains d'Île-de-France Mobilités (IDFM)"],"lt":0,"dept":"95"}},{"type":"Feature","geometry":{"type":"Point","coordinates":[2.41625,48.99377]},"properties":{"nom":"Villiers-le-Bel - Gonesse - Arnouville","ag":["SNCF Transilien","Réseaux urbains et interurbains d'Île-de-France Mobilités (IDFM)"],"lt":0,"dept":"95"}},{"type":"Feature","geometry":{"type":"Point","coordinates":[2.38995,48.97633]},"properties":{"nom":"Garges - Sarcelles","ag":["SNCF Transilien","Réseaux urbains et interurbains d'Île-de-France Mobilités (IDFM)"],"lt":0,"dept":"95"}},{"type":"Feature","geometry":{"type":"Point","coordinates":[2.28578,48.96366]},"properties":{"nom":"Saint-Gratien","ag":["SNCF Transilien","Réseaux urbains et interurbains d'Île-de-France Mobilités (IDFM)"],"lt":0,"dept":"95"}},{"type":"Feature","geometry":{"type":"Point","coordinates":[2.22229,49.02498]},"properties":{"nom":"Taverny","ag":["SNCF Transilien","Réseaux urbains et interurbains d'Île-de-France Mobilités (IDFM)"],"lt":0,"dept":"95"}},{"type":"Feature","geometry":{"type":"Point","coordinates":[2.23269,48.95066]},"properties":{"nom":"Val d'Argenteuil","ag":["SNCF Transilien","Réseaux urbains et interurbains d'Île-de-France Mobilités (IDFM)"],"lt":0,"dept":"95"}},{"type":"Feature","geometry":{"type":"Point","coordinates":[2.32483,49.15512]},"properties":{"nom":"Bruyères-sur-Oise","ag":["SNCF Transilien","Réseaux urbains et interurbains d'Île-de-France Mobilités (IDFM)"],"lt":0,"dept":"95"}},{"type":"Feature","geometry":{"type":"Point","coordinates":[2.27996,49.13283]},"properties":{"nom":"Nointel - Mours","ag":["SNCF Transilien","Réseaux urbains et interurbains d'Île-de-France Mobilités (IDFM)"],"lt":0,"dept":"95"}},{"type":"Feature","geometry":{"type":"Point","coordinates":[2.35054,49.07926]},"properties":{"nom":"Villaines","ag":["SNCF Transilien","Réseaux urbains et interurbains d'Île-de-France Mobilités (IDFM)"],"lt":0,"dept":"95"}},{"type":"Feature","geometry":{"type":"Point","coordinates":[2.36133,49.09839]},"properties":{"nom":"Belloy - Saint-Martin","ag":["SNCF Transilien","Réseaux urbains et interurbains d'Île-de-France Mobilités (IDFM)"],"lt":0,"dept":"95"}},{"type":"Feature","geometry":{"type":"Point","coordinates":[2.36824,49.11663]},"properties":{"nom":"Viarmes","ag":["SNCF Transilien","Réseaux urbains et interurbains d'Île-de-France Mobilités (IDFM)"],"lt":0,"dept":"95"}},{"type":"Feature","geometry":{"type":"Point","coordinates":[2.42004,49.1171]},"properties":{"nom":"Luzarches","ag":["SNCF Transilien","Réseaux urbains et interurbains d'Île-de-France Mobilités (IDFM)"],"lt":0,"dept":"95"}},{"type":"Feature","geometry":{"type":"Point","coordinates":[2.3229,49.0451]},"properties":{"nom":"Bouffémont - Moisselles","ag":["SNCF Transilien","Réseaux urbains et interurbains d'Île-de-France Mobilités (IDFM)"],"lt":0,"dept":"95"}},{"type":"Feature","geometry":{"type":"Point","coordinates":[2.36869,48.9962]},"properties":{"nom":"Sarcelles - Saint-Brice","ag":["SNCF Transilien","Réseaux urbains et interurbains d'Île-de-France Mobilités (IDFM)"],"lt":0,"dept":"95"}},{"type":"Feature","geometry":{"type":"Point","coordinates":[2.15453,49.01918]},"properties":{"nom":"Pierrelaye","ag":["SNCF Transilien","Réseaux urbains et interurbains d'Île-de-France Mobilités (IDFM)"],"lt":0,"dept":"95"}},{"type":"Feature","geometry":{"type":"Point","coordinates":[2.26382,48.97088]},"properties":{"nom":"Sannois","ag":["SNCF Transilien","Réseaux urbains et interurbains d'Île-de-France Mobilités (IDFM)"],"lt":0,"dept":"95"}},{"type":"Feature","geometry":{"type":"Point","coordinates":[2.18034,48.97988]},"properties":{"nom":"La Frette - Montigny","ag":["SNCF Transilien","Réseaux urbains et interurbains d'Île-de-France Mobilités (IDFM)"],"lt":0,"dept":"95"}},{"type":"Feature","geometry":{"type":"Point","coordinates":[2.12812,49.03412]},"properties":{"nom":"Saint-Ouen-l'Aumône Liesse","ag":["SNCF Transilien","Réseaux urbains et interurbains d'Île-de-France Mobilités (IDFM)"],"lt":0,"dept":"95"}},{"type":"Feature","geometry":{"type":"Point","coordinates":[2.32282,49.06616]},"properties":{"nom":"Montsoult - Maffliers","ag":["SNCF Transilien","Réseaux urbains et interurbains d'Île-de-France Mobilités (IDFM)"],"lt":0,"dept":"95"}},{"type":"Feature","geometry":{"type":"Point","coordinates":[2.19652,49.00774]},"properties":{"nom":"Montigny - Beauchamp","ag":["SNCF Transilien","Réseaux urbains et interurbains d'Île-de-France Mobilités (IDFM)"],"lt":0,"dept":"95"}},{"type":"Feature","geometry":{"type":"Point","coordinates":[2.3167,48.96628]},"properties":{"nom":"La Barre Ormesson","ag":["SNCF Transilien","Réseaux urbains et interurbains d'Île-de-France Mobilités (IDFM)"],"lt":0,"dept":"95"}},{"type":"Feature","geometry":{"type":"Point","coordinates":[2.2778,49.14758]},"properties":{"nom":"Persan - Beaumont","ag":["SNCF Transilien","Réseaux urbains et interurbains d'Île-de-France Mobilités (IDFM)"],"lt":0,"dept":"95"}},{"type":"Feature","geometry":{"type":"Point","coordinates":[2.25968,48.99608]},"properties":{"nom":"Gros Noyer Saint-Prix","ag":["SNCF Transilien","Réseaux urbains et interurbains d'Île-de-France Mobilités (IDFM)"],"lt":0,"dept":"95"}},{"type":"Feature","geometry":{"type":"Point","coordinates":[2.25702,48.98515]},"properties":{"nom":"Cernay","ag":["SNCF Transilien","Réseaux urbains et interurbains d'Île-de-France Mobilités (IDFM)"],"lt":0,"dept":"95"}},{"type":"Feature","geometry":{"type":"Point","coordinates":[2.01158,49.04823]},"properties":{"nom":"Cergy le Haut","ag":["SNCF Transilien","Réseaux urbains et interurbains d'Île-de-France Mobilités (IDFM)"],"lt":0,"dept":"95"}},{"type":"Feature","geometry":{"type":"Point","coordinates":[2.19305,48.96864]},"properties":{"nom":"Cormeilles-en-Parisis","ag":["SNCF Transilien","Réseaux urbains et interurbains d'Île-de-France Mobilités (IDFM)"],"lt":0,"dept":"95"}},{"type":"Feature","geometry":{"type":"Point","coordinates":[2.33713,49.03284]},"properties":{"nom":"Domont","ag":["SNCF Transilien","Réseaux urbains et interurbains d'Île-de-France Mobilités (IDFM)"],"lt":0,"dept":"95"}},{"type":"Feature","geometry":{"type":"Point","coordinates":[2.23419,48.99375]},"properties":{"nom":"Franconville - Le Plessis-Bouchard","ag":["SNCF Transilien","Réseaux urbains et interurbains d'Île-de-France Mobilités (IDFM)"],"lt":0,"dept":"95"}},{"type":"Feature","geometry":{"type":"Point","coordinates":[2.13124,49.06088]},"properties":{"nom":"Pont Petit","ag":["SNCF Transilien","Réseaux urbains et interurbains d'Île-de-France Mobilités (IDFM)"],"lt":0,"dept":"95"}},{"type":"Feature","geometry":{"type":"Point","coordinates":[2.35352,48.98436]},"properties":{"nom":"Groslay","ag":["SNCF Transilien","Réseaux urbains et interurbains d'Île-de-France Mobilités (IDFM)"],"lt":0,"dept":"95"}},{"type":"Feature","geometry":{"type":"Point","coordinates":[2.20544,49.07775]},"properties":{"nom":"Mériel","ag":["SNCF Transilien","Réseaux urbains et interurbains d'Île-de-France Mobilités (IDFM)"],"lt":0,"dept":"95"}},{"type":"Feature","geometry":{"type":"Point","coordinates":[2.19142,49.05828]},"properties":{"nom":"Méry-sur-Oise","ag":["SNCF Transilien","Réseaux urbains et interurbains d'Île-de-France Mobilités (IDFM)"],"lt":0,"dept":"95"}},{"type":"Feature","geometry":{"type":"Point","coordinates":[2.1971,49.04528]},"properties":{"nom":"Frépillon","ag":["SNCF Transilien","Réseaux urbains et interurbains d'Île-de-France Mobilités (IDFM)"],"lt":0,"dept":"95"}},{"type":"Feature","geometry":{"type":"Point","coordinates":[2.12266,49.05505]},"properties":{"nom":"Épluches","ag":["SNCF Transilien","Réseaux urbains et interurbains d'Île-de-France Mobilités (IDFM)"],"lt":0,"dept":"95"}},{"type":"Feature","geometry":{"type":"Point","coordinates":[2.20192,49.09094]},"properties":{"nom":"Valmondois","ag":["SNCF Transilien","Réseaux urbains et interurbains d'Île-de-France Mobilités (IDFM)"],"lt":0,"dept":"95"}},{"type":"Feature","geometry":{"type":"Point","coordinates":[2.20994,49.11455]},"properties":{"nom":"L'Isle-Adam - Parmain","ag":["SNCF Transilien","Réseaux urbains et interurbains d'Île-de-France Mobilités (IDFM)"],"lt":0,"dept":"95"}},{"type":"Feature","geometry":{"type":"Point","coordinates":[2.24299,49.13609]},"properties":{"nom":"Champagne-sur-Oise","ag":["SNCF Transilien","Réseaux urbains et interurbains d'Île-de-France Mobilités (IDFM)"],"lt":0,"dept":"95"}},{"type":"Feature","geometry":{"type":"Point","coordinates":[2.14108,49.06913]},"properties":{"nom":"Chaponval","ag":["SNCF Transilien","Réseaux urbains et interurbains d'Île-de-France Mobilités (IDFM)"],"lt":0,"dept":"95"}},{"type":"Feature","geometry":{"type":"Point","coordinates":[2.00295,49.08081]},"properties":{"nom":"Montgeroult - Courcelles","ag":["SNCF Transilien","Réseaux urbains et interurbains d'Île-de-France Mobilités (IDFM)"],"lt":0,"dept":"95"}},{"type":"Feature","geometry":{"type":"Point","coordinates":[2.10523,49.04531]},"properties":{"nom":"Saint-Ouen-l'Aumône","ag":["SNCF Transilien","Réseaux urbains et interurbains d'Île-de-France Mobilités (IDFM)"],"lt":0,"dept":"95"}},{"type":"Feature","geometry":{"type":"Point","coordinates":[2.16223,48.99014]},"properties":{"nom":"Herblay","ag":["SNCF Transilien","Réseaux urbains et interurbains d'Île-de-France Mobilités (IDFM)"],"lt":0,"dept":"95"}},{"type":"Feature","geometry":{"type":"Point","coordinates":[2.36224,49.0232]},"properties":{"nom":"Écouen - Ézanville","ag":["SNCF Transilien","Réseaux urbains et interurbains d'Île-de-France Mobilités (IDFM)"],"lt":0,"dept":"95"}},{"type":"Feature","geometry":{"type":"Point","coordinates":[2.30679,48.97288]},"properties":{"nom":"Enghien-les-Bains","ag":["SNCF Transilien","Réseaux urbains et interurbains d'Île-de-France Mobilités (IDFM)"],"lt":0,"dept":"95"}},{"type":"Feature","geometry":{"type":"Point","coordinates":[2.09057,49.0179]},"properties":{"nom":"Éragny - Neuville","ag":["SNCF Transilien","Réseaux urbains et interurbains d'Île-de-France Mobilités (IDFM)"],"lt":0,"dept":"95"}},{"type":"Feature","geometry":{"type":"Point","coordinates":[2.32876,48.95793]},"properties":{"nom":"Épinay - Villetaneuse","ag":["SNCF Transilien","Réseaux urbains et interurbains d'Île-de-France Mobilités (IDFM)"],"lt":0,"dept":"95"}},{"type":"Feature","geometry":{"type":"Point","coordinates":[2.2103,49.03528]},"properties":{"nom":"Bessancourt","ag":["SNCF Transilien","Réseaux urbains et interurbains d'Île-de-France Mobilités (IDFM)"],"lt":0,"dept":"95"}},{"type":"Feature","geometry":{"type":"Point","coordinates":[2.05816,49.06282]},"properties":{"nom":"Osny","ag":["SNCF Transilien","Réseaux urbains et interurbains d'Île-de-France Mobilités (IDFM)"],"lt":0,"dept":"95"}},{"type":"Feature","geometry":{"type":"Point","coordinates":[2.33823,49.03229]},"properties":{"nom":"Gare de Domont","ag":["SNCF Transilien","Réseaux urbains et interurbains d'Île-de-France Mobilités (IDFM)"],"lt":0,"dept":"95"}},{"type":"Feature","geometry":{"type":"Point","coordinates":[2.52515,49.09949]},"properties":{"nom":"Survilliers - Fosses","ag":["SNCF Transilien","Réseaux urbains et interurbains d'Île-de-France Mobilités (IDFM)"],"lt":0,"dept":"95"}},{"type":"Feature","geometry":{"type":"Point","coordinates":[2.36352,49.02294]},"properties":{"nom":"Gare d'Écouen Ézanville","ag":["SNCF Transilien","Réseaux urbains et interurbains d'Île-de-France Mobilités (IDFM)"],"lt":0,"dept":"95"}},{"type":"Feature","geometry":{"type":"Point","coordinates":[2.33841,48.97511]},"properties":{"nom":"Gare de Deuil-Montmagny","ag":["SNCF Transilien","Réseaux urbains et interurbains d'Île-de-France Mobilités (IDFM)"],"lt":0,"dept":"95"}},{"type":"Feature","geometry":{"type":"Point","coordinates":[2.29262,48.98078]},"properties":{"nom":"Gare de Champ de Courses d'Enghien","ag":["SNCF Transilien","Réseaux urbains et interurbains d'Île-de-France Mobilités (IDFM)"],"lt":0,"dept":"95"}},{"type":"Feature","geometry":{"type":"Point","coordinates":[2.29224,48.98034]},"properties":{"nom":"Gare de Champ de Courses d'Enghien","ag":["SNCF Transilien","Réseaux urbains et interurbains d'Île-de-France Mobilités (IDFM)"],"lt":0,"dept":"95"}},{"type":"Feature","geometry":{"type":"Point","coordinates":[2.3359,48.97524]},"properties":{"nom":"Gare de Deuil - Montmagny","ag":["SNCF Transilien","Réseaux urbains et interurbains d'Île-de-France Mobilités (IDFM)"],"lt":0,"dept":"95"}},{"type":"Feature","geometry":{"type":"Point","coordinates":[2.30639,48.97346]},"properties":{"nom":"Gare d'Enghien-les-Bains","ag":["SNCF Transilien","Réseaux urbains et interurbains d'Île-de-France Mobilités (IDFM)"],"lt":0,"dept":"95"}},{"type":"Feature","geometry":{"type":"Point","coordinates":[2.19775,49.00713]},"properties":{"nom":"Gare de Montigny - Beauchamp","ag":["SNCF Transilien","Réseaux urbains et interurbains d'Île-de-France Mobilités (IDFM)"],"lt":0,"dept":"95"}},{"type":"Feature","geometry":{"type":"Point","coordinates":[2.20315,49.0917]},"properties":{"nom":"Gare de Valmondois","ag":["SNCF Transilien","Réseaux urbains et interurbains d'Île-de-France Mobilités (IDFM)"],"lt":0,"dept":"95"}},{"type":"Feature","geometry":{"type":"Point","coordinates":[2.35328,48.98481]},"properties":{"nom":"Gare de Groslay","ag":["SNCF Transilien","Réseaux urbains et interurbains d'Île-de-France Mobilités (IDFM)"],"lt":0,"dept":"95"}},{"type":"Feature","geometry":{"type":"Point","coordinates":[2.36849,49.11699]},"properties":{"nom":"Gare de Viarmes","ag":["SNCF Transilien","Réseaux urbains et interurbains d'Île-de-France Mobilités (IDFM)"],"lt":0,"dept":"95"}},{"type":"Feature","geometry":{"type":"Point","coordinates":[2.36768,48.99476]},"properties":{"nom":"Gare de Sarcelles - Saint-Brice","ag":["SNCF Transilien","Réseaux urbains et interurbains d'Île-de-France Mobilités (IDFM)"],"lt":0,"dept":"95"}},{"type":"Feature","geometry":{"type":"Point","coordinates":[2.50141,49.04923]},"properties":{"nom":"Gare de Louvres","ag":["SNCF Transilien","Réseaux urbains et interurbains d'Île-de-France Mobilités (IDFM)"],"lt":0,"dept":"95"}},{"type":"Feature","geometry":{"type":"Point","coordinates":[2.20981,49.11494]},"properties":{"nom":"Mairie - Gare / L'Isle-Adam - Parmain","ag":["SNCF Transilien","Réseaux urbains et interurbains d'Île-de-France Mobilités (IDFM)"],"lt":0,"dept":"95"}},{"type":"Feature","geometry":{"type":"Point","coordinates":[2.36239,49.09754]},"properties":{"nom":"Gare de Belloy Saint-Martin","ag":["SNCF Transilien","Réseaux urbains et interurbains d'Île-de-France Mobilités (IDFM)"],"lt":0,"dept":"95"}},{"type":"Feature","geometry":{"type":"Point","coordinates":[2.35316,49.07993]},"properties":{"nom":"Beau Jay / Villaines","ag":["SNCF Transilien","Réseaux urbains et interurbains d'Île-de-France Mobilités (IDFM)"],"lt":0,"dept":"95"}},{"type":"Feature","geometry":{"type":"Point","coordinates":[2.36752,48.99495]},"properties":{"nom":"Gare de Sarcelles - Saint-Brice","ag":["SNCF Transilien","Réseaux urbains et interurbains d'Île-de-France Mobilités (IDFM)"],"lt":0,"dept":"95"}},{"type":"Feature","geometry":{"type":"Point","coordinates":[2.42138,49.11716]},"properties":{"nom":"Gare de Luzarches","ag":["SNCF Transilien","Réseaux urbains et interurbains d'Île-de-France Mobilités (IDFM)"],"lt":0,"dept":"95"}},{"type":"Feature","geometry":{"type":"Point","coordinates":[2.09568,49.0471]},"properties":{"nom":"Gare de Pontoise","ag":["SNCF Transilien","Réseaux urbains et interurbains d'Île-de-France Mobilités (IDFM)"],"lt":0,"dept":"95"}},{"type":"Feature","geometry":{"type":"Point","coordinates":[2.32244,49.04504]},"properties":{"nom":"Gare de Bouffémont Moisselles","ag":["SNCF Transilien","Réseaux urbains et interurbains d'Île-de-France Mobilités (IDFM)"],"lt":0,"dept":"95"}},{"type":"Feature","geometry":{"type":"Point","coordinates":[2.12801,49.03342]},"properties":{"nom":"Gare de Liesse - Quai F","ag":["SNCF Transilien","Réseaux urbains et interurbains d'Île-de-France Mobilités (IDFM)"],"lt":0,"dept":"95"}},{"type":"Feature","geometry":{"type":"Point","coordinates":[2.47421,49.03205]},"properties":{"nom":"Mairie / Les Noues","ag":["SNCF Transilien","Réseaux urbains et interurbains d'Île-de-France Mobilités (IDFM)"],"lt":0,"dept":"95"}},{"type":"Feature","geometry":{"type":"Point","coordinates":[2.259,48.99925]},"properties":{"nom":"Place de la Libération","ag":["SNCF Transilien","Réseaux urbains et interurbains d'Île-de-France Mobilités (IDFM)"],"lt":0,"dept":"95"}},{"type":"Feature","geometry":{"type":"Point","coordinates":[2.20517,49.0779]},"properties":{"nom":"Gare de Mériel","ag":["SNCF Transilien","Réseaux urbains et interurbains d'Île-de-France Mobilités (IDFM)"],"lt":0,"dept":"95"}},{"type":"Feature","geometry":{"type":"Point","coordinates":[2.27762,49.14772]},"properties":{"nom":"Persan - Beaumont","ag":["SNCF Transilien","Réseaux urbains et interurbains d'Île-de-France Mobilités (IDFM)"],"lt":0,"dept":"95"}},{"type":"Feature","geometry":{"type":"Point","coordinates":[2.20175,49.04751]},"properties":{"nom":"Gare de Frépillon","ag":["SNCF Transilien","Réseaux urbains et interurbains d'Île-de-France Mobilités (IDFM)"],"lt":0,"dept":"95"}},{"type":"Feature","geometry":{"type":"Point","coordinates":[2.20998,49.03584]},"properties":{"nom":"Gare de Bessancourt","ag":["SNCF Transilien","Réseaux urbains et interurbains d'Île-de-France Mobilités (IDFM)"],"lt":0,"dept":"95"}},{"type":"Feature","geometry":{"type":"Point","coordinates":[2.32227,49.06641]},"properties":{"nom":"Gare de Montsoult-Maffliers","ag":["SNCF Transilien","Réseaux urbains et interurbains d'Île-de-France Mobilités (IDFM)"],"lt":0,"dept":"95"}},{"type":"Feature","geometry":{"type":"Point","coordinates":[2.1522,49.01968]},"properties":{"nom":"Gare de Pierrelaye","ag":["SNCF Transilien","Réseaux urbains et interurbains d'Île-de-France Mobilités (IDFM)"],"lt":0,"dept":"95"}},{"type":"Feature","geometry":{"type":"Point","coordinates":[2.22117,49.02537]},"properties":{"nom":"Gare de Taverny","ag":["SNCF Transilien","Réseaux urbains et interurbains d'Île-de-France Mobilités (IDFM)"],"lt":0,"dept":"95"}},{"type":"Feature","geometry":{"type":"Point","coordinates":[2.25745,48.98486]},"properties":{"nom":"Gare de Cernay","ag":["SNCF Transilien","Réseaux urbains et interurbains d'Île-de-France Mobilités (IDFM)"],"lt":0,"dept":"95"}},{"type":"Feature","geometry":{"type":"Point","coordinates":[2.31652,48.96763]},"properties":{"nom":"Place de la Barre","ag":["SNCF Transilien","Réseaux urbains et interurbains d'Île-de-France Mobilités (IDFM)"],"lt":0,"dept":"95"}},{"type":"Feature","geometry":{"type":"Point","coordinates":[2.24199,49.13589]},"properties":{"nom":"Gare de Champagne-sur-Oise","ag":["SNCF Transilien","Réseaux urbains et interurbains d'Île-de-France Mobilités (IDFM)"],"lt":0,"dept":"95"}},{"type":"Feature","geometry":{"type":"Point","coordinates":[2.18889,49.05871]},"properties":{"nom":"Méry-sur-Oise / Camille Plaquet","ag":["SNCF Transilien","Réseaux urbains et interurbains d'Île-de-France Mobilités (IDFM)"],"lt":0,"dept":"95"}},{"type":"Feature","geometry":{"type":"Point","coordinates":[2.24197,49.01561]},"properties":{"nom":"Gare de Saint-Leu-la-Forêt","ag":["SNCF Transilien","Réseaux urbains et interurbains d'Île-de-France Mobilités (IDFM)"],"lt":0,"dept":"95"}},{"type":"Feature","geometry":{"type":"Point","coordinates":[2.10755,49.04505]},"properties":{"nom":"Mairie / Saint-Ouen-l'Aumône","ag":["SNCF Transilien","Réseaux urbains et interurbains d'Île-de-France Mobilités (IDFM)"],"lt":0,"dept":"95"}},{"type":"Feature","geometry":{"type":"Point","coordinates":[2.27096,48.98017]},"properties":{"nom":"Gare d'Ermont Eaubonne","ag":["SNCF Transilien","Réseaux urbains et interurbains d'Île-de-France Mobilités (IDFM)"],"lt":0,"dept":"95"}},{"type":"Feature","geometry":{"type":"Point","coordinates":[2.31803,48.96669]},"properties":{"nom":"Place de la Barre","ag":["SNCF Transilien","Réseaux urbains et interurbains d'Île-de-France Mobilités (IDFM)"],"lt":0,"dept":"95"}},{"type":"Feature","geometry":{"type":"Point","coordinates":[2.39047,48.97703]},"properties":{"nom":"Garges - Sarcelles RER","ag":["SNCF Transilien","Réseaux urbains et interurbains d'Île-de-France Mobilités (IDFM)"],"lt":0,"dept":"95"}},{"type":"Feature","geometry":{"type":"Point","coordinates":[2.27765,49.14769]},"properties":{"nom":"Persan - Beaumont","ag":["SNCF Transilien","Réseaux urbains et interurbains d'Île-de-France Mobilités (IDFM)"],"lt":0,"dept":"95"}},{"type":"Feature","geometry":{"type":"Point","coordinates":[2.21138,49.03611]},"properties":{"nom":"Gare de Bessancourt","ag":["SNCF Transilien","Réseaux urbains et interurbains d'Île-de-France Mobilités (IDFM)"],"lt":0,"dept":"95"}},{"type":"Feature","geometry":{"type":"Point","coordinates":[2.25757,48.94642]},"properties":{"nom":"Gare d'Argenteuil (gare routière)","ag":["SNCF Transilien","Réseaux urbains et interurbains d'Île-de-France Mobilités (IDFM)"],"lt":0,"dept":"95"}},{"type":"Feature","geometry":{"type":"Point","coordinates":[2.23465,48.99348]},"properties":{"nom":"Gare de Franconville","ag":["SNCF Transilien","Réseaux urbains et interurbains d'Île-de-France Mobilités (IDFM)"],"lt":0,"dept":"95"}},{"type":"Feature","geometry":{"type":"Point","coordinates":[2.3069,48.97293]},"properties":{"nom":"Gare d'Enghien-les-Bains","ag":["SNCF Transilien","Réseaux urbains et interurbains d'Île-de-France Mobilités (IDFM)"],"lt":0,"dept":"95"}},{"type":"Feature","geometry":{"type":"Point","coordinates":[2.27147,48.98005]},"properties":{"nom":"Gare d'Ermont-Eaubonne","ag":["SNCF Transilien","Réseaux urbains et interurbains d'Île-de-France Mobilités (IDFM)"],"lt":0,"dept":"95"}},{"type":"Feature","geometry":{"type":"Point","coordinates":[2.2422,49.13601]},"properties":{"nom":"Gare de Champagne-sur-Oise","ag":["SNCF Transilien","Réseaux urbains et interurbains d'Île-de-France Mobilités (IDFM)"],"lt":0,"dept":"95"}},{"type":"Feature","geometry":{"type":"Point","coordinates":[2.32965,48.95803]},"properties":{"nom":"Gare d'Epinay Villetaneuse","ag":["SNCF Transilien","Réseaux urbains et interurbains d'Île-de-France Mobilités (IDFM)"],"lt":0,"dept":"95"}},{"type":"Feature","geometry":{"type":"Point","coordinates":[2.33797,49.03239]},"properties":{"nom":"Gare de Domont","ag":["SNCF Transilien","Réseaux urbains et interurbains d'Île-de-France Mobilités (IDFM)"],"lt":0,"dept":"95"}},{"type":"Feature","geometry":{"type":"Point","coordinates":[2.29243,48.98056]},"properties":{"nom":"Gare de Champ de Courses d'Enghien","ag":["SNCF Transilien","Réseaux urbains et interurbains d'Île-de-France Mobilités (IDFM)"],"lt":0,"dept":"95"}},{"type":"Feature","geometry":{"type":"Point","coordinates":[2.25697,48.98513]},"properties":{"nom":"Gare de Cernay","ag":["SNCF Transilien","Réseaux urbains et interurbains d'Île-de-France Mobilités (IDFM)"],"lt":0,"dept":"95"}},{"type":"Feature","geometry":{"type":"Point","coordinates":[2.32249,49.04515]},"properties":{"nom":"Gare de Bouffémont Moisselles","ag":["SNCF Transilien","Réseaux urbains et interurbains d'Île-de-France Mobilités (IDFM)"],"lt":0,"dept":"95"}},{"type":"Feature","geometry":{"type":"Point","coordinates":[2.36349,49.02307]},"properties":{"nom":"Gare d'Écouen Ézanville","ag":["SNCF Transilien","Réseaux urbains et interurbains d'Île-de-France Mobilités (IDFM)"],"lt":0,"dept":"95"}},{"type":"Feature","geometry":{"type":"Point","coordinates":[2.20173,49.0474]},"properties":{"nom":"Gare de Frépillon","ag":["SNCF Transilien","Réseaux urbains et interurbains d'Île-de-France Mobilités (IDFM)"],"lt":0,"dept":"95"}},{"type":"Feature","geometry":{"type":"Point","coordinates":[2.19364,48.96817]},"properties":{"nom":"Gare de Cormeilles-en-Parisis","ag":["SNCF Transilien","Réseaux urbains et interurbains d'Île-de-France Mobilités (IDFM)"],"lt":0,"dept":"95"}},{"type":"Feature","geometry":{"type":"Point","coordinates":[2.33716,48.97518]},"properties":{"nom":"Deuil Montmagny","ag":["SNCF Transilien","Réseaux urbains et interurbains d'Île-de-France Mobilités (IDFM)"],"lt":0,"dept":"95"}},{"type":"Feature","geometry":{"type":"Point","coordinates":[2.31728,48.96723]},"properties":{"nom":"Place de la Barre","ag":["SNCF Transilien","Réseaux urbains et interurbains d'Île-de-France Mobilités (IDFM)"],"lt":0,"dept":"95"}},{"type":"Feature","geometry":{"type":"Point","coordinates":[2.18902,49.05854]},"properties":{"nom":"Méry-sur-Oise / Camille Plaquet","ag":["SNCF Transilien","Réseaux urbains et interurbains d'Île-de-France Mobilités (IDFM)"],"lt":0,"dept":"95"}},{"type":"Feature","geometry":{"type":"Point","coordinates":[2.10752,49.04513]},"properties":{"nom":"Mairie / Saint-Ouen-l'Aumône","ag":["SNCF Transilien","Réseaux urbains et interurbains d'Île-de-France Mobilités (IDFM)"],"lt":0,"dept":"95"}},{"type":"Feature","geometry":{"type":"Point","coordinates":[2.10477,49.04041]},"properties":{"nom":"Verdun / Saint-Ouen-l'Aumône Quartier de l'Église","ag":["SNCF Transilien","Réseaux urbains et interurbains d'Île-de-France Mobilités (IDFM)"],"lt":0,"dept":"95"}},{"type":"Feature","geometry":{"type":"Point","coordinates":[2.47406,49.03214]},"properties":{"nom":"Mairie / Les Noues","ag":["SNCF Transilien","Réseaux urbains et interurbains d'Île-de-France Mobilités (IDFM)"],"lt":0,"dept":"95"}},{"type":"Feature","geometry":{"type":"Point","coordinates":[2.24551,49.0113]},"properties":{"nom":"Le Moulin","ag":["SNCF Transilien","Réseaux urbains et interurbains d'Île-de-France Mobilités (IDFM)"],"lt":0,"dept":"95"}},{"type":"Feature","geometry":{"type":"Point","coordinates":[2.41761,48.99394]},"properties":{"nom":"Gare de Villiers-le-Bel Gonesse Arnouville","ag":["SNCF Transilien","Réseaux urbains et interurbains d'Île-de-France Mobilités (IDFM)"],"lt":0,"dept":"95"}},{"type":"Feature","geometry":{"type":"Point","coordinates":[2.20261,49.09188]},"properties":{"nom":"Gare de Valmondois","ag":["SNCF Transilien","Réseaux urbains et interurbains d'Île-de-France Mobilités (IDFM)"],"lt":0,"dept":"95"}},{"type":"Feature","geometry":{"type":"Point","coordinates":[2.20962,49.11477]},"properties":{"nom":"Mairie - Gare / L'Isle-Adam - Parmain","ag":["SNCF Transilien","Réseaux urbains et interurbains d'Île-de-France Mobilités (IDFM)"],"lt":0,"dept":"95"}},{"type":"Feature","geometry":{"type":"Point","coordinates":[2.22139,49.02566]},"properties":{"nom":"Gare de Taverny","ag":["SNCF Transilien","Réseaux urbains et interurbains d'Île-de-France Mobilités (IDFM)"],"lt":0,"dept":"95"}},{"type":"Feature","geometry":{"type":"Point","coordinates":[2.368,48.99486]},"properties":{"nom":"Gare de Sarcelles - Saint-Brice","ag":["SNCF Transilien","Réseaux urbains et interurbains d'Île-de-France Mobilités (IDFM)"],"lt":0,"dept":"95"}},{"type":"Feature","geometry":{"type":"Point","coordinates":[2.50128,49.04929]},"properties":{"nom":"Gare de Louvres","ag":["SNCF Transilien","Réseaux urbains et interurbains d'Île-de-France Mobilités (IDFM)"],"lt":0,"dept":"95"}},{"type":"Feature","geometry":{"type":"Point","coordinates":[2.23126,48.95054]},"properties":{"nom":"Gare du Val d'Argenteuil","ag":["SNCF Transilien","Réseaux urbains et interurbains d'Île-de-France Mobilités (IDFM)"],"lt":0,"dept":"95"}},{"type":"Feature","geometry":{"type":"Point","coordinates":[2.12811,49.03358]},"properties":{"nom":"Gare de Saint-Ouen-l'Aumône - Liesse","ag":["SNCF Transilien","Réseaux urbains et interurbains d'Île-de-France Mobilités (IDFM)"],"lt":0,"dept":"95"}},{"type":"Feature","geometry":{"type":"Point","coordinates":[2.52515,49.09949]},"properties":{"nom":"Gare de Survilliers Fosses","ag":["SNCF Transilien","Réseaux urbains et interurbains d'Île-de-France Mobilités (IDFM)"],"lt":0,"dept":"95"}},{"type":"Feature","geometry":{"type":"Point","coordinates":[2.26308,48.97008]},"properties":{"nom":"Gare de Sannois","ag":["SNCF Transilien","Réseaux urbains et interurbains d'Île-de-France Mobilités (IDFM)"],"lt":0,"dept":"95"}},{"type":"Feature","geometry":{"type":"Point","coordinates":[2.15316,49.01926]},"properties":{"nom":"Gare de Pierrelaye","ag":["SNCF Transilien","Réseaux urbains et interurbains d'Île-de-France Mobilités (IDFM)"],"lt":0,"dept":"95"}},{"type":"Feature","geometry":{"type":"Point","coordinates":[2.28731,49.11264]},"properties":{"nom":"Gare de Presles-Courcelles","ag":["SNCF Transilien","Réseaux urbains et interurbains d'Île-de-France Mobilités (IDFM)"],"lt":0,"dept":"95"}},{"type":"Feature","geometry":{"type":"Point","coordinates":[2.32236,49.06637]},"properties":{"nom":"Montsoult Maffliers","ag":["SNCF Transilien","Réseaux urbains et interurbains d'Île-de-France Mobilités (IDFM)"],"lt":0,"dept":"95"}},{"type":"Feature","geometry":{"type":"Point","coordinates":[2.18048,48.98057]},"properties":{"nom":"La Frette - Montigny","ag":["SNCF Transilien","Réseaux urbains et interurbains d'Île-de-France Mobilités (IDFM)"],"lt":0,"dept":"95"}},{"type":"Feature","geometry":{"type":"Point","coordinates":[2.28025,49.14808]},"properties":{"nom":"Gare de Persan - Beaumont","ag":["SNCF Transilien","Réseaux urbains et interurbains d'Île-de-France Mobilités (IDFM)"],"lt":0,"dept":"95"}},{"type":"Feature","geometry":{"type":"Point","coordinates":[2.35436,48.98483]},"properties":{"nom":"Gare de Groslay","ag":["SNCF Transilien","Réseaux urbains et interurbains d'Île-de-France Mobilités (IDFM)"],"lt":0,"dept":"95"}},{"type":"Feature","geometry":{"type":"Point","coordinates":[2.19712,49.00734]},"properties":{"nom":"Gare de Montigny - Beauchamp","ag":["SNCF Transilien","Réseaux urbains et interurbains d'Île-de-France Mobilités (IDFM)"],"lt":0,"dept":"95"}},{"type":"Feature","geometry":{"type":"Point","coordinates":[2.16155,48.99078]},"properties":{"nom":"Gare de Herblay","ag":["SNCF Transilien","Réseaux urbains et interurbains d'Île-de-France Mobilités (IDFM)"],"lt":0,"dept":"95"}},{"type":"Feature","geometry":{"type":"Point","coordinates":[2.09062,49.01782]},"properties":{"nom":"Gare d'Éragny - Neuville","ag":["SNCF Transilien","Réseaux urbains et interurbains d'Île-de-France Mobilités (IDFM)"],"lt":0,"dept":"95"}},{"type":"Feature","geometry":{"type":"Point","coordinates":[2.09596,49.04713]},"properties":{"nom":"Gare de Pontoise (Place du Général de Gaulle)","ag":["SNCF Transilien","Réseaux urbains et interurbains d'Île-de-France Mobilités (IDFM)"],"lt":0,"dept":"95"}},{"type":"Feature","geometry":{"type":"Point","coordinates":[2.46297,49.02411]},"properties":{"nom":"Gare de Goussainville","ag":["SNCF Transilien","Réseaux urbains et interurbains d'Île-de-France Mobilités (IDFM)"],"lt":0,"dept":"95"}},{"type":"Feature","geometry":{"type":"Point","coordinates":[2.39089,48.97679]},"properties":{"nom":"Gare de Garges Sarcelles","ag":["SNCF Transilien","Réseaux urbains et interurbains d'Île-de-France Mobilités (IDFM)"],"lt":0,"dept":"95"}},{"type":"Feature","geometry":{"type":"Point","coordinates":[2.28091,49.13263]},"properties":{"nom":"Gare de Nointel - Mours (Avenue de la Gare)","ag":["SNCF Transilien","Réseaux urbains et interurbains d'Île-de-France Mobilités (IDFM)"],"lt":0,"dept":"95"}},{"type":"Feature","geometry":{"type":"Point","coordinates":[2.23061,49.02108]},"properties":{"nom":"Vaucelles","ag":["SNCF Transilien","Réseaux urbains et interurbains d'Île-de-France Mobilités (IDFM)"],"lt":0,"dept":"95"}},{"type":"Feature","geometry":{"type":"Point","coordinates":[2.28122,49.14796]},"properties":{"nom":"Persan - Beaumont","ag":["SNCF Transilien","Réseaux urbains et interurbains d'Île-de-France Mobilités (IDFM)"],"lt":0,"dept":"95"}},{"type":"Feature","geometry":{"type":"Point","coordinates":[2.27755,49.14783]},"properties":{"nom":"Persan - Beaumont","ag":["SNCF Transilien","Réseaux urbains et interurbains d'Île-de-France Mobilités (IDFM)"],"lt":0,"dept":"95"}},{"type":"Feature","geometry":{"type":"Point","coordinates":[2.4162,48.99432]},"properties":{"nom":"Villiers-le-Bel - Gonesse - Arnouville","ag":["SNCF Transilien","Réseaux urbains et interurbains d'Île-de-France Mobilités (IDFM)"],"lt":0,"dept":"95"}},{"type":"Feature","geometry":{"type":"Point","coordinates":[2.27991,49.13287]},"properties":{"nom":"Nointel - Mours","ag":["SNCF Transilien","Réseaux urbains et interurbains d'Île-de-France Mobilités (IDFM)"],"lt":0,"dept":"95"}},{"type":"Feature","geometry":{"type":"Point","coordinates":[2.474,49.03207]},"properties":{"nom":"Les Noues","ag":["SNCF Transilien","Réseaux urbains et interurbains d'Île-de-France Mobilités (IDFM)"],"lt":0,"dept":"95"}},{"type":"Feature","geometry":{"type":"Point","coordinates":[2.3385,48.97599]},"properties":{"nom":"Deuil - Montmagny","ag":["SNCF Transilien","Réseaux urbains et interurbains d'Île-de-France Mobilités (IDFM)"],"lt":0,"dept":"95"}},{"type":"Feature","geometry":{"type":"Point","coordinates":[2.32282,49.06625]},"properties":{"nom":"Montsoult - Maffliers","ag":["SNCF Transilien","Réseaux urbains et interurbains d'Île-de-France Mobilités (IDFM)"],"lt":0,"dept":"95"}},{"type":"Feature","geometry":{"type":"Point","coordinates":[2.27755,49.14754]},"properties":{"nom":"Persan - Beaumont","ag":["SNCF Transilien","Réseaux urbains et interurbains d'Île-de-France Mobilités (IDFM)"],"lt":0,"dept":"95"}},{"type":"Feature","geometry":{"type":"Point","coordinates":[2.19298,48.96859]},"properties":{"nom":"Cormeilles-en-Parisis","ag":["SNCF Transilien","Réseaux urbains et interurbains d'Île-de-France Mobilités (IDFM)"],"lt":0,"dept":"95"}},{"type":"Feature","geometry":{"type":"Point","coordinates":[2.36224,49.02325]},"properties":{"nom":"Écouen - Ézanville","ag":["SNCF Transilien","Réseaux urbains et interurbains d'Île-de-France Mobilités (IDFM)"],"lt":0,"dept":"95"}},{"type":"Feature","geometry":{"type":"Point","coordinates":[2.27987,49.13281]},"properties":{"nom":"Nointel - Mours","ag":["SNCF Transilien","Réseaux urbains et interurbains d'Île-de-France Mobilités (IDFM)"],"lt":0,"dept":"95"}},{"type":"Feature","geometry":{"type":"Point","coordinates":[2.32299,49.06615]},"properties":{"nom":"Montsoult - Maffliers","ag":["SNCF Transilien","Réseaux urbains et interurbains d'Île-de-France Mobilités (IDFM)"],"lt":0,"dept":"95"}},{"type":"Feature","geometry":{"type":"Point","coordinates":[2.2776,49.1478]},"properties":{"nom":"Persan - Beaumont","ag":["SNCF Transilien","Réseaux urbains et interurbains d'Île-de-France Mobilités (IDFM)"],"lt":0,"dept":"95"}},{"type":"Feature","geometry":{"type":"Point","coordinates":[2.20536,49.0777]},"properties":{"nom":"Mériel","ag":["SNCF Transilien","Réseaux urbains et interurbains d'Île-de-France Mobilités (IDFM)"],"lt":0,"dept":"95"}},{"type":"Feature","geometry":{"type":"Point","coordinates":[2.46305,49.02417]},"properties":{"nom":"Goussainville","ag":["SNCF Transilien","Réseaux urbains et interurbains d'Île-de-France Mobilités (IDFM)"],"lt":0,"dept":"95"}},{"type":"Feature","geometry":{"type":"Point","coordinates":[2.38916,48.97565]},"properties":{"nom":"Garges - Sarcelles","ag":["SNCF Transilien","Réseaux urbains et interurbains d'Île-de-France Mobilités (IDFM)"],"lt":0,"dept":"95"}},{"type":"Feature","geometry":{"type":"Point","coordinates":[2.41662,48.9937]},"properties":{"nom":"Villiers-le-Bel - Gonesse - Arnouville","ag":["SNCF Transilien","Réseaux urbains et interurbains d'Île-de-France Mobilités (IDFM)"],"lt":0,"dept":"95"}},{"type":"Feature","geometry":{"type":"Point","coordinates":[2.40211,49.11923]},"properties":{"nom":"Seugy","ag":["SNCF Transilien","Réseaux urbains et interurbains d'Île-de-France Mobilités (IDFM)"],"lt":0,"dept":"95"}},{"type":"Feature","geometry":{"type":"Point","coordinates":[2.46412,49.02362]},"properties":{"nom":"Goussainville","ag":["SNCF Transilien","Réseaux urbains et interurbains d'Île-de-France Mobilités (IDFM)"],"lt":0,"dept":"95"}},{"type":"Feature","geometry":{"type":"Point","coordinates":[2.23429,48.99384]},"properties":{"nom":"Gare de Franconville","ag":["SNCF Transilien","Réseaux urbains et interurbains d'Île-de-France Mobilités (IDFM)"],"lt":0,"dept":"95"}},{"type":"Feature","geometry":{"type":"Point","coordinates":[2.27925,49.14788]},"properties":{"nom":"Persan - Beaumont","ag":["SNCF Transilien","Réseaux urbains et interurbains d'Île-de-France Mobilités (IDFM)"],"lt":1,"dept":"95"}},{"type":"Feature","geometry":{"type":"Point","coordinates":[2.20973,49.11469]},"properties":{"nom":"L'Isle-Adam - Parmain","ag":["SNCF Transilien","Réseaux urbains et interurbains d'Île-de-France Mobilités (IDFM)"],"lt":1,"dept":"95"}},{"type":"Feature","geometry":{"type":"Point","coordinates":[2.4212,49.11761]},"properties":{"nom":"Luzarches","ag":["SNCF Transilien","Réseaux urbains et interurbains d'Île-de-France Mobilités (IDFM)"],"lt":1,"dept":"95"}},{"type":"Feature","geometry":{"type":"Point","coordinates":[2.36949,48.99551]},"properties":{"nom":"Sarcelles - Saint-Brice","ag":["SNCF Transilien","Réseaux urbains et interurbains d'Île-de-France Mobilités (IDFM)"],"lt":1,"dept":"95"}},{"type":"Feature","geometry":{"type":"Point","coordinates":[2.2425,49.13601]},"properties":{"nom":"Champagne-sur-Oise","ag":["SNCF Transilien","Réseaux urbains et interurbains d'Île-de-France Mobilités (IDFM)"],"lt":1,"dept":"95"}},{"type":"Feature","geometry":{"type":"Point","coordinates":[2.25945,48.99647]},"properties":{"nom":"Gros Noyer Saint-Prix","ag":["SNCF Transilien","Réseaux urbains et interurbains d'Île-de-France Mobilités (IDFM)"],"lt":1,"dept":"95"}},{"type":"Feature","geometry":{"type":"Point","coordinates":[2.5017,49.04934]},"properties":{"nom":"Louvres","ag":["SNCF Transilien","Réseaux urbains et interurbains d'Île-de-France Mobilités (IDFM)"],"lt":1,"dept":"95"}},{"type":"Feature","geometry":{"type":"Point","coordinates":[2.00393,49.08087]},"properties":{"nom":"Montgeroult - Courcelles","ag":["SNCF Transilien","Réseaux urbains et interurbains d'Île-de-France Mobilités (IDFM)"],"lt":1,"dept":"95"}},{"type":"Feature","geometry":{"type":"Point","coordinates":[2.35184,49.0793]},"properties":{"nom":"Villaines","ag":["SNCF Transilien","Réseaux urbains et interurbains d'Île-de-France Mobilités (IDFM)"],"lt":1,"dept":"95"}},{"type":"Feature","geometry":{"type":"Point","coordinates":[2.23465,48.99348]},"properties":{"nom":"Franconville - Le Plessis-Bouchard","ag":["SNCF Transilien","Réseaux urbains et interurbains d'Île-de-France Mobilités (IDFM)"],"lt":1,"dept":"95"}},{"type":"Feature","geometry":{"type":"Point","coordinates":[2.41678,48.99431]},"properties":{"nom":"Villiers-le-Bel - Gonesse - Arnouville","ag":["SNCF Transilien","Réseaux urbains et interurbains d'Île-de-France Mobilités (IDFM)"],"lt":1,"dept":"95"}},{"type":"Feature","geometry":{"type":"Point","coordinates":[2.36172,49.09808]},"properties":{"nom":"Belloy - Saint-Martin","ag":["SNCF Transilien","Réseaux urbains et interurbains d'Île-de-France Mobilités (IDFM)"],"lt":1,"dept":"95"}},{"type":"Feature","geometry":{"type":"Point","coordinates":[1.97053,49.10022]},"properties":{"nom":"Us","ag":["SNCF Transilien","Réseaux urbains et interurbains d'Île-de-France Mobilités (IDFM)"],"lt":1,"dept":"95"}},{"type":"Feature","geometry":{"type":"Point","coordinates":[2.32794,48.95841]},"properties":{"nom":"Épinay - Villetaneuse","ag":["SNCF Transilien","Réseaux urbains et interurbains d'Île-de-France Mobilités (IDFM)"],"lt":1,"dept":"95"}},{"type":"Feature","geometry":{"type":"Point","coordinates":[2.23166,48.95054]},"properties":{"nom":"Val d'Argenteuil","ag":["SNCF Transilien","Réseaux urbains et interurbains d'Île-de-France Mobilités (IDFM)"],"lt":1,"dept":"95"}},{"type":"Feature","geometry":{"type":"Point","coordinates":[2.25681,48.94702]},"properties":{"nom":"Argenteuil","ag":["SNCF Transilien","Réseaux urbains et interurbains d'Île-de-France Mobilités (IDFM)"],"lt":1,"dept":"95"}},{"type":"Feature","geometry":{"type":"Point","coordinates":[2.18152,48.9802]},"properties":{"nom":"La Frette - Montigny","ag":["SNCF Transilien","Réseaux urbains et interurbains d'Île-de-France Mobilités (IDFM)"],"lt":1,"dept":"95"}},{"type":"Feature","geometry":{"type":"Point","coordinates":[2.29137,48.98016]},"properties":{"nom":"Champ de Courses d'Enghien","ag":["SNCF Transilien","Réseaux urbains et interurbains d'Île-de-France Mobilités (IDFM)"],"lt":1,"dept":"95"}},{"type":"Feature","geometry":{"type":"Point","coordinates":[2.27076,48.98035]},"properties":{"nom":"Ermont - Eaubonne","ag":["SNCF Transilien","Réseaux urbains et interurbains d'Île-de-France Mobilités (IDFM)"],"lt":1,"dept":"95"}},{"type":"Feature","geometry":{"type":"Point","coordinates":[2.39038,48.97648]},"properties":{"nom":"Garges - Sarcelles","ag":["SNCF Transilien","Réseaux urbains et interurbains d'Île-de-France Mobilités (IDFM)"],"lt":1,"dept":"95"}},{"type":"Feature","geometry":{"type":"Point","coordinates":[2.33719,48.97557]},"properties":{"nom":"Deuil - Montmagny","ag":["SNCF Transilien","Réseaux urbains et interurbains d'Île-de-France Mobilités (IDFM)"],"lt":1,"dept":"95"}},{"type":"Feature","geometry":{"type":"Point","coordinates":[2.2634,48.97045]},"properties":{"nom":"Sannois","ag":["SNCF Transilien","Réseaux urbains et interurbains d'Île-de-France Mobilités (IDFM)"],"lt":1,"dept":"95"}},{"type":"Feature","geometry":{"type":"Point","coordinates":[2.3069,48.97293]},"properties":{"nom":"Enghien-les-Bains","ag":["SNCF Transilien","Réseaux urbains et interurbains d'Île-de-France Mobilités (IDFM)"],"lt":1,"dept":"95"}},{"type":"Feature","geometry":{"type":"Point","coordinates":[2.28625,48.96347]},"properties":{"nom":"Saint-Gratien","ag":["SNCF Transilien","Réseaux urbains et interurbains d'Île-de-France Mobilités (IDFM)"],"lt":1,"dept":"95"}},{"type":"Feature","geometry":{"type":"Point","coordinates":[2.19364,48.96826]},"properties":{"nom":"Cormeilles-en-Parisis","ag":["SNCF Transilien","Réseaux urbains et interurbains d'Île-de-France Mobilités (IDFM)"],"lt":1,"dept":"95"}},{"type":"Feature","geometry":{"type":"Point","coordinates":[2.31728,48.96699]},"properties":{"nom":"La Barre Ormesson","ag":["SNCF Transilien","Réseaux urbains et interurbains d'Île-de-France Mobilités (IDFM)"],"lt":1,"dept":"95"}},{"type":"Feature","geometry":{"type":"Point","coordinates":[2.07932,49.03657]},"properties":{"nom":"Cergy Préfecture","ag":["SNCF Transilien","Réseaux urbains et interurbains d'Île-de-France Mobilités (IDFM)"],"lt":1,"dept":"95"}},{"type":"Feature","geometry":{"type":"Point","coordinates":[2.21138,49.03582]},"properties":{"nom":"Bessancourt","ag":["SNCF Transilien","Réseaux urbains et interurbains d'Île-de-France Mobilités (IDFM)"],"lt":1,"dept":"95"}},{"type":"Feature","geometry":{"type":"Point","coordinates":[2.12813,49.03385]},"properties":{"nom":"Saint-Ouen-l'Aumône Liesse","ag":["SNCF Transilien","Réseaux urbains et interurbains d'Île-de-France Mobilités (IDFM)"],"lt":1,"dept":"95"}},{"type":"Feature","geometry":{"type":"Point","coordinates":[2.4772,49.03281]},"properties":{"nom":"Les Noues","ag":["SNCF Transilien","Réseaux urbains et interurbains d'Île-de-France Mobilités (IDFM)"],"lt":1,"dept":"95"}},{"type":"Feature","geometry":{"type":"Point","coordinates":[2.3384,49.03284]},"properties":{"nom":"Domont","ag":["SNCF Transilien","Réseaux urbains et interurbains d'Île-de-France Mobilités (IDFM)"],"lt":1,"dept":"95"}},{"type":"Feature","geometry":{"type":"Point","coordinates":[2.32271,49.04515]},"properties":{"nom":"Bouffémont - Moisselles","ag":["SNCF Transilien","Réseaux urbains et interurbains d'Île-de-France Mobilités (IDFM)"],"lt":1,"dept":"95"}},{"type":"Feature","geometry":{"type":"Point","coordinates":[2.19941,49.04639]},"properties":{"nom":"Frépillon","ag":["SNCF Transilien","Réseaux urbains et interurbains d'Île-de-France Mobilités (IDFM)"],"lt":1,"dept":"95"}},{"type":"Feature","geometry":{"type":"Point","coordinates":[2.03437,49.04983]},"properties":{"nom":"Cergy Saint-Christophe","ag":["SNCF Transilien","Réseaux urbains et interurbains d'Île-de-France Mobilités (IDFM)"],"lt":1,"dept":"95"}},{"type":"Feature","geometry":{"type":"Point","coordinates":[2.16155,48.99065]},"properties":{"nom":"Herblay","ag":["SNCF Transilien","Réseaux urbains et interurbains d'Île-de-France Mobilités (IDFM)"],"lt":1,"dept":"95"}},{"type":"Feature","geometry":{"type":"Point","coordinates":[2.10637,49.04515]},"properties":{"nom":"Saint-Ouen-l'Aumône","ag":["SNCF Transilien","Réseaux urbains et interurbains d'Île-de-France Mobilités (IDFM)"],"lt":1,"dept":"95"}},{"type":"Feature","geometry":{"type":"Point","coordinates":[2.01088,49.04778]},"properties":{"nom":"Cergy le Haut","ag":["SNCF Transilien","Réseaux urbains et interurbains d'Île-de-France Mobilités (IDFM)"],"lt":1,"dept":"95"}},{"type":"Feature","geometry":{"type":"Point","coordinates":[2.05755,49.06311]},"properties":{"nom":"Osny","ag":["SNCF Transilien","Réseaux urbains et interurbains d'Île-de-France Mobilités (IDFM)"],"lt":1,"dept":"95"}},{"type":"Feature","geometry":{"type":"Point","coordinates":[2.3532,48.98505]},"properties":{"nom":"Groslay","ag":["SNCF Transilien","Réseaux urbains et interurbains d'Île-de-France Mobilités (IDFM)"],"lt":1,"dept":"95"}},{"type":"Feature","geometry":{"type":"Point","coordinates":[2.25697,48.98513]},"properties":{"nom":"Cernay","ag":["SNCF Transilien","Réseaux urbains et interurbains d'Île-de-France Mobilités (IDFM)"],"lt":1,"dept":"95"}},{"type":"Feature","geometry":{"type":"Point","coordinates":[2.19021,49.05813]},"properties":{"nom":"Méry-sur-Oise","ag":["SNCF Transilien","Réseaux urbains et interurbains d'Île-de-France Mobilités (IDFM)"],"lt":1,"dept":"95"}},{"type":"Feature","geometry":{"type":"Point","coordinates":[2.12953,49.06042]},"properties":{"nom":"Pont Petit","ag":["SNCF Transilien","Réseaux urbains et interurbains d'Île-de-France Mobilités (IDFM)"],"lt":1,"dept":"95"}},{"type":"Feature","geometry":{"type":"Point","coordinates":[2.19712,49.00734]},"properties":{"nom":"Montigny - Beauchamp","ag":["SNCF Transilien","Réseaux urbains et interurbains d'Île-de-France Mobilités (IDFM)"],"lt":1,"dept":"95"}},{"type":"Feature","geometry":{"type":"Point","coordinates":[2.07933,49.01442]},"properties":{"nom":"Neuville Université","ag":["SNCF Transilien","Réseaux urbains et interurbains d'Île-de-France Mobilités (IDFM)"],"lt":1,"dept":"95"}},{"type":"Feature","geometry":{"type":"Point","coordinates":[2.2425,49.01538]},"properties":{"nom":"Saint-Leu-la-Forêt","ag":["SNCF Transilien","Réseaux urbains et interurbains d'Île-de-France Mobilités (IDFM)"],"lt":1,"dept":"95"}},{"type":"Feature","geometry":{"type":"Point","coordinates":[2.15342,49.01926]},"properties":{"nom":"Pierrelaye","ag":["SNCF Transilien","Réseaux urbains et interurbains d'Île-de-France Mobilités (IDFM)"],"lt":1,"dept":"95"}},{"type":"Feature","geometry":{"type":"Point","coordinates":[2.46268,49.02364]},"properties":{"nom":"Goussainville","ag":["SNCF Transilien","Réseaux urbains et interurbains d'Île-de-France Mobilités (IDFM)"],"lt":1,"dept":"95"}},{"type":"Feature","geometry":{"type":"Point","coordinates":[2.22999,49.02142]},"properties":{"nom":"Vaucelles","ag":["SNCF Transilien","Réseaux urbains et interurbains d'Île-de-France Mobilités (IDFM)"],"lt":1,"dept":"95"}},{"type":"Feature","geometry":{"type":"Point","coordinates":[2.36285,49.02309]},"properties":{"nom":"Écouen - Ézanville","ag":["SNCF Transilien","Réseaux urbains et interurbains d'Île-de-France Mobilités (IDFM)"],"lt":1,"dept":"95"}},{"type":"Feature","geometry":{"type":"Point","coordinates":[2.22179,49.02545]},"properties":{"nom":"Taverny","ag":["SNCF Transilien","Réseaux urbains et interurbains d'Île-de-France Mobilités (IDFM)"],"lt":1,"dept":"95"}},{"type":"Feature","geometry":{"type":"Point","coordinates":[2.52535,49.09951]},"properties":{"nom":"Survilliers - Fosses","ag":["SNCF Transilien","Réseaux urbains et interurbains d'Île-de-France Mobilités (IDFM)"],"lt":1,"dept":"95"}},{"type":"Feature","geometry":{"type":"Point","coordinates":[2.3256,49.1549]},"properties":{"nom":"Bruyères-sur-Oise","ag":["SNCF Transilien","Réseaux urbains et interurbains d'Île-de-France Mobilités (IDFM)"],"lt":1,"dept":"95"}},{"type":"Feature","geometry":{"type":"Point","coordinates":[2.28762,49.11328]},"properties":{"nom":"Presles - Courcelles","ag":["SNCF Transilien","Réseaux urbains et interurbains d'Île-de-France Mobilités (IDFM)"],"lt":1,"dept":"95"}},{"type":"Feature","geometry":{"type":"Point","coordinates":[2.36836,49.11681]},"properties":{"nom":"Viarmes","ag":["SNCF Transilien","Réseaux urbains et interurbains d'Île-de-France Mobilités (IDFM)"],"lt":1,"dept":"95"}},{"type":"Feature","geometry":{"type":"Point","coordinates":[1.94913,49.1238]},"properties":{"nom":"Santeuil - Le Perchay","ag":["SNCF Transilien","Réseaux urbains et interurbains d'Île-de-France Mobilités (IDFM)"],"lt":1,"dept":"95"}},{"type":"Feature","geometry":{"type":"Point","coordinates":[2.25921,48.99968]},"properties":{"nom":"Hector Carlin / Place de la Libération","ag":["SNCF Transilien","Réseaux urbains et interurbains d'Île-de-France Mobilités (IDFM)"],"lt":1,"dept":"95"}},{"type":"Feature","geometry":{"type":"Point","coordinates":[2.28044,49.13272]},"properties":{"nom":"Nointel - Mours","ag":["SNCF Transilien","Réseaux urbains et interurbains d'Île-de-France Mobilités (IDFM)"],"lt":1,"dept":"95"}},{"type":"Feature","geometry":{"type":"Point","coordinates":[2.17437,49.07047]},"properties":{"nom":"Auvers-sur-Oise","ag":["SNCF Transilien","Réseaux urbains et interurbains d'Île-de-France Mobilités (IDFM)"],"lt":1,"dept":"95"}},{"type":"Feature","geometry":{"type":"Point","coordinates":[2.02669,49.07527]},"properties":{"nom":"Boissy-l'Aillerie","ag":["SNCF Transilien","Réseaux urbains et interurbains d'Île-de-France Mobilités (IDFM)"],"lt":1,"dept":"95"}},{"type":"Feature","geometry":{"type":"Point","coordinates":[2.20534,49.07777]},"properties":{"nom":"Mériel","ag":["SNCF Transilien","Réseaux urbains et interurbains d'Île-de-France Mobilités (IDFM)"],"lt":1,"dept":"95"}},{"type":"Feature","geometry":{"type":"Point","coordinates":[2.14226,49.06946]},"properties":{"nom":"Chaponval","ag":["SNCF Transilien","Réseaux urbains et interurbains d'Île-de-France Mobilités (IDFM)"],"lt":1,"dept":"95"}},{"type":"Feature","geometry":{"type":"Point","coordinates":[2.32262,49.06624]},"properties":{"nom":"Montsoult - Maffliers","ag":["SNCF Transilien","Réseaux urbains et interurbains d'Île-de-France Mobilités (IDFM)"],"lt":1,"dept":"95"}},{"type":"Feature","geometry":{"type":"Point","coordinates":[2.20249,49.0913]},"properties":{"nom":"Valmondois","ag":["SNCF Transilien","Réseaux urbains et interurbains d'Île-de-France Mobilités (IDFM)"],"lt":1,"dept":"95"}},{"type":"Feature","geometry":{"type":"Point","coordinates":[2.42201,48.97598]},"properties":{"nom":"Rond-Point du Christ","ag":["Réseaux urbains et interurbains d'Île-de-France Mobilités (IDFM)"],"lt":0,"dept":"95"}},{"type":"Feature","geometry":{"type":"Point","coordinates":[2.42393,48.98082]},"properties":{"nom":"Mairie Annexe - Collège Jean Moulin","ag":["Réseaux urbains et interurbains d'Île-de-France Mobilités (IDFM)"],"lt":0,"dept":"95"}},{"type":"Feature","geometry":{"type":"Point","coordinates":[2.3671,48.98391]},"properties":{"nom":"Rue de Sarcelles","ag":["Réseaux urbains et interurbains d'Île-de-France Mobilités (IDFM)"],"lt":0,"dept":"95"}},{"type":"Feature","geometry":{"type":"Point","coordinates":[2.36706,48.98399]},"properties":{"nom":"Rue de Sarcelles","ag":["Réseaux urbains et interurbains d'Île-de-France Mobilités (IDFM)"],"lt":0,"dept":"95"}},{"type":"Feature","geometry":{"type":"Point","coordinates":[2.35792,48.98505]},"properties":{"nom":"République","ag":["Réseaux urbains et interurbains d'Île-de-France Mobilités (IDFM)"],"lt":0,"dept":"95"}},{"type":"Feature","geometry":{"type":"Point","coordinates":[2.35792,48.98517]},"properties":{"nom":"République","ag":["Réseaux urbains et interurbains d'Île-de-France Mobilités (IDFM)"],"lt":0,"dept":"95"}},{"type":"Feature","geometry":{"type":"Point","coordinates":[2.35046,48.97871]},"properties":{"nom":"Collège Nicolas Copernic","ag":["Réseaux urbains et interurbains d'Île-de-France Mobilités (IDFM)"],"lt":0,"dept":"95"}},{"type":"Feature","geometry":{"type":"Point","coordinates":[2.35072,48.97879]},"properties":{"nom":"Collège Nicolas Copernic","ag":["Réseaux urbains et interurbains d'Île-de-France Mobilités (IDFM)"],"lt":0,"dept":"95"}},{"type":"Feature","geometry":{"type":"Point","coordinates":[2.35544,48.98485]},"properties":{"nom":"Gare de Groslay","ag":["Réseaux urbains et interurbains d'Île-de-France Mobilités (IDFM)"],"lt":0,"dept":"95"}},{"type":"Feature","geometry":{"type":"Point","coordinates":[2.39811,48.96712]},"properties":{"nom":"Collège Henri Wallon","ag":["Réseaux urbains et interurbains d'Île-de-France Mobilités (IDFM)"],"lt":0,"dept":"95"}},{"type":"Feature","geometry":{"type":"Point","coordinates":[2.41543,48.99951]},"properties":{"nom":"Voltaire","ag":["Réseaux urbains et interurbains d'Île-de-France Mobilités (IDFM)"],"lt":0,"dept":"95"}},{"type":"Feature","geometry":{"type":"Point","coordinates":[2.3886,49.00683]},"properties":{"nom":"Mairie de Villiers-le-Bel","ag":["Réseaux urbains et interurbains d'Île-de-France Mobilités (IDFM)"],"lt":0,"dept":"95"}},{"type":"Feature","geometry":{"type":"Point","coordinates":[1.70169,49.06384]},"properties":{"nom":"Foyer Rural","ag":["Réseaux urbains et interurbains d'Île-de-France Mobilités (IDFM)"],"lt":0,"dept":"95"}},{"type":"Feature","geometry":{"type":"Point","coordinates":[1.70158,49.0638]},"properties":{"nom":"Foyer Rural","ag":["Réseaux urbains et interurbains d'Île-de-France Mobilités (IDFM)"],"lt":0,"dept":"95"}},{"type":"Feature","geometry":{"type":"Point","coordinates":[2.16829,49.15184]},"properties":{"nom":"Église Hédouville","ag":["Réseaux urbains et interurbains d'Île-de-France Mobilités (IDFM)"],"lt":0,"dept":"95"}},{"type":"Feature","geometry":{"type":"Point","coordinates":[2.16824,49.15202]},"properties":{"nom":"Eglise","ag":["Réseaux urbains et interurbains d'Île-de-France Mobilités (IDFM)"],"lt":0,"dept":"95"}},{"type":"Feature","geometry":{"type":"Point","coordinates":[2.00595,49.05168]},"properties":{"nom":"Les Explorateurs","ag":["Réseaux urbains et interurbains d'Île-de-France Mobilités (IDFM)"],"lt":0,"dept":"95"}},{"type":"Feature","geometry":{"type":"Point","coordinates":[1.80106,49.15576]},"properties":{"nom":"Moulins","ag":["Réseaux urbains et interurbains d'Île-de-France Mobilités (IDFM)"],"lt":0,"dept":"95"}},{"type":"Feature","geometry":{"type":"Point","coordinates":[1.75922,49.0662]},"properties":{"nom":"Ferme de Brunel","ag":["Réseaux urbains et interurbains d'Île-de-France Mobilités (IDFM)"],"lt":0,"dept":"95"}},{"type":"Feature","geometry":{"type":"Point","coordinates":[1.74153,49.06075]},"properties":{"nom":"Place","ag":["Réseaux urbains et interurbains d'Île-de-France Mobilités (IDFM)"],"lt":0,"dept":"95"}},{"type":"Feature","geometry":{"type":"Point","coordinates":[2.02515,49.06821]},"properties":{"nom":"Cimetière","ag":["Réseaux urbains et interurbains d'Île-de-France Mobilités (IDFM)"],"lt":0,"dept":"95"}},{"type":"Feature","geometry":{"type":"Point","coordinates":[1.77521,49.09959]},"properties":{"nom":"Église","ag":["Réseaux urbains et interurbains d'Île-de-France Mobilités (IDFM)"],"lt":0,"dept":"95"}},{"type":"Feature","geometry":{"type":"Point","coordinates":[1.77648,49.09969]},"properties":{"nom":"Mairie","ag":["Réseaux urbains et interurbains d'Île-de-France Mobilités (IDFM)"],"lt":0,"dept":"95"}},{"type":"Feature","geometry":{"type":"Point","coordinates":[1.7894,49.12964]},"properties":{"nom":"Mézières","ag":["Réseaux urbains et interurbains d'Île-de-France Mobilités (IDFM)"],"lt":0,"dept":"95"}},{"type":"Feature","geometry":{"type":"Point","coordinates":[2.00601,49.05177]},"properties":{"nom":"Les Explorateurs","ag":["Réseaux urbains et interurbains d'Île-de-France Mobilités (IDFM)"],"lt":0,"dept":"95"}},{"type":"Feature","geometry":{"type":"Point","coordinates":[2.02507,49.06836]},"properties":{"nom":"Cimetière","ag":["Réseaux urbains et interurbains d'Île-de-France Mobilités (IDFM)"],"lt":0,"dept":"95"}},{"type":"Feature","geometry":{"type":"Point","coordinates":[2.07833,49.03773]},"properties":{"nom":"Préfecture","ag":["Réseaux urbains et interurbains d'Île-de-France Mobilités (IDFM)"],"lt":0,"dept":"95"}},{"type":"Feature","geometry":{"type":"Point","coordinates":[2.22754,48.98396]},"properties":{"nom":"Place Charles de Gaulle","ag":["Réseaux urbains et interurbains d'Île-de-France Mobilités (IDFM)"],"lt":0,"dept":"95"}},{"type":"Feature","geometry":{"type":"Point","coordinates":[2.22745,48.98423]},"properties":{"nom":"Place Charles de Gaulle","ag":["Réseaux urbains et interurbains d'Île-de-France Mobilités (IDFM)"],"lt":0,"dept":"95"}},{"type":"Feature","geometry":{"type":"Point","coordinates":[2.23461,48.96879]},"properties":{"nom":"Résidence du Moulin","ag":["Réseaux urbains et interurbains d'Île-de-France Mobilités (IDFM)"],"lt":0,"dept":"95"}},{"type":"Feature","geometry":{"type":"Point","coordinates":[2.08069,49.03623]},"properties":{"nom":"Préfecture","ag":["Réseaux urbains et interurbains d'Île-de-France Mobilités (IDFM)"],"lt":0,"dept":"95"}},{"type":"Feature","geometry":{"type":"Point","coordinates":[2.07818,49.03808]},"properties":{"nom":"Préfecture","ag":["Réseaux urbains et interurbains d'Île-de-France Mobilités (IDFM)"],"lt":0,"dept":"95"}},{"type":"Feature","geometry":{"type":"Point","coordinates":[2.22799,48.93961]},"properties":{"nom":"Jean Jaurès","ag":["Réseaux urbains et interurbains d'Île-de-France Mobilités (IDFM)"],"lt":0,"dept":"95"}},{"type":"Feature","geometry":{"type":"Point","coordinates":[2.22869,48.94013]},"properties":{"nom":"Jean Jaurès","ag":["Réseaux urbains et interurbains d'Île-de-France Mobilités (IDFM)"],"lt":0,"dept":"95"}},{"type":"Feature","geometry":{"type":"Point","coordinates":[2.23266,48.9332]},"properties":{"nom":"Porte Saint-Germain","ag":["Réseaux urbains et interurbains d'Île-de-France Mobilités (IDFM)"],"lt":0,"dept":"95"}},{"type":"Feature","geometry":{"type":"Point","coordinates":[2.23545,48.96902]},"properties":{"nom":"Résidence du Moulin","ag":["Réseaux urbains et interurbains d'Île-de-France Mobilités (IDFM)"],"lt":0,"dept":"95"}},{"type":"Feature","geometry":{"type":"Point","coordinates":[2.24202,48.95496]},"properties":{"nom":"Marceau Guillot","ag":["Réseaux urbains et interurbains d'Île-de-France Mobilités (IDFM)"],"lt":0,"dept":"95"}},{"type":"Feature","geometry":{"type":"Point","coordinates":[2.24204,48.95541]},"properties":{"nom":"Marceau Guillot","ag":["Réseaux urbains et interurbains d'Île-de-France Mobilités (IDFM)"],"lt":0,"dept":"95"}},{"type":"Feature","geometry":{"type":"Point","coordinates":[2.23129,48.95102]},"properties":{"nom":"Gare du Val d'Argenteuil","ag":["Réseaux urbains et interurbains d'Île-de-France Mobilités (IDFM)"],"lt":0,"dept":"95"}},{"type":"Feature","geometry":{"type":"Point","coordinates":[2.23206,48.95085]},"properties":{"nom":"Gare du Val d'Argenteuil","ag":["Réseaux urbains et interurbains d'Île-de-France Mobilités (IDFM)"],"lt":0,"dept":"95"}},{"type":"Feature","geometry":{"type":"Point","coordinates":[2.23258,48.94668]},"properties":{"nom":"Place François Rabelais","ag":["Réseaux urbains et interurbains d'Île-de-France Mobilités (IDFM)"],"lt":0,"dept":"95"}},{"type":"Feature","geometry":{"type":"Point","coordinates":[2.23307,48.94692]},"properties":{"nom":"Place François Rabelais","ag":["Réseaux urbains et interurbains d'Île-de-France Mobilités (IDFM)"],"lt":0,"dept":"95"}},{"type":"Feature","geometry":{"type":"Point","coordinates":[2.0819,49.03535]},"properties":{"nom":"Préfecture","ag":["Réseaux urbains et interurbains d'Île-de-France Mobilités (IDFM)"],"lt":0,"dept":"95"}},{"type":"Feature","geometry":{"type":"Point","coordinates":[2.08179,49.03549]},"properties":{"nom":"Préfecture","ag":["Réseaux urbains et interurbains d'Île-de-France Mobilités (IDFM)"],"lt":0,"dept":"95"}},{"type":"Feature","geometry":{"type":"Point","coordinates":[2.132,49.1019]},"properties":{"nom":"Chateau","ag":["Réseaux urbains et interurbains d'Île-de-France Mobilités (IDFM)"],"lt":0,"dept":"95"}},{"type":"Feature","geometry":{"type":"Point","coordinates":[2.08233,49.03511]},"properties":{"nom":"Préfecture","ag":["Réseaux urbains et interurbains d'Île-de-France Mobilités (IDFM)"],"lt":0,"dept":"95"}},{"type":"Feature","geometry":{"type":"Point","coordinates":[2.07324,49.07508]},"properties":{"nom":"Clinique Sainte-Marie","ag":["Réseaux urbains et interurbains d'Île-de-France Mobilités (IDFM)"],"lt":0,"dept":"95"}},{"type":"Feature","geometry":{"type":"Point","coordinates":[1.80104,49.1556]},"properties":{"nom":"Moulins","ag":["Réseaux urbains et interurbains d'Île-de-France Mobilités (IDFM)"],"lt":0,"dept":"95"}},{"type":"Feature","geometry":{"type":"Point","coordinates":[2.13468,49.13298]},"properties":{"nom":"Fraternité","ag":["Réseaux urbains et interurbains d'Île-de-France Mobilités (IDFM)"],"lt":0,"dept":"95"}},{"type":"Feature","geometry":{"type":"Point","coordinates":[1.90156,49.14561]},"properties":{"nom":"Bercagny","ag":["Réseaux urbains et interurbains d'Île-de-France Mobilités (IDFM)"],"lt":0,"dept":"95"}},{"type":"Feature","geometry":{"type":"Point","coordinates":[1.74142,49.06081]},"properties":{"nom":"Place","ag":["Réseaux urbains et interurbains d'Île-de-France Mobilités (IDFM)"],"lt":0,"dept":"95"}},{"type":"Feature","geometry":{"type":"Point","coordinates":[2.13442,49.13299]},"properties":{"nom":"Fraternité","ag":["Réseaux urbains et interurbains d'Île-de-France Mobilités (IDFM)"],"lt":0,"dept":"95"}},{"type":"Feature","geometry":{"type":"Point","coordinates":[2.37143,49.08801]},"properties":{"nom":"Place du Souvenir","ag":["Réseaux urbains et interurbains d'Île-de-France Mobilités (IDFM)"],"lt":0,"dept":"95"}},{"type":"Feature","geometry":{"type":"Point","coordinates":[2.29526,49.14559]},"properties":{"nom":"Lycée Évariste Galois","ag":["Réseaux urbains et interurbains d'Île-de-France Mobilités (IDFM)"],"lt":0,"dept":"95"}},{"type":"Feature","geometry":{"type":"Point","coordinates":[2.15043,49.06188]},"properties":{"nom":"Lamartine (Hameau de Vaux)","ag":["Réseaux urbains et interurbains d'Île-de-France Mobilités (IDFM)"],"lt":0,"dept":"95"}},{"type":"Feature","geometry":{"type":"Point","coordinates":[2.15831,49.05875]},"properties":{"nom":"Résidence de Vaux","ag":["Réseaux urbains et interurbains d'Île-de-France Mobilités (IDFM)"],"lt":0,"dept":"95"}},{"type":"Feature","geometry":{"type":"Point","coordinates":[2.33245,49.13871]},"properties":{"nom":"Liberté","ag":["Réseaux urbains et interurbains d'Île-de-France Mobilités (IDFM)"],"lt":0,"dept":"95"}},{"type":"Feature","geometry":{"type":"Point","coordinates":[2.27944,49.14782]},"properties":{"nom":"Gare de Persan-Beaumont","ag":["Réseaux urbains et interurbains d'Île-de-France Mobilités (IDFM)"],"lt":0,"dept":"95"}},{"type":"Feature","geometry":{"type":"Point","coordinates":[2.27972,49.14817]},"properties":{"nom":"Gare de Persan-Beaumont","ag":["Réseaux urbains et interurbains d'Île-de-France Mobilités (IDFM)"],"lt":0,"dept":"95"}},{"type":"Feature","geometry":{"type":"Point","coordinates":[2.27998,49.14825]},"properties":{"nom":"Gare de Persan-Beaumont","ag":["Réseaux urbains et interurbains d'Île-de-France Mobilités (IDFM)"],"lt":0,"dept":"95"}},{"type":"Feature","geometry":{"type":"Point","coordinates":[2.2805,49.14842]},"properties":{"nom":"Gare de Persan-Beaumont","ag":["Réseaux urbains et interurbains d'Île-de-France Mobilités (IDFM)"],"lt":0,"dept":"95"}},{"type":"Feature","geometry":{"type":"Point","coordinates":[2.36739,49.12466]},"properties":{"nom":"Collège Blaise Pascal","ag":["Réseaux urbains et interurbains d'Île-de-France Mobilités (IDFM)"],"lt":0,"dept":"95"}},{"type":"Feature","geometry":{"type":"Point","coordinates":[2.33252,49.13863]},"properties":{"nom":"Liberté","ag":["Réseaux urbains et interurbains d'Île-de-France Mobilités (IDFM)"],"lt":0,"dept":"95"}},{"type":"Feature","geometry":{"type":"Point","coordinates":[2.36105,49.0984]},"properties":{"nom":"Gare de Belloy Saint-Martin","ag":["Réseaux urbains et interurbains d'Île-de-France Mobilités (IDFM)"],"lt":0,"dept":"95"}},{"type":"Feature","geometry":{"type":"Point","coordinates":[2.47337,49.02697]},"properties":{"nom":"Ecole Pasteur","ag":["Réseaux urbains et interurbains d'Île-de-France Mobilités (IDFM)"],"lt":0,"dept":"95"}},{"type":"Feature","geometry":{"type":"Point","coordinates":[2.46805,49.03839]},"properties":{"nom":"Ecole Gabriel Péri","ag":["Réseaux urbains et interurbains d'Île-de-France Mobilités (IDFM)"],"lt":0,"dept":"95"}},{"type":"Feature","geometry":{"type":"Point","coordinates":[2.42203,49.11794]},"properties":{"nom":"Gare de Luzarches","ag":["Réseaux urbains et interurbains d'Île-de-France Mobilités (IDFM)"],"lt":0,"dept":"95"}},{"type":"Feature","geometry":{"type":"Point","coordinates":[2.312,49.146]},"properties":{"nom":"Hôpital Les Oliviers","ag":["Réseaux urbains et interurbains d'Île-de-France Mobilités (IDFM)"],"lt":0,"dept":"95"}},{"type":"Feature","geometry":{"type":"Point","coordinates":[2.45565,49.01958]},"properties":{"nom":"Rond-Point de la Brèche","ag":["Réseaux urbains et interurbains d'Île-de-France Mobilités (IDFM)"],"lt":0,"dept":"95"}},{"type":"Feature","geometry":{"type":"Point","coordinates":[2.37166,49.08831]},"properties":{"nom":"Place du Souvenir","ag":["Réseaux urbains et interurbains d'Île-de-France Mobilités (IDFM)"],"lt":0,"dept":"95"}},{"type":"Feature","geometry":{"type":"Point","coordinates":[2.26662,49.05423]},"properties":{"nom":"Mairie de Chauvry","ag":["Réseaux urbains et interurbains d'Île-de-France Mobilités (IDFM)"],"lt":0,"dept":"95"}},{"type":"Feature","geometry":{"type":"Point","coordinates":[2.45294,49.09632]},"properties":{"nom":"Les Tilleuls","ag":["Réseaux urbains et interurbains d'Île-de-France Mobilités (IDFM)"],"lt":0,"dept":"95"}},{"type":"Feature","geometry":{"type":"Point","coordinates":[2.4226,49.11579]},"properties":{"nom":"Erik Satie","ag":["Réseaux urbains et interurbains d'Île-de-France Mobilités (IDFM)"],"lt":0,"dept":"95"}},{"type":"Feature","geometry":{"type":"Point","coordinates":[2.27161,49.1334]},"properties":{"nom":"Près de Mours","ag":["Réseaux urbains et interurbains d'Île-de-France Mobilités (IDFM)"],"lt":0,"dept":"95"}},{"type":"Feature","geometry":{"type":"Point","coordinates":[2.26898,49.13122]},"properties":{"nom":"Les Lilas","ag":["Réseaux urbains et interurbains d'Île-de-France Mobilités (IDFM)"],"lt":0,"dept":"95"}},{"type":"Feature","geometry":{"type":"Point","coordinates":[2.30772,48.97218]},"properties":{"nom":"Gare d'Enghien-les-Bains","ag":["Réseaux urbains et interurbains d'Île-de-France Mobilités (IDFM)"],"lt":0,"dept":"95"}},{"type":"Feature","geometry":{"type":"Point","coordinates":[2.17822,48.95486]},"properties":{"nom":"Seine Parisii","ag":["Réseaux urbains et interurbains d'Île-de-France Mobilités (IDFM)"],"lt":0,"dept":"95"}},{"type":"Feature","geometry":{"type":"Point","coordinates":[2.18475,48.95468]},"properties":{"nom":"La Plaine","ag":["Réseaux urbains et interurbains d'Île-de-France Mobilités (IDFM)"],"lt":0,"dept":"95"}},{"type":"Feature","geometry":{"type":"Point","coordinates":[2.28917,48.96392]},"properties":{"nom":"Saint-Gratien RER - Guynemer","ag":["Réseaux urbains et interurbains d'Île-de-France Mobilités (IDFM)"],"lt":0,"dept":"95"}},{"type":"Feature","geometry":{"type":"Point","coordinates":[2.39075,48.97683]},"properties":{"nom":"Garges - Sarcelles RER","ag":["Réseaux urbains et interurbains d'Île-de-France Mobilités (IDFM)"],"lt":0,"dept":"95"}},{"type":"Feature","geometry":{"type":"Point","coordinates":[2.28947,48.96399]},"properties":{"nom":"Saint-Gratien RER - Guynemer","ag":["Réseaux urbains et interurbains d'Île-de-France Mobilités (IDFM)"],"lt":0,"dept":"95"}},{"type":"Feature","geometry":{"type":"Point","coordinates":[2.2179,48.95511]},"properties":{"nom":"Collège Claude Monet","ag":["Réseaux urbains et interurbains d'Île-de-France Mobilités (IDFM)"],"lt":0,"dept":"95"}},{"type":"Feature","geometry":{"type":"Point","coordinates":[2.2346,48.98061]},"properties":{"nom":"Maison Bleue","ag":["Réseaux urbains et interurbains d'Île-de-France Mobilités (IDFM)"],"lt":0,"dept":"95"}},{"type":"Feature","geometry":{"type":"Point","coordinates":[2.22845,48.99094]},"properties":{"nom":"La Garancière","ag":["Réseaux urbains et interurbains d'Île-de-France Mobilités (IDFM)"],"lt":0,"dept":"95"}},{"type":"Feature","geometry":{"type":"Point","coordinates":[2.26427,48.97071]},"properties":{"nom":"Gare de Sannois - Maréchal Foch","ag":["Réseaux urbains et interurbains d'Île-de-France Mobilités (IDFM)"],"lt":0,"dept":"95"}},{"type":"Feature","geometry":{"type":"Point","coordinates":[2.26433,48.96989]},"properties":{"nom":"Gare de Sannois - Maréchal Foch","ag":["Réseaux urbains et interurbains d'Île-de-France Mobilités (IDFM)"],"lt":0,"dept":"95"}},{"type":"Feature","geometry":{"type":"Point","coordinates":[2.28403,48.96511]},"properties":{"nom":"Berthie Albrecht","ag":["Réseaux urbains et interurbains d'Île-de-France Mobilités (IDFM)"],"lt":0,"dept":"95"}},{"type":"Feature","geometry":{"type":"Point","coordinates":[2.28439,48.96526]},"properties":{"nom":"Berthie Albrecht","ag":["Réseaux urbains et interurbains d'Île-de-France Mobilités (IDFM)"],"lt":0,"dept":"95"}},{"type":"Feature","geometry":{"type":"Point","coordinates":[2.23339,48.99397]},"properties":{"nom":"Gare de Franconville","ag":["Réseaux urbains et interurbains d'Île-de-France Mobilités (IDFM)"],"lt":0,"dept":"95"}},{"type":"Feature","geometry":{"type":"Point","coordinates":[2.22476,48.98609]},"properties":{"nom":"Clos Milons","ag":["Réseaux urbains et interurbains d'Île-de-France Mobilités (IDFM)"],"lt":0,"dept":"95"}},{"type":"Feature","geometry":{"type":"Point","coordinates":[2.00313,49.04022]},"properties":{"nom":"Bois d'aton","ag":["Réseaux urbains et interurbains d'Île-de-France Mobilités (IDFM)"],"lt":0,"dept":"95"}},{"type":"Feature","geometry":{"type":"Point","coordinates":[2.00292,49.04019]},"properties":{"nom":"Bois d'aton","ag":["Réseaux urbains et interurbains d'Île-de-France Mobilités (IDFM)"],"lt":0,"dept":"95"}},{"type":"Feature","geometry":{"type":"Point","coordinates":[2.10284,49.02477]},"properties":{"nom":"La Danne","ag":["Réseaux urbains et interurbains d'Île-de-France Mobilités (IDFM)"],"lt":0,"dept":"95"}},{"type":"Feature","geometry":{"type":"Point","coordinates":[2.09835,49.02649]},"properties":{"nom":"Ecluse","ag":["Réseaux urbains et interurbains d'Île-de-France Mobilités (IDFM)"],"lt":0,"dept":"95"}},{"type":"Feature","geometry":{"type":"Point","coordinates":[2.3095,49.04059]},"properties":{"nom":"10 Arpents","ag":["Réseaux urbains et interurbains d'Île-de-France Mobilités (IDFM)"],"lt":0,"dept":"95"}},{"type":"Feature","geometry":{"type":"Point","coordinates":[2.14264,49.02117]},"properties":{"nom":"Route de Conflans","ag":["Réseaux urbains et interurbains d'Île-de-France Mobilités (IDFM)"],"lt":0,"dept":"95"}},{"type":"Feature","geometry":{"type":"Point","coordinates":[1.674,49.08699]},"properties":{"nom":"Église","ag":["Réseaux urbains et interurbains d'Île-de-France Mobilités (IDFM)"],"lt":0,"dept":"95"}},{"type":"Feature","geometry":{"type":"Point","coordinates":[1.72989,49.08569]},"properties":{"nom":"Saint-Léger","ag":["Réseaux urbains et interurbains d'Île-de-France Mobilités (IDFM)"],"lt":0,"dept":"95"}},{"type":"Feature","geometry":{"type":"Point","coordinates":[1.67378,49.08706]},"properties":{"nom":"Église","ag":["Réseaux urbains et interurbains d'Île-de-France Mobilités (IDFM)"],"lt":0,"dept":"95"}},{"type":"Feature","geometry":{"type":"Point","coordinates":[2.26249,48.97007]},"properties":{"nom":"Gare de Sannois","ag":["Réseaux urbains et interurbains d'Île-de-France Mobilités (IDFM)"],"lt":0,"dept":"95"}},{"type":"Feature","geometry":{"type":"Point","coordinates":[2.43953,48.98476]},"properties":{"nom":"Place Jean Jaurès","ag":["Réseaux urbains et interurbains d'Île-de-France Mobilités (IDFM)"],"lt":0,"dept":"95"}},{"type":"Feature","geometry":{"type":"Point","coordinates":[2.43921,48.98521]},"properties":{"nom":"Place Jean Jaurès","ag":["Réseaux urbains et interurbains d'Île-de-France Mobilités (IDFM)"],"lt":0,"dept":"95"}},{"type":"Feature","geometry":{"type":"Point","coordinates":[2.46422,48.98265]},"properties":{"nom":"Gay Lussac","ag":["Réseaux urbains et interurbains d'Île-de-France Mobilités (IDFM)"],"lt":0,"dept":"95"}},{"type":"Feature","geometry":{"type":"Point","coordinates":[2.46422,48.98277]},"properties":{"nom":"Gay Lussac","ag":["Réseaux urbains et interurbains d'Île-de-France Mobilités (IDFM)"],"lt":0,"dept":"95"}},{"type":"Feature","geometry":{"type":"Point","coordinates":[2.4261,48.99602]},"properties":{"nom":"Myosotis","ag":["Réseaux urbains et interurbains d'Île-de-France Mobilités (IDFM)"],"lt":0,"dept":"95"}},{"type":"Feature","geometry":{"type":"Point","coordinates":[2.42696,48.99596]},"properties":{"nom":"Myosotis","ag":["Réseaux urbains et interurbains d'Île-de-France Mobilités (IDFM)"],"lt":0,"dept":"95"}},{"type":"Feature","geometry":{"type":"Point","coordinates":[2.44646,48.98523]},"properties":{"nom":"Saint Nicolas","ag":["Réseaux urbains et interurbains d'Île-de-France Mobilités (IDFM)"],"lt":0,"dept":"95"}},{"type":"Feature","geometry":{"type":"Point","coordinates":[2.44637,48.98528]},"properties":{"nom":"Saint Nicolas","ag":["Réseaux urbains et interurbains d'Île-de-France Mobilités (IDFM)"],"lt":0,"dept":"95"}},{"type":"Feature","geometry":{"type":"Point","coordinates":[2.19649,48.96292]},"properties":{"nom":"Champs Guillaume","ag":["Réseaux urbains et interurbains d'Île-de-France Mobilités (IDFM)"],"lt":0,"dept":"95"}},{"type":"Feature","geometry":{"type":"Point","coordinates":[2.43042,48.99763]},"properties":{"nom":"Ecole Louise Michel","ag":["Réseaux urbains et interurbains d'Île-de-France Mobilités (IDFM)"],"lt":0,"dept":"95"}},{"type":"Feature","geometry":{"type":"Point","coordinates":[2.4685,48.98342]},"properties":{"nom":"Triangle de Gonesse / Patte d'Oie","ag":["Réseaux urbains et interurbains d'Île-de-France Mobilités (IDFM)"],"lt":0,"dept":"95"}},{"type":"Feature","geometry":{"type":"Point","coordinates":[2.46863,48.98358]},"properties":{"nom":"Triangle de Gonesse / Patte d'Oie","ag":["Réseaux urbains et interurbains d'Île-de-France Mobilités (IDFM)"],"lt":0,"dept":"95"}},{"type":"Feature","geometry":{"type":"Point","coordinates":[2.42745,48.99897]},"properties":{"nom":"Place des Marronniers","ag":["Réseaux urbains et interurbains d'Île-de-France Mobilités (IDFM)"],"lt":0,"dept":"95"}},{"type":"Feature","geometry":{"type":"Point","coordinates":[2.4212,48.99591]},"properties":{"nom":"Les Marronniers","ag":["Réseaux urbains et interurbains d'Île-de-France Mobilités (IDFM)"],"lt":0,"dept":"95"}},{"type":"Feature","geometry":{"type":"Point","coordinates":[2.44987,48.98645]},"properties":{"nom":"Hôtel de Ville / Mairie","ag":["Réseaux urbains et interurbains d'Île-de-France Mobilités (IDFM)"],"lt":0,"dept":"95"}},{"type":"Feature","geometry":{"type":"Point","coordinates":[2.45014,48.98655]},"properties":{"nom":"Hôtel de Ville / Mairie","ag":["Réseaux urbains et interurbains d'Île-de-France Mobilités (IDFM)"],"lt":0,"dept":"95"}},{"type":"Feature","geometry":{"type":"Point","coordinates":[2.42384,49.00163]},"properties":{"nom":"Mairie Annexe La Fauconnière","ag":["Réseaux urbains et interurbains d'Île-de-France Mobilités (IDFM)"],"lt":0,"dept":"95"}},{"type":"Feature","geometry":{"type":"Point","coordinates":[2.43009,48.99734]},"properties":{"nom":"Ecole Louise Michel","ag":["Réseaux urbains et interurbains d'Île-de-France Mobilités (IDFM)"],"lt":0,"dept":"95"}},{"type":"Feature","geometry":{"type":"Point","coordinates":[2.42869,49.00016]},"properties":{"nom":"Maurice Meyer","ag":["Réseaux urbains et interurbains d'Île-de-France Mobilités (IDFM)"],"lt":0,"dept":"95"}},{"type":"Feature","geometry":{"type":"Point","coordinates":[2.42101,48.99588]},"properties":{"nom":"Les Marronniers","ag":["Réseaux urbains et interurbains d'Île-de-France Mobilités (IDFM)"],"lt":0,"dept":"95"}},{"type":"Feature","geometry":{"type":"Point","coordinates":[2.42232,48.97592]},"properties":{"nom":"Rond-Point du Christ","ag":["Réseaux urbains et interurbains d'Île-de-France Mobilités (IDFM)"],"lt":0,"dept":"95"}},{"type":"Feature","geometry":{"type":"Point","coordinates":[2.41118,48.96804]},"properties":{"nom":"Verdun","ag":["Réseaux urbains et interurbains d'Île-de-France Mobilités (IDFM)"],"lt":0,"dept":"95"}},{"type":"Feature","geometry":{"type":"Point","coordinates":[2.1974,48.96159]},"properties":{"nom":"Jean Bart","ag":["Réseaux urbains et interurbains d'Île-de-France Mobilités (IDFM)"],"lt":0,"dept":"95"}},{"type":"Feature","geometry":{"type":"Point","coordinates":[2.19481,49.01044]},"properties":{"nom":"Place du Marché","ag":["Réseaux urbains et interurbains d'Île-de-France Mobilités (IDFM)"],"lt":0,"dept":"95"}},{"type":"Feature","geometry":{"type":"Point","coordinates":[2.2432,49.00819]},"properties":{"nom":"Les Diablots","ag":["Réseaux urbains et interurbains d'Île-de-France Mobilités (IDFM)"],"lt":0,"dept":"95"}},{"type":"Feature","geometry":{"type":"Point","coordinates":[2.02302,49.06343]},"properties":{"nom":"ZAC de Puiseux","ag":["Réseaux urbains et interurbains d'Île-de-France Mobilités (IDFM)"],"lt":0,"dept":"95"}},{"type":"Feature","geometry":{"type":"Point","coordinates":[2.40131,49.0084]},"properties":{"nom":"Puits La Marlière","ag":["Réseaux urbains et interurbains d'Île-de-France Mobilités (IDFM)"],"lt":0,"dept":"95"}},{"type":"Feature","geometry":{"type":"Point","coordinates":[2.43335,48.98278]},"properties":{"nom":"Lycée René Cassin","ag":["Réseaux urbains et interurbains d'Île-de-France Mobilités (IDFM)"],"lt":0,"dept":"95"}},{"type":"Feature","geometry":{"type":"Point","coordinates":[2.0936,49.04641]},"properties":{"nom":"Pontoise Gare","ag":["Réseaux urbains et interurbains d'Île-de-France Mobilités (IDFM)"],"lt":0,"dept":"95"}},{"type":"Feature","geometry":{"type":"Point","coordinates":[2.43516,48.98895]},"properties":{"nom":"Guy de Maupassant","ag":["Réseaux urbains et interurbains d'Île-de-France Mobilités (IDFM)"],"lt":0,"dept":"95"}},{"type":"Feature","geometry":{"type":"Point","coordinates":[2.43546,48.98861]},"properties":{"nom":"Guy de Maupassant","ag":["Réseaux urbains et interurbains d'Île-de-France Mobilités (IDFM)"],"lt":0,"dept":"95"}},{"type":"Feature","geometry":{"type":"Point","coordinates":[2.4234,48.99925]},"properties":{"nom":"Square la Garenne","ag":["Réseaux urbains et interurbains d'Île-de-France Mobilités (IDFM)"],"lt":0,"dept":"95"}},{"type":"Feature","geometry":{"type":"Point","coordinates":[2.46043,48.9851]},"properties":{"nom":"Fontaine Cypierre","ag":["Réseaux urbains et interurbains d'Île-de-France Mobilités (IDFM)"],"lt":0,"dept":"95"}},{"type":"Feature","geometry":{"type":"Point","coordinates":[2.39813,49.00761]},"properties":{"nom":"Henri Sellier","ag":["Réseaux urbains et interurbains d'Île-de-France Mobilités (IDFM)"],"lt":0,"dept":"95"}},{"type":"Feature","geometry":{"type":"Point","coordinates":[2.39617,49.00618]},"properties":{"nom":"Victor Hugo","ag":["Réseaux urbains et interurbains d'Île-de-France Mobilités (IDFM)"],"lt":0,"dept":"95"}},{"type":"Feature","geometry":{"type":"Point","coordinates":[2.37612,48.97812]},"properties":{"nom":"Forum des Cholettes","ag":["Réseaux urbains et interurbains d'Île-de-France Mobilités (IDFM)"],"lt":0,"dept":"95"}},{"type":"Feature","geometry":{"type":"Point","coordinates":[2.42307,48.98091]},"properties":{"nom":"Mairie Annexe - Collège Jean Moulin","ag":["Réseaux urbains et interurbains d'Île-de-France Mobilités (IDFM)"],"lt":0,"dept":"95"}},{"type":"Feature","geometry":{"type":"Point","coordinates":[2.42327,48.9806]},"properties":{"nom":"Mairie Annexe - Collège Jean Moulin","ag":["Réseaux urbains et interurbains d'Île-de-France Mobilités (IDFM)"],"lt":0,"dept":"95"}},{"type":"Feature","geometry":{"type":"Point","coordinates":[2.41585,48.98549]},"properties":{"nom":"Charles Vaillant","ag":["Réseaux urbains et interurbains d'Île-de-France Mobilités (IDFM)"],"lt":0,"dept":"95"}},{"type":"Feature","geometry":{"type":"Point","coordinates":[2.4274,48.98499]},"properties":{"nom":"Léon Blum","ag":["Réseaux urbains et interurbains d'Île-de-France Mobilités (IDFM)"],"lt":0,"dept":"95"}},{"type":"Feature","geometry":{"type":"Point","coordinates":[2.42725,48.98508]},"properties":{"nom":"Léon Blum","ag":["Réseaux urbains et interurbains d'Île-de-France Mobilités (IDFM)"],"lt":0,"dept":"95"}},{"type":"Feature","geometry":{"type":"Point","coordinates":[2.40339,48.98663]},"properties":{"nom":"Boieldieu","ag":["Réseaux urbains et interurbains d'Île-de-France Mobilités (IDFM)"],"lt":0,"dept":"95"}},{"type":"Feature","geometry":{"type":"Point","coordinates":[2.41091,48.99094]},"properties":{"nom":"Antin","ag":["Réseaux urbains et interurbains d'Île-de-France Mobilités (IDFM)"],"lt":0,"dept":"95"}},{"type":"Feature","geometry":{"type":"Point","coordinates":[2.41591,48.98515]},"properties":{"nom":"Charles Vaillant","ag":["Réseaux urbains et interurbains d'Île-de-France Mobilités (IDFM)"],"lt":0,"dept":"95"}},{"type":"Feature","geometry":{"type":"Point","coordinates":[2.40779,48.98545]},"properties":{"nom":"Lycée Professionnel","ag":["Réseaux urbains et interurbains d'Île-de-France Mobilités (IDFM)"],"lt":0,"dept":"95"}},{"type":"Feature","geometry":{"type":"Point","coordinates":[2.40698,48.98539]},"properties":{"nom":"Lycée Professionnel","ag":["Réseaux urbains et interurbains d'Île-de-France Mobilités (IDFM)"],"lt":0,"dept":"95"}},{"type":"Feature","geometry":{"type":"Point","coordinates":[2.41949,48.98765]},"properties":{"nom":"Jean Jaurès","ag":["Réseaux urbains et interurbains d'Île-de-France Mobilités (IDFM)"],"lt":0,"dept":"95"}},{"type":"Feature","geometry":{"type":"Point","coordinates":[2.419,48.98836]},"properties":{"nom":"Jean Jaurès","ag":["Réseaux urbains et interurbains d'Île-de-France Mobilités (IDFM)"],"lt":0,"dept":"95"}},{"type":"Feature","geometry":{"type":"Point","coordinates":[2.42168,48.98577]},"properties":{"nom":"Pierre Curie","ag":["Réseaux urbains et interurbains d'Île-de-France Mobilités (IDFM)"],"lt":0,"dept":"95"}},{"type":"Feature","geometry":{"type":"Point","coordinates":[2.42184,48.98567]},"properties":{"nom":"Pierre Curie","ag":["Réseaux urbains et interurbains d'Île-de-France Mobilités (IDFM)"],"lt":0,"dept":"95"}},{"type":"Feature","geometry":{"type":"Point","coordinates":[2.42103,48.98273]},"properties":{"nom":"Cimetière","ag":["Réseaux urbains et interurbains d'Île-de-France Mobilités (IDFM)"],"lt":0,"dept":"95"}},{"type":"Feature","geometry":{"type":"Point","coordinates":[2.42096,48.98265]},"properties":{"nom":"Cimetière","ag":["Réseaux urbains et interurbains d'Île-de-France Mobilités (IDFM)"],"lt":0,"dept":"95"}},{"type":"Feature","geometry":{"type":"Point","coordinates":[2.41219,48.98609]},"properties":{"nom":"Les Châtaigniers","ag":["Réseaux urbains et interurbains d'Île-de-France Mobilités (IDFM)"],"lt":0,"dept":"95"}},{"type":"Feature","geometry":{"type":"Point","coordinates":[2.41229,48.98619]},"properties":{"nom":"Les Châtaigniers","ag":["Réseaux urbains et interurbains d'Île-de-France Mobilités (IDFM)"],"lt":0,"dept":"95"}},{"type":"Feature","geometry":{"type":"Point","coordinates":[2.42607,48.9829]},"properties":{"nom":"Roger Dehasque","ag":["Réseaux urbains et interurbains d'Île-de-France Mobilités (IDFM)"],"lt":0,"dept":"95"}},{"type":"Feature","geometry":{"type":"Point","coordinates":[2.41589,48.99426]},"properties":{"nom":"Gare de Villiers-le-Bel Gonesse Arnouville","ag":["Réseaux urbains et interurbains d'Île-de-France Mobilités (IDFM)"],"lt":0,"dept":"95"}},{"type":"Feature","geometry":{"type":"Point","coordinates":[2.42626,48.98313]},"properties":{"nom":"Roger Dehasque","ag":["Réseaux urbains et interurbains d'Île-de-France Mobilités (IDFM)"],"lt":0,"dept":"95"}},{"type":"Feature","geometry":{"type":"Point","coordinates":[2.424,48.98073]},"properties":{"nom":"Mairie Annexe - Collège Jean Moulin","ag":["Réseaux urbains et interurbains d'Île-de-France Mobilités (IDFM)"],"lt":0,"dept":"95"}},{"type":"Feature","geometry":{"type":"Point","coordinates":[2.41969,48.98547]},"properties":{"nom":"Place Gabriel Péri","ag":["Réseaux urbains et interurbains d'Île-de-France Mobilités (IDFM)"],"lt":0,"dept":"95"}},{"type":"Feature","geometry":{"type":"Point","coordinates":[2.41955,48.98555]},"properties":{"nom":"Place Gabriel Péri","ag":["Réseaux urbains et interurbains d'Île-de-France Mobilités (IDFM)"],"lt":0,"dept":"95"}},{"type":"Feature","geometry":{"type":"Point","coordinates":[2.41834,48.98981]},"properties":{"nom":"La Poste","ag":["Réseaux urbains et interurbains d'Île-de-France Mobilités (IDFM)"],"lt":0,"dept":"95"}},{"type":"Feature","geometry":{"type":"Point","coordinates":[2.41802,48.99016]},"properties":{"nom":"La Poste","ag":["Réseaux urbains et interurbains d'Île-de-France Mobilités (IDFM)"],"lt":0,"dept":"95"}},{"type":"Feature","geometry":{"type":"Point","coordinates":[2.42404,48.97627]},"properties":{"nom":"Les Quinconces","ag":["Réseaux urbains et interurbains d'Île-de-France Mobilités (IDFM)"],"lt":0,"dept":"95"}},{"type":"Feature","geometry":{"type":"Point","coordinates":[2.4247,48.97615]},"properties":{"nom":"Les Quinconces","ag":["Réseaux urbains et interurbains d'Île-de-France Mobilités (IDFM)"],"lt":0,"dept":"95"}},{"type":"Feature","geometry":{"type":"Point","coordinates":[2.41724,48.99384]},"properties":{"nom":"Gare de Villiers-le-Bel Gonesse Arnouville","ag":["Réseaux urbains et interurbains d'Île-de-France Mobilités (IDFM)"],"lt":0,"dept":"95"}},{"type":"Feature","geometry":{"type":"Point","coordinates":[2.41526,48.994]},"properties":{"nom":"Gare de Villiers-le-Bel Gonesse Arnouville","ag":["Réseaux urbains et interurbains d'Île-de-France Mobilités (IDFM)"],"lt":0,"dept":"95"}},{"type":"Feature","geometry":{"type":"Point","coordinates":[2.41604,48.98624]},"properties":{"nom":"Charles Vaillant","ag":["Réseaux urbains et interurbains d'Île-de-France Mobilités (IDFM)"],"lt":0,"dept":"95"}},{"type":"Feature","geometry":{"type":"Point","coordinates":[2.41742,48.99398]},"properties":{"nom":"Gare de Villiers-le-Bel Gonesse Arnouville","ag":["Réseaux urbains et interurbains d'Île-de-France Mobilités (IDFM)"],"lt":0,"dept":"95"}},{"type":"Feature","geometry":{"type":"Point","coordinates":[2.4176,48.98608]},"properties":{"nom":"Charles Vaillant","ag":["Réseaux urbains et interurbains d'Île-de-France Mobilités (IDFM)"],"lt":0,"dept":"95"}},{"type":"Feature","geometry":{"type":"Point","coordinates":[2.43179,48.97452]},"properties":{"nom":"Mairie de Bonneuil","ag":["Réseaux urbains et interurbains d'Île-de-France Mobilités (IDFM)"],"lt":0,"dept":"95"}},{"type":"Feature","geometry":{"type":"Point","coordinates":[2.45986,48.9798]},"properties":{"nom":"Ampère","ag":["Réseaux urbains et interurbains d'Île-de-France Mobilités (IDFM)"],"lt":0,"dept":"95"}},{"type":"Feature","geometry":{"type":"Point","coordinates":[2.45975,48.97988]},"properties":{"nom":"Ampère","ag":["Réseaux urbains et interurbains d'Île-de-France Mobilités (IDFM)"],"lt":0,"dept":"95"}},{"type":"Feature","geometry":{"type":"Point","coordinates":[2.45489,48.98074]},"properties":{"nom":"Berthelot","ag":["Réseaux urbains et interurbains d'Île-de-France Mobilités (IDFM)"],"lt":0,"dept":"95"}},{"type":"Feature","geometry":{"type":"Point","coordinates":[2.42521,48.99365]},"properties":{"nom":"Aubépines","ag":["Réseaux urbains et interurbains d'Île-de-France Mobilités (IDFM)"],"lt":0,"dept":"95"}},{"type":"Feature","geometry":{"type":"Point","coordinates":[2.45359,48.98008]},"properties":{"nom":"Berthelot","ag":["Réseaux urbains et interurbains d'Île-de-France Mobilités (IDFM)"],"lt":0,"dept":"95"}},{"type":"Feature","geometry":{"type":"Point","coordinates":[2.43297,48.99174]},"properties":{"nom":"Pierre Salvi","ag":["Réseaux urbains et interurbains d'Île-de-France Mobilités (IDFM)"],"lt":0,"dept":"95"}},{"type":"Feature","geometry":{"type":"Point","coordinates":[2.43294,48.99163]},"properties":{"nom":"Pierre Salvi","ag":["Réseaux urbains et interurbains d'Île-de-France Mobilités (IDFM)"],"lt":0,"dept":"95"}},{"type":"Feature","geometry":{"type":"Point","coordinates":[2.42941,48.99195]},"properties":{"nom":"Hector Berlioz","ag":["Réseaux urbains et interurbains d'Île-de-France Mobilités (IDFM)"],"lt":0,"dept":"95"}},{"type":"Feature","geometry":{"type":"Point","coordinates":[2.4592,48.98389]},"properties":{"nom":"Zone Industrielle","ag":["Réseaux urbains et interurbains d'Île-de-France Mobilités (IDFM)"],"lt":0,"dept":"95"}},{"type":"Feature","geometry":{"type":"Point","coordinates":[2.42446,48.99384]},"properties":{"nom":"Aubépines","ag":["Réseaux urbains et interurbains d'Île-de-France Mobilités (IDFM)"],"lt":0,"dept":"95"}},{"type":"Feature","geometry":{"type":"Point","coordinates":[2.42921,48.99211]},"properties":{"nom":"Hector Berlioz","ag":["Réseaux urbains et interurbains d'Île-de-France Mobilités (IDFM)"],"lt":0,"dept":"95"}},{"type":"Feature","geometry":{"type":"Point","coordinates":[2.42606,49.00069]},"properties":{"nom":"Aristide Briand - Général Durand","ag":["Réseaux urbains et interurbains d'Île-de-France Mobilités (IDFM)"],"lt":0,"dept":"95"}},{"type":"Feature","geometry":{"type":"Point","coordinates":[2.43231,48.98525]},"properties":{"nom":"Saint Blin (Lycée René Cassin)","ag":["Réseaux urbains et interurbains d'Île-de-France Mobilités (IDFM)"],"lt":0,"dept":"95"}},{"type":"Feature","geometry":{"type":"Point","coordinates":[2.45927,48.98375]},"properties":{"nom":"Zone Industrielle","ag":["Réseaux urbains et interurbains d'Île-de-France Mobilités (IDFM)"],"lt":0,"dept":"95"}},{"type":"Feature","geometry":{"type":"Point","coordinates":[2.42289,48.99603]},"properties":{"nom":"Pierre Brossolette","ag":["Réseaux urbains et interurbains d'Île-de-France Mobilités (IDFM)"],"lt":0,"dept":"95"}},{"type":"Feature","geometry":{"type":"Point","coordinates":[2.42319,48.99609]},"properties":{"nom":"Pierre Brossolette","ag":["Réseaux urbains et interurbains d'Île-de-France Mobilités (IDFM)"],"lt":0,"dept":"95"}},{"type":"Feature","geometry":{"type":"Point","coordinates":[2.43602,48.99033]},"properties":{"nom":"Centre d'Apprentissage","ag":["Réseaux urbains et interurbains d'Île-de-France Mobilités (IDFM)"],"lt":0,"dept":"95"}},{"type":"Feature","geometry":{"type":"Point","coordinates":[2.43488,48.99059]},"properties":{"nom":"Centre d'Apprentissage","ag":["Réseaux urbains et interurbains d'Île-de-France Mobilités (IDFM)"],"lt":0,"dept":"95"}},{"type":"Feature","geometry":{"type":"Point","coordinates":[2.43184,48.99385]},"properties":{"nom":"Villa des Châtaigniers","ag":["Réseaux urbains et interurbains d'Île-de-France Mobilités (IDFM)"],"lt":0,"dept":"95"}},{"type":"Feature","geometry":{"type":"Point","coordinates":[2.4317,48.99393]},"properties":{"nom":"Villa des Châtaigniers","ag":["Réseaux urbains et interurbains d'Île-de-France Mobilités (IDFM)"],"lt":0,"dept":"95"}},{"type":"Feature","geometry":{"type":"Point","coordinates":[2.45226,48.99047]},"properties":{"nom":"Cimetière","ag":["Réseaux urbains et interurbains d'Île-de-France Mobilités (IDFM)"],"lt":0,"dept":"95"}},{"type":"Feature","geometry":{"type":"Point","coordinates":[2.43197,48.99093]},"properties":{"nom":"Rond-Point du 14 Juillet","ag":["Réseaux urbains et interurbains d'Île-de-France Mobilités (IDFM)"],"lt":0,"dept":"95"}},{"type":"Feature","geometry":{"type":"Point","coordinates":[2.27853,48.97202]},"properties":{"nom":"Cité Jean Moulin","ag":["Réseaux urbains et interurbains d'Île-de-France Mobilités (IDFM)"],"lt":0,"dept":"95"}},{"type":"Feature","geometry":{"type":"Point","coordinates":[2.43138,48.99102]},"properties":{"nom":"Rond-Point du 14 Juillet","ag":["Réseaux urbains et interurbains d'Île-de-France Mobilités (IDFM)"],"lt":0,"dept":"95"}},{"type":"Feature","geometry":{"type":"Point","coordinates":[2.4587,48.98901]},"properties":{"nom":"Cressonnières","ag":["Réseaux urbains et interurbains d'Île-de-France Mobilités (IDFM)"],"lt":0,"dept":"95"}},{"type":"Feature","geometry":{"type":"Point","coordinates":[2.4336,48.99919]},"properties":{"nom":"Chemin d'Ecouen","ag":["Réseaux urbains et interurbains d'Île-de-France Mobilités (IDFM)"],"lt":0,"dept":"95"}},{"type":"Feature","geometry":{"type":"Point","coordinates":[2.43306,48.99979]},"properties":{"nom":"Chemin d'Ecouen","ag":["Réseaux urbains et interurbains d'Île-de-France Mobilités (IDFM)"],"lt":0,"dept":"95"}},{"type":"Feature","geometry":{"type":"Point","coordinates":[2.29708,48.96317]},"properties":{"nom":"Rue de Saint-Gratien","ag":["Réseaux urbains et interurbains d'Île-de-France Mobilités (IDFM)"],"lt":0,"dept":"95"}},{"type":"Feature","geometry":{"type":"Point","coordinates":[2.41593,48.9561]},"properties":{"nom":"Léo Lagrange","ag":["Réseaux urbains et interurbains d'Île-de-France Mobilités (IDFM)"],"lt":0,"dept":"95"}},{"type":"Feature","geometry":{"type":"Point","coordinates":[2.40686,48.96825]},"properties":{"nom":"Le Cube Garges","ag":["Réseaux urbains et interurbains d'Île-de-France Mobilités (IDFM)"],"lt":0,"dept":"95"}},{"type":"Feature","geometry":{"type":"Point","coordinates":[2.40243,48.97046]},"properties":{"nom":"Les Mûriers","ag":["Réseaux urbains et interurbains d'Île-de-France Mobilités (IDFM)"],"lt":0,"dept":"95"}},{"type":"Feature","geometry":{"type":"Point","coordinates":[2.41619,48.95661]},"properties":{"nom":"Léo Lagrange","ag":["Réseaux urbains et interurbains d'Île-de-France Mobilités (IDFM)"],"lt":0,"dept":"95"}},{"type":"Feature","geometry":{"type":"Point","coordinates":[2.39103,48.97671]},"properties":{"nom":"Garges - Sarcelles RER","ag":["Réseaux urbains et interurbains d'Île-de-France Mobilités (IDFM)"],"lt":0,"dept":"95"}},{"type":"Feature","geometry":{"type":"Point","coordinates":[2.40963,48.96605]},"properties":{"nom":"Place du 19 Mars 1962","ag":["Réseaux urbains et interurbains d'Île-de-France Mobilités (IDFM)"],"lt":0,"dept":"95"}},{"type":"Feature","geometry":{"type":"Point","coordinates":[2.40705,48.96786]},"properties":{"nom":"Le Cube Garges","ag":["Réseaux urbains et interurbains d'Île-de-France Mobilités (IDFM)"],"lt":0,"dept":"95"}},